timestamp,airspeed,armed,attack_type,attitude.pitch,attitude.roll,attitude.yaw,battery.current,battery.level,battery.voltage,commands.count,commands.next,ekf_ok,gimbal.pitch,gimbal.roll,gimbal.yaw,gps_0.eph,gps_0.epv,gps_0.fix_type,gps_0.satellites_visible,groundspeed,heading,home_location.alt,home_location.global_frame,home_location.lat,home_location.local_frame,home_location.lon,is_armable,last_heartbeat,location.global_frame.alt,location.global_frame.global_frame,location.global_frame.lat,location.global_frame.local_frame,location.global_frame.lon,location.global_relative_frame.alt,location.global_relative_frame.global_frame,location.global_relative_frame.lat,location.global_relative_frame.local_frame,location.global_relative_frame.lon,location.local_frame.down,location.local_frame.east,location.local_frame.north,ml_verdict,mode.name,mount_status[0],mount_status[1],mount_status[2],rangefinder.distance,rangefinder.voltage,system_status.state,timedelta,velocity[0],velocity[1],velocity[2],version.autopilot_type,version.major,version.minor,version.patch,version.raw_version,version.release,version.vehicle_type
1733609187.390545,0.0,True,benign,-0.0091980574652552,-0.0206746347248554,3.073096990585327,3.26,79,16.127,0,0,False,,,,84,135,4,17,0.0490313693881034,175,80.555,,39.142395,,-76.7304815,False,0.0191541660000211,81.145,,39.1423948,,-76.7304808,0.026,,39.1423948,,-76.7304808,8.364935874938965,7.0980987548828125,-21.36360740661621,unknown,POSCTL,,,,9,,ACTIVE,0.0,0.01,0.04,-0.17,12,1,15,2,17760768,0,13
1733609188.4048374,0.0,True,benign,-0.0087132221087813,-0.0171379670500755,3.0753304958343506,3.57,78,16.092,0,0,False,,,,84,135,4,16,0.0304566584527492,176,81.118,,39.142395,,-76.7304809,False,0.0306657219999806,81.181,,39.1423945,,-76.7304808,0.062,,39.1423945,,-76.7304808,8.32996940612793,7.106895446777344,-21.398792266845703,unknown,POSCTL,,,,9,,ACTIVE,1733609188.4048374,0.02,0.03,-0.18,12,1,15,2,17760768,0,13
1733609188.5044632,0.0,True,benign,-0.0087842792272567,-0.0168404150754213,3.075721979141236,3.57,78,16.092,0,0,False,,,,84,135,4,16,0.0208934787660837,176,81.118,,39.142395,,-76.7304809,False,0.1293873150000308,81.186,,39.1423945,,-76.7304807,0.067,,39.1423945,,-76.7304807,8.324910163879395,7.107613563537598,-21.4007511138916,unknown,POSCTL,,,,9,,ACTIVE,0.099625825881958,0.02,0.02,-0.18,12,1,15,2,17760768,0,13
1733609188.6045823,0.0,True,benign,-0.0085474699735641,-0.0161083377897739,3.076392889022827,3.57,78,16.092,0,0,False,,,,84,135,4,16,0.0208934787660837,176,81.118,,39.142395,,-76.7304809,False,0.2230442960000118,81.19,,39.1423945,,-76.7304807,0.071,,39.1423945,,-76.7304807,8.324910163879395,7.107613563537598,-21.4007511138916,unknown,POSCTL,,,,9,,ACTIVE,1733609188.5049565,0.03,0.02,-0.17,12,1,15,2,17760768,0,13
1733609188.7047763,0.0,True,benign,-0.00769745092839,-0.015624857507646,3.076385974884033,3.57,78,16.092,0,0,False,,,,84,135,4,16,0.0208934787660837,176,81.118,,39.142395,,-76.7304809,False,0.3289400740000019,81.192,,39.1423945,,-76.7304807,0.073,,39.1423945,,-76.7304807,8.319700241088867,7.1074748039245605,-21.401227951049805,unknown,POSCTL,,,,9,,ACTIVE,0.199819803237915,0.03,0.0,-0.16,12,1,15,2,17760768,0,13
1733609188.8050642,0.0,True,benign,-0.0075140832923352,-0.015910368412733,3.0768814086914062,3.61,77,16.056,0,0,False,,,,84,135,4,16,0.0376097485423088,176,81.118,,39.142395,,-76.7304809,False,0.4184492959999488,81.195,,39.1423945,,-76.7304808,0.076,,39.1423945,,-76.7304808,8.317727088928223,7.106616497039795,-21.400697708129883,unknown,POSCTL,,,,9,,ACTIVE,1733609188.6052444,0.03,-0.01,-0.17,12,1,15,2,17760768,0,13
1733609188.905892,0.0,True,benign,-0.0073495074175298,-0.0153719764202833,3.0774893760681152,3.61,77,16.056,0,0,False,,,,84,135,4,16,0.0376097485423088,176,81.118,,39.142395,,-76.7304809,False,0.5314471289999574,81.197,,39.1423945,,-76.7304808,0.078,,39.1423945,,-76.7304808,8.314353942871094,7.105128765106201,-21.40066337585449,unknown,POSCTL,,,,9,,ACTIVE,0.3006477355957031,0.03,-0.02,-0.16,12,1,15,2,17760768,0,13
1733609189.005492,0.0,True,benign,-0.0072791050188243,-0.0150184454396367,3.077552795410156,3.61,77,16.056,0,0,False,,,,84,135,4,16,0.0376097485423088,176,81.118,,39.142395,,-76.7304809,False,0.6192755739999711,81.201,,39.1423945,,-76.7304808,0.082,,39.1423945,,-76.7304808,8.310311317443848,7.105242729187012,-21.4001407623291,unknown,POSCTL,,,,9,,ACTIVE,1733609188.7048442,0.04,-0.01,-0.16,12,1,15,2,17760768,0,13
1733609189.105608,0.0,True,benign,-0.0083005540072917,-0.0150975519791245,3.0777459144592285,3.61,77,16.056,0,0,False,,,,84,135,4,16,0.0376097485423088,176,81.118,,39.142395,,-76.7304809,False,0.727328813999975,81.204,,39.1423945,,-76.7304808,0.086,,39.1423945,,-76.7304808,8.305431365966797,7.104766845703125,-21.4000244140625,unknown,POSCTL,,,,9,,ACTIVE,0.4007637500762939,0.03,-0.03,-0.16,12,1,15,2,17760768,0,13
1733609189.2057772,0.0,True,benign,-0.0070292758755385,-0.0145272323861718,3.077969074249268,3.61,77,16.056,0,0,False,,,,84,135,4,16,0.032839611172676,176,81.118,,39.142395,,-76.7304809,False,0.8260696480000433,81.209,,39.1423945,,-76.7304808,0.09,,39.1423945,,-76.7304808,8.302452087402344,7.103817939758301,-21.40190887451172,unknown,POSCTL,,,,9,,ACTIVE,1733609188.8050134,0.02,-0.04,-0.16,12,1,15,2,17760768,0,13
1733609189.3068671,0.0,True,benign,-0.0082527007907629,-0.0141587732359766,3.0777406692504883,3.61,77,16.056,0,0,False,,,,84,135,4,16,0.032839611172676,176,81.118,,39.142395,,-76.7304809,False,0.9322747590000516,81.208,,39.1423945,,-76.7304808,0.09,,39.1423945,,-76.7304808,8.302319526672363,7.102174758911133,-21.40723991394043,unknown,POSCTL,,,,9,,ACTIVE,0.5018537044525146,0.01,-0.03,-0.15,12,1,15,2,17760768,0,13
1733609189.4064448,0.0,True,benign,-0.0074370936490595,-0.0143410125747323,3.0787582397460938,3.61,77,16.056,0,0,False,,,,84,135,4,16,0.032839611172676,176,81.118,,39.142395,,-76.7304809,False,0.0345370920000505,81.209,,39.1423944,,-76.7304808,0.091,,39.1423944,,-76.7304808,8.302319526672363,7.102174758911133,-21.40723991394043,unknown,POSCTL,,,,9,,ACTIVE,1733609188.904591,0.01,-0.05,-0.15,12,1,15,2,17760768,0,13
1733609189.5075507,0.0,True,benign,-0.0078553389757871,-0.0139238750562071,3.078439950942993,3.48,76,16.043,0,0,False,,,,84,135,4,16,0.042870670557022,176,81.118,,39.142395,,-76.7304809,False,0.1358208330000252,81.212,,39.1423944,,-76.7304808,0.094,,39.1423944,,-76.7304808,8.300702095031738,7.100275039672852,-21.41025161743164,unknown,POSCTL,,,,9,,ACTIVE,0.6029596328735352,0.01,-0.04,-0.15,12,1,15,2,17760768,0,13
1733609189.606716,0.0,True,benign,-0.0083559155464172,-0.0142070213332772,3.077714443206787,3.48,76,16.043,0,0,False,,,,84,135,4,16,0.042870670557022,176,81.118,,39.142395,,-76.7304809,False,0.2318294620000642,81.211,,39.1423944,,-76.7304808,0.092,,39.1423944,,-76.7304808,8.299729347229004,7.099204063415527,-21.41314125061035,unknown,POSCTL,,,,9,,ACTIVE,1733609189.0037563,0.01,-0.05,-0.13,12,1,15,2,17760768,0,13
1733609189.7069943,0.0,True,benign,-0.0083412481471896,-0.0138913076370954,3.077819585800171,3.48,76,16.043,0,0,False,,,,84,135,4,16,0.042870670557022,176,81.118,,39.142395,,-76.7304809,False,0.3069702770000049,81.209,,39.1423943,,-76.7304808,0.091,,39.1423943,,-76.7304808,8.30179214477539,7.098433971405029,-21.417404174804688,unknown,POSCTL,,,,9,,ACTIVE,0.7032380104064941,0.0,-0.03,-0.14,12,1,15,2,17760768,0,13
1733609189.807186,0.0,True,benign,-0.0084452219307422,-0.013512154109776,3.078200578689575,3.48,76,16.043,0,0,False,,,,84,135,4,16,0.0496208518743515,176,81.118,,39.142395,,-76.7304809,False,0.4322931840000592,81.205,,39.1423943,,-76.7304808,0.086,,39.1423943,,-76.7304808,8.307355880737305,7.099738597869873,-21.42161750793457,unknown,POSCTL,,,,9,,ACTIVE,1733609189.103948,0.01,-0.04,-0.14,12,1,15,2,17760768,0,13
1733609189.9074228,0.0,True,benign,-0.0084245819598436,-0.0134094897657632,3.078129768371582,3.48,76,16.043,0,0,False,,,,84,135,4,16,0.0496208518743515,176,81.118,,39.142395,,-76.7304809,False,0.513726555000062,81.202,,39.1423943,,-76.7304808,0.083,,39.1423943,,-76.7304808,8.309897422790527,7.101489067077637,-21.42512321472168,unknown,POSCTL,,,,9,,ACTIVE,0.8034749031066895,0.0,-0.03,-0.14,12,1,15,2,17760768,0,13
1733609190.0075245,0.0,True,benign,-0.007902911864221,-0.0130494842305779,3.078252077102661,3.48,76,16.043,0,0,False,,,,84,135,4,16,0.0496208518743515,176,81.118,,39.142395,,-76.7304809,False,0.6341536659999747,81.204,,39.1423943,,-76.7304808,0.085,,39.1423943,,-76.7304808,8.30626106262207,7.100989818572998,-21.426633834838867,unknown,POSCTL,,,,9,,ACTIVE,1733609189.204049,0.01,-0.06,-0.14,12,1,15,2,17760768,0,13
1733609190.1077466,0.0,True,benign,-0.0082087172195315,-0.0129710528999567,3.078834056854248,3.48,76,16.043,0,0,False,,,,84,135,4,16,0.0496208518743515,176,81.118,,39.142395,,-76.7304809,False,0.7303841469999952,81.204,,39.1423942,,-76.7304808,0.086,,39.1423942,,-76.7304808,8.30808162689209,7.100656032562256,-21.4299259185791,unknown,POSCTL,,,,9,,ACTIVE,0.9036972522735596,0.0,-0.04,-0.14,12,1,15,2,17760768,0,13
1733609190.2089927,0.0,True,benign,-0.007813025265932,-0.0125705804675817,3.0794577598571777,3.5,76,16.035,0,0,False,,,,84,135,4,16,0.083159327507019,176,81.118,,39.142395,,-76.7304809,False,0.8372885730000235,81.204,,39.1423942,,-76.7304808,0.085,,39.1423942,,-76.7304808,8.30808162689209,7.100656032562256,-21.4299259185791,unknown,POSCTL,,,,9,,ACTIVE,1733609189.3052957,0.0,-0.08,-0.14,12,1,15,2,17760768,0,13
1733609190.3080497,0.0,True,benign,-0.0073782382532954,-0.0122357411310076,3.079824209213257,3.5,76,16.035,0,0,False,,,,84,135,4,16,0.083159327507019,176,81.118,,39.142395,,-76.7304809,False,0.9254214989999808,81.205,,39.1423942,,-76.7304809,0.087,,39.1423942,,-76.7304809,8.305737495422363,7.09836483001709,-21.43259048461914,unknown,POSCTL,,,,9,,ACTIVE,1.0027542114257812,0.01,-0.06,-0.16,12,1,15,2,17760768,0,13
1733609190.409232,0.0,True,benign,-0.0073501230217516,-0.0120158167555928,3.080044984817505,3.5,76,16.035,0,0,False,,,,84,135,4,16,0.083159327507019,176,81.118,,39.142395,,-76.7304809,False,0.0403548889999001,81.207,,39.1423942,,-76.7304809,0.088,,39.1423942,,-76.7304809,8.304535865783691,7.096092700958252,-21.433988571166992,unknown,POSCTL,,,,9,,ACTIVE,1733609189.406478,0.01,-0.08,-0.16,12,1,15,2,17760768,0,13
1733609190.5091724,0.0,True,benign,-0.0072659789584577,-0.0117193413898348,3.0809695720672607,3.5,76,16.035,0,0,False,,,,84,135,4,16,0.0859168693423271,176,81.118,,39.142395,,-76.7304809,False,0.1402979069999901,81.206,,39.1423942,,-76.7304809,0.088,,39.1423942,,-76.7304809,8.304924964904785,7.096224308013916,-21.43577003479004,unknown,POSCTL,,,,9,,ACTIVE,1.1026945114135742,0.02,-0.06,-0.17,12,1,15,2,17760768,0,13
1733609190.6085117,0.0,True,benign,-0.0071381470188498,-0.011777626350522,3.080569267272949,3.5,76,16.035,0,0,False,,,,84,135,4,16,0.0859168693423271,176,81.118,,39.142395,,-76.7304809,False,0.2364339439999412,81.207,,39.1423942,,-76.7304808,0.088,,39.1423942,,-76.7304808,8.30395221710205,7.097583293914795,-21.43305015563965,unknown,POSCTL,,,,9,,ACTIVE,1733609189.5058172,0.02,-0.09,-0.16,12,1,15,2,17760768,0,13
1733609190.708661,0.0,True,benign,-0.0076979584991931,-0.0115906530991196,3.081228494644165,3.5,76,16.035,0,0,False,,,,84,135,4,16,0.0859168693423271,176,81.118,,39.142395,,-76.7304809,False,0.3204536289999851,81.211,,39.1423942,,-76.7304808,0.092,,39.1423942,,-76.7304808,8.30074691772461,7.097954750061035,-21.43277931213379,unknown,POSCTL,,,,9,,ACTIVE,1.2028439044952393,0.03,-0.09,-0.17,12,1,15,2,17760768,0,13
1733609190.8091288,0.0,True,benign,-0.0077776699326932,-0.0115708252415061,3.0815751552581787,3.57,75,16.019,0,0,False,,,,84,136,4,16,0.0859168693423271,176,81.118,,39.142395,,-76.7304809,False,0.4391331109999328,81.211,,39.1423942,,-76.7304808,0.093,,39.1423942,,-76.7304808,8.298418045043945,7.100034713745117,-21.432838439941406,unknown,POSCTL,,,,9,,ACTIVE,1733609189.6062849,0.03,-0.09,-0.17,12,1,15,2,17760768,0,13
1733609190.9092782,0.0,True,benign,-0.0078160958364605,-0.0115665439516305,3.081727266311645,3.57,75,16.019,0,0,False,,,,84,136,4,16,0.0822413265705108,176,81.118,,39.142395,,-76.7304809,False,0.5335380550000082,81.209,,39.1423942,,-76.7304808,0.091,,39.1423942,,-76.7304808,8.300515174865723,7.100344181060791,-21.433040618896484,unknown,POSCTL,,,,9,,ACTIVE,1.3029932975769043,0.04,-0.1,-0.17,12,1,15,2,17760768,0,13
1733609191.0101955,0.0,True,benign,-0.0080557828769087,-0.01095971185714,3.0822739601135254,3.57,75,16.019,0,0,False,,,,84,136,4,16,0.0822413265705108,176,81.118,,39.142395,,-76.7304809,False,0.6413271479999594,81.214,,39.1423942,,-76.7304808,0.095,,39.1423942,,-76.7304808,8.300515174865723,7.100344181060791,-21.433040618896484,unknown,POSCTL,,,,9,,ACTIVE,1733609189.7072022,0.04,-0.07,-0.16,12,1,15,2,17760768,0,13
1733609191.109867,0.0,True,benign,-0.0075447936542332,-0.0109780244529247,3.081298351287842,3.57,75,16.019,0,0,False,,,,84,136,4,16,0.0822413265705108,176,81.118,,39.142395,,-76.7304809,False,0.7329986849999841,81.22,,39.1423942,,-76.7304809,0.101,,39.1423942,,-76.7304809,8.29404067993164,7.096923351287842,-21.432241439819336,unknown,POSCTL,,,,9,,ACTIVE,1.4026648998260498,0.03,-0.09,-0.15,12,1,15,2,17760768,0,13
1733609191.2097538,0.0,True,benign,-0.007272454444319,-0.011115706525743,3.082832098007202,3.57,75,16.019,0,0,False,,,,84,136,4,16,0.1144774705171585,176,81.118,,39.142395,,-76.7304809,False,0.8225887029999512,81.219,,39.1423942,,-76.7304809,0.101,,39.1423942,,-76.7304809,8.292170524597168,7.095653057098389,-21.43247985839844,unknown,POSCTL,,,,9,,ACTIVE,1733609189.8070889,0.03,-0.1,-0.16,12,1,15,2,17760768,0,13
1733609191.3099852,0.0,True,benign,-0.0059152920730412,-0.0110476640984416,3.082794189453125,3.57,75,16.019,0,0,False,,,,84,136,4,16,0.1144774705171585,176,81.118,,39.142395,,-76.7304809,False,0.9379466479999792,81.218,,39.1423942,,-76.7304809,0.099,,39.1423942,,-76.7304809,8.293564796447754,7.09544563293457,-21.43227767944336,unknown,POSCTL,,,,9,,ACTIVE,1.5028963088989258,0.04,-0.11,-0.15,12,1,15,2,17760768,0,13
1733609191.4101486,0.0,True,benign,-0.0050826212391257,-0.0112030673772096,3.0829203128814697,3.57,75,16.019,0,0,False,,,,84,136,4,17,0.1144774705171585,176,81.118,,39.142395,,-76.7304809,False,0.0051393149999512,81.216,,39.1423942,,-76.7304809,0.097,,39.1423942,,-76.7304809,8.295685768127441,7.0963945388793945,-21.431716918945312,unknown,POSCTL,,,,9,,ACTIVE,1733609189.9072523,0.03,-0.1,-0.15,12,1,15,2,17760768,0,13
1733609191.5112216,0.0,True,benign,-0.0046024634502828,-0.0115805929526686,3.083134889602661,7.84,73,15.882,0,0,False,,,,84,136,4,16,0.1144774705171585,176,81.118,,39.142395,,-76.7304809,False,0.1141715919999342,81.217,,39.1423942,,-76.7304809,0.0,,39.1423942,,-76.7304809,8.294530868530273,7.0953521728515625,-21.43120384216309,unknown,POSCTL,,,,9,,ACTIVE,1.6039693355560305,0.04,-0.11,-0.15,12,1,15,2,17760768,0,13
1733609191.6105156,0.0,True,benign,-0.0054006674326956,-0.0120512647554278,3.0831849575042725,7.84,73,15.882,0,0,False,,,,84,136,4,16,0.1224433034658432,176,81.118,,39.142395,,-76.7304809,False,0.2039521659999081,81.219,,39.1423942,,-76.7304809,0.001,,39.1423942,,-76.7304809,8.292853355407715,7.094235897064209,-21.42915153503418,unknown,POSCTL,,,,9,,ACTIVE,1733609190.0065465,0.05,-0.11,-0.15,12,1,15,2,17760768,0,13
1733609191.7107682,0.0,True,benign,-0.0065989289432764,-0.0114272767677903,3.083975553512573,7.84,73,15.882,0,0,False,,,,84,136,4,16,0.1224433034658432,176,81.118,,39.142395,,-76.7304809,False,0.3070071659999485,81.219,,39.1423942,,-76.7304809,0.002,,39.1423942,,-76.7304809,8.291215896606445,7.09272050857544,-21.4273681640625,unknown,POSCTL,,,,9,,ACTIVE,1.7042219638824463,0.05,-0.11,-0.15,12,1,15,2,17760768,0,13
1733609191.8109372,0.0,True,benign,-0.0063113095238804,-0.0110324984416365,3.084436655044556,7.84,73,15.882,0,0,False,,,,84,136,4,16,0.1224433034658432,176,81.118,,39.142395,,-76.7304809,False,0.4103495919999886,81.222,,39.1423943,,-76.7304809,0.004,,39.1423943,,-76.7304809,8.291215896606445,7.09272050857544,-21.4273681640625,unknown,POSCTL,,,,9,,ACTIVE,1733609190.1067152,0.06,-0.11,-0.15,12,1,15,2,17760768,0,13
1733609191.911425,0.0,True,benign,-0.0058712339960038,-0.0107190124690532,3.083802461624145,7.84,73,15.882,0,0,False,,,,84,136,4,16,0.1504909545183181,176,81.118,,39.142395,,-76.7304809,False,0.5136116289999109,81.223,,39.1423943,,-76.7304809,0.005,,39.1423943,,-76.7304809,8.288827896118164,7.092634201049805,-21.424436569213867,unknown,POSCTL,,,,9,,ACTIVE,1.8047099113464355,0.08,-0.12,-0.15,12,1,15,2,17760768,0,13
1733609192.011529,0.0,True,benign,-0.0072483555413782,-0.0109408935531973,3.08454966545105,7.84,73,15.882,0,0,False,,,,84,136,4,16,0.1504909545183181,176,81.118,,39.142395,,-76.7304809,False,0.5966783139999734,81.232,,39.1423943,,-76.730481,0.015,,39.1423943,,-76.730481,8.283169746398926,7.089361190795898,-21.420307159423828,unknown,POSCTL,,,,9,,ACTIVE,1733609190.206819,0.07,-0.12,-0.17,12,1,15,2,17760768,0,13
1733609192.11187,0.0,True,benign,-0.0071754627861082,-0.0113361394032835,3.083935022354126,7.84,73,15.882,0,0,False,,,,84,136,4,16,0.1504909545183181,176,81.118,,39.142395,,-76.7304809,False,0.6850603699999738,81.232,,39.1423943,,-76.730481,0.015,,39.1423943,,-76.730481,8.279552459716797,7.088734149932861,-21.416955947875977,unknown,POSCTL,,,,9,,ACTIVE,1.9050509929656985,0.07,-0.12,-0.17,12,1,15,2,17760768,0,13
1733609192.2127838,0.0,True,benign,-0.0071878740563988,-0.0120652569457888,3.08337950706482,11.97,71,15.723,0,0,False,,,,84,136,4,16,0.1337813735008239,176,81.118,,39.142395,,-76.7304809,False,0.816247313999952,81.231,,39.1423943,,-76.7304809,0.014,,39.1423943,,-76.7304809,8.279794692993164,7.093181610107422,-21.417675018310547,unknown,POSCTL,,,,9,,ACTIVE,1733609190.3077328,0.07,-0.11,-0.17,12,1,15,2,17760768,0,13
1733609192.3121097,0.0,True,benign,-0.0083968015387654,-0.0137608991935849,3.0819129943847656,11.97,71,15.723,0,0,False,,,,84,136,4,16,0.1337813735008239,176,81.118,,39.142395,,-76.7304809,False,0.8903127959999892,81.235,,39.1423943,,-76.7304809,0.018,,39.1423943,,-76.7304809,8.274879455566406,7.094174861907959,-21.41579246520996,unknown,POSCTL,,,,9,,ACTIVE,2.0043768882751465,0.07,-0.11,-0.18,12,1,15,2,17760768,0,13
1733609192.412506,0.0,True,lidar_spoofer,-0.0099500939249992,-0.0210513994097709,3.076589584350586,11.97,71,15.723,0,0,False,,,,84,136,4,16,0.1337813735008239,176,81.118,,39.142395,,-76.7304809,False,0.0322914629999786,81.253,,39.1423944,,-76.7304809,0.036,,39.1423944,,-76.7304809,8.259549140930176,7.092478752136231,-21.411975860595703,unknown,POSCTL,,,,7,,ACTIVE,1733609190.4081292,0.06,-0.1,-0.27,12,1,15,2,17760768,0,13
1733609192.5125155,0.0,True,lidar_spoofer,-0.0122951297089457,-0.0297646578401327,3.060123920440674,11.97,71,15.723,0,0,False,,,,84,136,4,16,0.1337813735008239,176,81.118,,39.142395,,-76.7304809,False,0.1262410369999997,81.267,,39.1423944,,-76.7304809,0.049,,39.1423944,,-76.7304809,8.238452911376953,7.0965752601623535,-21.41330909729004,unknown,POSCTL,,,,9,,ACTIVE,2.104386329650879,0.06,-0.1,-0.36,12,1,15,2,17760768,0,13
1733609192.6126256,0.0,True,lidar_spoofer,-0.014340529218316,-0.0333307310938835,3.0384838581085205,11.97,71,15.723,0,0,False,,,,84,136,4,16,0.1273126006126403,174,81.118,,39.142395,,-76.7304809,False,0.2378671300000405,81.307,,39.1423943,,-76.7304808,0.09,,39.1423943,,-76.7304808,8.238452911376953,7.0965752601623535,-21.41330909729004,unknown,POSCTL,,,,7,,ACTIVE,1733609190.5082393,0.04,-0.11,-0.59,12,1,15,2,17760768,0,13
1733609192.7126293,0.0,True,lidar_spoofer,-0.011842387728393,-0.0359869748353958,3.0112085342407227,11.97,71,15.723,0,0,False,,,,84,136,4,16,0.1273126006126403,174,81.118,,39.142395,,-76.7304809,False,0.3259235000000444,81.34,,39.1423943,,-76.7304808,0.122,,39.1423943,,-76.7304808,8.199748039245605,7.099696159362793,-21.41724967956543,unknown,POSCTL,,,,10,,ACTIVE,2.204390048980713,0.02,-0.12,-0.71,12,1,15,2,17760768,0,13
1733609192.8128774,0.0,True,lidar_spoofer,-0.001941681257449,-0.038056094199419,2.9858767986297607,11.97,71,15.723,0,0,False,,,,84,136,4,16,0.1273126006126403,174,81.118,,39.142395,,-76.7304809,False,0.4371336110000356,81.381,,39.1423943,,-76.7304808,0.164,,39.1423943,,-76.7304808,8.13047981262207,7.102680683135986,-21.42465209960937,unknown,POSCTL,,,,2,,ACTIVE,1733609190.6084874,0.01,-0.11,-0.84,12,1,15,2,17760768,0,13
1733609192.9131415,0.0,True,lidar_spoofer,0.005375200882554,-0.0338011123239994,2.960115909576416,24.19,65,15.312,0,0,False,,,,84,136,4,16,0.1086548864841461,169,81.118,,39.142395,,-76.7304809,False,0.5358432780000157,81.504,,39.1423942,,-76.7304808,0.287,,39.1423942,,-76.7304808,8.04397201538086,7.105038642883301,-21.43276023864746,unknown,POSCTL,,,,1,,ACTIVE,2.304654121398926,0.01,-0.1,-1.14,12,1,15,2,17760768,0,13
1733609193.0130546,0.0,True,lidar_spoofer,-0.0003024375473614,-0.0252928659319877,2.9387168884277344,24.19,65,15.312,0,0,False,,,,84,136,4,16,0.1086548864841461,169,81.118,,39.142395,,-76.7304809,False,0.6339067410000325,81.58,,39.1423941,,-76.7304807,0.363,,39.1423941,,-76.7304807,7.919307231903076,7.1074957847595215,-21.439924240112305,unknown,POSCTL,,,,3,,ACTIVE,1733609190.7084005,0.01,-0.11,-1.25,12,1,15,2,17760768,0,13
1733609193.1133597,0.0,True,lidar_spoofer,-0.001255708746612,-0.0263236593455076,2.923720359802246,24.19,65,15.312,0,0,False,,,,84,136,4,16,0.1086548864841461,169,81.118,,39.142395,,-76.7304809,False,0.7372307589999991,81.738,,39.1423941,,-76.7304807,0.521,,39.1423941,,-76.7304807,7.800424098968506,7.110321521759033,-21.44872283935547,unknown,POSCTL,,,,32,,ACTIVE,2.404958963394165,0.02,-0.11,-1.37,12,1,15,2,17760768,0,13
1733609193.2136014,0.0,True,lidar_spoofer,-0.0047877393662929,-0.0262455772608518,2.9167943000793457,24.19,65,15.312,0,0,False,,,,84,136,4,16,0.1086548864841461,169,81.118,,39.142395,,-76.7304809,False,0.839019889000042,81.816,,39.142394,,-76.7304807,0.599,,39.142394,,-76.7304807,7.643513202667236,7.114929676055908,-21.45745849609375,unknown,POSCTL,,,,52,,ACTIVE,1733609190.8086424,0.01,-0.11,-1.38,12,1,15,2,17760768,0,13
1733609193.3144038,0.0,True,lidar_spoofer,-0.0060604810714721,-0.0254653524607419,2.910361289978028,24.19,65,15.312,0,0,False,,,,84,136,4,16,0.1203315705060958,166,81.118,,39.142395,,-76.7304809,False,0.9414044810000632,81.991,,39.1423939,,-76.7304806,0.774,,39.1423939,,-76.7304806,7.494124889373779,7.119565963745117,-21.467506408691406,unknown,POSCTL,,,,59,,ACTIVE,2.5057613849639893,0.0,-0.12,-1.41,12,1,15,2,17760768,0,13
1733609193.4137702,0.0,True,lidar_spoofer,-0.007147092372179,-0.0243193507194519,2.9095308780670166,24.19,65,15.312,0,0,False,,,,84,136,4,16,0.1203315705060958,166,81.118,,39.142395,,-76.7304809,False,0.0395308509999949,82.077,,39.1423938,,-76.7304806,0.86,,39.1423938,,-76.7304806,7.494124889373779,7.119565963745117,-21.467506408691406,unknown,POSCTL,,,,31,,ACTIVE,1733609190.9080088,0.0,-0.13,-1.41,12,1,15,2,17760768,0,13
1733609193.5139277,0.0,True,lidar_spoofer,-0.0056409863755106,-0.0221454557031393,2.912994623184204,24.19,65,15.312,0,0,False,,,,84,136,4,16,0.1203315705060958,166,81.118,,39.142395,,-76.7304809,False,0.1306833879999658,82.252,,39.1423937,,-76.7304806,1.035,,39.1423937,,-76.7304806,7.374139785766602,7.1227569580078125,-21.476993560791016,unknown,POSCTL,,,,49,,ACTIVE,2.6059186458587646,0.0,-0.13,-1.41,12,1,15,2,17760768,0,13
1733609193.6140304,0.0,True,lidar_spoofer,-0.000858629704453,-0.0239373501390218,2.9187657833099365,24.16,60,15.175,0,0,False,,,,84,136,4,17,0.1425054371356964,167,81.118,,39.142395,,-76.7304809,False,0.2235260549999793,82.334,,39.1423937,,-76.7304806,1.117,,39.1423937,,-76.7304806,7.218245983123779,7.122653484344482,-21.48896026611328,unknown,POSCTL,,,,49,,ACTIVE,1733609191.0081117,0.0,-0.14,-1.4,12,1,15,2,17760768,0,13
1733609193.7140186,0.0,True,lidar_spoofer,0.0052398066036403,-0.0283414721488952,2.926326274871826,24.16,60,15.175,0,0,False,,,,84,136,4,17,0.1425054371356964,167,81.118,,39.142395,,-76.7304809,False,0.3335182029999259,82.503,,39.1423935,,-76.7304805,1.286,,39.1423935,,-76.7304805,7.076698780059815,7.128530025482178,-21.50395774841309,unknown,POSCTL,,,,33,,ACTIVE,2.705906867980957,0.0,-0.14,-1.41,12,1,15,2,17760768,0,13
1733609193.8143094,0.0,True,lidar_spoofer,0.0098802912980318,-0.0299020800739526,2.9352288246154785,24.16,60,15.175,0,0,False,,,,84,136,4,17,0.1425054371356964,167,81.118,,39.142395,,-76.7304809,False,0.4206033140000045,82.587,,39.1423934,,-76.7304805,1.37,,39.1423934,,-76.7304805,6.939172267913818,7.128686428070068,-21.51667213439941,unknown,POSCTL,,,,18,,ACTIVE,1733609191.1084025,0.0,-0.14,-1.41,12,1,15,2,17760768,0,13
1733609193.914793,0.0,True,lidar_spoofer,0.0103405751287937,-0.0291906148195266,2.944960117340088,24.16,60,15.175,0,0,False,,,,75,125,4,17,0.1446519494056701,168,81.118,,39.142395,,-76.7304809,False,0.5398571839999704,82.669,,39.1423934,,-76.7304805,1.452,,39.1423934,,-76.7304805,6.78884744644165,7.127925872802734,-21.527847290039062,unknown,POSCTL,,,,84,,ACTIVE,2.8063905239105225,0.0,-0.14,-1.4,12,1,15,2,17760768,0,13
1733609194.0145628,0.0,True,lidar_spoofer,0.0149645758792757,-0.0310986414551734,2.954735040664673,24.16,60,15.175,0,0,False,,,,75,125,4,17,0.1446519494056701,168,81.118,,39.142395,,-76.7304809,False,0.6296934439999404,82.849,,39.1423933,,-76.7304805,1.631,,39.1423933,,-76.7304805,6.649036884307861,7.129261016845703,-21.535757064819336,unknown,POSCTL,,,,72,,ACTIVE,1733609191.2081723,0.02,-0.15,-1.44,12,1,15,2,17760768,0,13
1733609194.1158464,0.0,True,lidar_spoofer,0.0127786425873637,-0.0311709009110927,2.9634270668029785,24.16,60,15.175,0,0,False,,,,75,125,4,17,0.1446519494056701,168,81.118,,39.142395,,-76.7304809,False,0.7441521099999591,82.934,,39.1423932,,-76.7304805,1.717,,39.1423932,,-76.7304805,6.492033004760742,7.129262924194336,-21.53993034362793,unknown,POSCTL,,,,138,,ACTIVE,2.9076740741729736,0.02,-0.15,-1.44,12,1,15,2,17760768,0,13
1733609194.2156694,0.0,True,lidar_spoofer,0.0073346337303519,-0.029142428189516,2.972336769104004,24.16,60,15.175,0,0,False,,,,75,125,4,17,0.1446519494056701,168,81.118,,39.142395,,-76.7304809,False,0.8439888689999862,83.118,,39.1423932,,-76.7304805,1.901,,39.1423932,,-76.7304805,6.346438884735107,7.127093315124512,-21.53936195373535,unknown,POSCTL,,,,121,,ACTIVE,1733609191.307995,0.04,-0.15,-1.45,12,1,15,2,17760768,0,13
1733609194.3151643,0.0,True,lidar_spoofer,0.005992685444653,-0.0276978947222232,2.9803452491760254,24.16,56,15.071,0,0,False,,,,75,125,4,17,0.1675853133201599,170,81.118,,39.142395,,-76.7304809,False,0.9381308319999562,83.208,,39.1423932,,-76.7304805,1.991,,39.1423932,,-76.7304805,6.346438884735107,7.127093315124512,-21.53936195373535,unknown,POSCTL,,,,160,,ACTIVE,3.007169008255005,0.05,-0.15,-1.45,12,1,15,2,17760768,0,13
1733609194.4151769,0.0,True,lidar_spoofer,0.0045875012874603,-0.0287753008306026,2.987679004669189,24.16,56,15.071,0,0,False,,,,75,125,4,17,0.1675853133201599,170,81.118,,39.142395,,-76.7304809,False,0.0409857410000995,83.389,,39.1423933,,-76.7304805,2.172,,39.1423933,,-76.7304805,6.201476573944092,7.129748821258545,-21.539066314697266,unknown,POSCTL,,,,54,,ACTIVE,1733609191.408008,0.07,-0.15,-1.46,12,1,15,2,17760768,0,13
1733609194.515314,0.0,True,lidar_spoofer,0.0018541591707617,-0.0285773742944002,2.9919567108154297,24.16,56,15.071,0,0,False,,,,75,125,4,17,0.1675853133201599,170,81.118,,39.142395,,-76.7304809,False,0.1268440180000425,83.479,,39.1423933,,-76.7304805,2.262,,39.1423933,,-76.7304805,6.031928062438965,7.130216598510742,-21.53401756286621,unknown,POSCTL,,,,50,,ACTIVE,3.1073060035705566,0.08,-0.15,-1.47,12,1,15,2,17760768,0,13
1733609194.615658,0.0,True,lidar_spoofer,-0.0011126002063974,-0.0294246543198823,2.997400999069214,24.16,56,15.071,0,0,False,,,,75,125,4,17,0.182184025645256,171,81.118,,39.142395,,-76.7304809,False,0.2413635920000842,83.67,,39.1423933,,-76.7304803,2.453,,39.1423933,,-76.7304803,5.891181468963623,7.139173030853272,-21.530759811401367,unknown,POSCTL,,,,92,,ACTIVE,1733609191.508352,0.09,-0.15,-1.47,12,1,15,2,17760768,0,13
1733609194.7154784,0.0,True,lidar_spoofer,-0.0052786963060498,-0.0274234488606452,3.0018270015716557,24.16,56,15.071,0,0,False,,,,75,125,4,17,0.182184025645256,171,81.217,,39.1423942,,-76.7304809,False,0.3138696660000732,83.768,,39.1423934,,-76.7304803,2.551,,39.1423934,,-76.7304803,5.730481624603272,7.147913932800293,-21.52515411376953,unknown,POSCTL,,,,214,,ACTIVE,3.207126379013061,0.09,-0.14,-1.46,12,1,15,2,17760768,0,13
1733609194.816312,0.0,True,lidar_spoofer,-0.0054770787246525,-0.0228052213788032,3.0054736137390137,24.16,56,15.071,0,0,False,,,,75,125,4,17,0.182184025645256,171,81.217,,39.1423942,,-76.7304809,False,0.4444892960000288,83.968,,39.1423934,,-76.7304802,2.751,,39.1423934,,-76.7304802,5.558035373687744,7.152734279632568,-21.51727867126465,unknown,POSCTL,,,,7,,ACTIVE,1733609191.6091857,0.08,-0.14,-1.47,12,1,15,2,17760768,0,13
1733609194.9164348,0.0,True,lidar_spoofer,-0.0017082403646782,-0.0258607678115367,3.00879430770874,23.89,53,15.004,0,0,False,,,,75,125,4,17,0.182184025645256,171,81.217,,39.1423942,,-76.7304809,False,0.5438158700000031,84.057,,39.1423935,,-76.7304802,2.84,,39.1423935,,-76.7304802,5.397668361663818,7.156891345977783,-21.51069641113281,unknown,POSCTL,,,,70,,ACTIVE,3.307249069213867,0.09,-0.14,-1.47,12,1,15,2,17760768,0,13
1733609195.0173542,0.0,True,lidar_spoofer,-0.0024896522518247,-0.0255425740033388,3.011887788772583,23.89,53,15.004,0,0,False,,,,75,125,4,17,0.1683865785598755,172,81.217,,39.1423942,,-76.7304809,False,0.6467157400001042,84.261,,39.1423936,,-76.7304801,3.044,,39.1423936,,-76.7304801,5.235121250152588,7.16287899017334,-21.50455474853516,unknown,POSCTL,,,,190,,ACTIVE,1733609191.7101052,0.07,-0.13,-1.47,12,1,15,2,17760768,0,13
1733609195.1166377,0.0,True,lidar_spoofer,-0.0024455552920699,-0.0237159058451652,3.015139102935791,23.89,53,15.004,0,0,False,,,,75,125,4,17,0.1683865785598755,172,81.217,,39.1423942,,-76.7304809,False,0.7266714070000262,84.347,,39.1423936,,-76.7304801,3.13,,39.1423936,,-76.7304801,5.235121250152588,7.16287899017334,-21.50455474853516,unknown,POSCTL,,,,143,,ACTIVE,3.406532526016236,0.07,-0.13,-1.48,12,1,15,2,17760768,0,13
1733609195.2166512,0.0,True,lidar_spoofer,-0.0026627520564943,-0.0221297424286603,3.017827272415161,23.89,53,15.004,0,0,False,,,,75,125,4,17,0.1683865785598755,172,81.217,,39.1423942,,-76.7304809,False,0.842899796000097,84.546,,39.1423937,,-76.7304799,3.329,,39.1423937,,-76.7304799,5.066146373748779,7.174245357513428,-21.49798011779785,unknown,POSCTL,,,,219,,ACTIVE,1733609191.810119,0.07,-0.14,-1.48,12,1,15,2,17760768,0,13
1733609195.3170996,0.0,True,lidar_spoofer,-0.0044867731630802,-0.0205578561872243,3.0203094482421875,23.89,53,15.004,0,0,False,,,,75,125,4,17,0.1596166342496872,173,81.217,,39.1423942,,-76.7304809,False,0.9392991470000424,84.664,,39.1423937,,-76.7304798,3.447,,39.1423937,,-76.7304798,4.894162178039551,7.187044620513916,-21.490583419799805,unknown,POSCTL,,,,204,,ACTIVE,3.5069808959960938,0.07,-0.14,-1.47,12,1,15,2,17760768,0,13
1733609195.4171472,0.0,True,lidar_spoofer,-0.0050721815787255,-0.0198755040764808,3.023033380508423,23.89,53,15.004,0,0,False,,,,75,125,4,17,0.1596166342496872,173,81.217,,39.1423942,,-76.7304809,False,0.0439822219999541,84.755,,39.1423937,,-76.7304797,3.538,,39.1423937,,-76.7304797,4.739595413208008,7.198002815246582,-21.484352111816406,unknown,POSCTL,,,,110,,ACTIVE,1733609191.9101665,0.08,-0.13,-1.46,12,1,15,2,17760768,0,13
1733609195.5173018,0.0,True,lidar_spoofer,-0.008602749556303,-0.0164164584130048,3.025557518005371,23.89,53,15.004,0,0,False,,,,75,125,4,17,0.1596166342496872,173,81.217,,39.1423942,,-76.7304809,False,0.1361266479999585,84.956,,39.1423939,,-76.7304795,3.739,,39.1423939,,-76.7304795,4.588669300079346,7.208668708801269,-21.472719192504883,unknown,POSCTL,,,,166,,ACTIVE,3.607135534286499,0.08,-0.15,-1.46,12,1,15,2,17760768,0,13
1733609195.6182668,0.0,True,lidar_spoofer,-0.010362921282649,-0.0166411567479372,3.0268447399139404,23.94,52,14.966,0,0,False,,,,75,125,4,17,0.1596166342496872,173,81.217,,39.1423942,,-76.7304809,False,0.246700369999985,85.049,,39.1423939,,-76.7304795,3.832,,39.1423939,,-76.7304795,4.4122490882873535,7.21563196182251,-21.46103286743164,unknown,POSCTL,,,,155,,ACTIVE,1733609192.0111313,0.08,-0.16,-1.47,12,1,15,2,17760768,0,13
1733609195.7176394,0.0,True,lidar_spoofer,-0.0125493267551064,-0.0182147286832332,3.030322551727295,23.94,52,14.966,0,0,False,,,,75,125,4,17,0.1819814294576645,173,81.217,,39.1423942,,-76.7304809,False,0.3400613149999572,85.241,,39.142394,,-76.7304794,4.023,,39.142394,,-76.7304794,4.240546703338623,7.223230838775635,-21.44991683959961,unknown,POSCTL,,,,205,,ACTIVE,3.706508159637451,0.07,-0.16,-1.47,12,1,15,2,17760768,0,13
1733609195.8184052,0.0,True,lidar_spoofer,-0.0101505955681204,-0.0196199920028448,3.032303810119629,23.94,52,14.966,0,0,False,,,,75,125,4,17,0.1819814294576645,173,81.217,,39.1423942,,-76.7304809,False,0.4466060180000113,85.333,,39.1423941,,-76.7304793,4.116,,39.1423941,,-76.7304793,4.083664417266846,7.233325481414795,-21.43824577331543,unknown,POSCTL,,,,0,,ACTIVE,1733609192.111897,0.06,-0.17,-1.48,12,1,15,2,17760768,0,13
1733609195.918571,0.0,True,lidar_spoofer,-0.008464390411973,-0.0174467861652374,3.034702777862549,23.94,52,14.966,0,0,False,,,,75,125,4,17,0.1819814294576645,173,81.217,,39.1423942,,-76.7304809,False,0.5470082219999313,85.536,,39.1423942,,-76.7304792,4.319,,39.1423942,,-76.7304792,4.083664417266846,7.233325481414795,-21.43824577331543,unknown,POSCTL,,,,138,,ACTIVE,3.806674003601074,0.06,-0.17,-1.49,12,1,15,2,17760768,0,13
1733609196.0180204,0.0,True,lidar_spoofer,-0.0114348102360963,-0.0162188094109296,3.036303758621216,23.94,52,14.966,0,0,False,,,,75,125,3,17,0.1902006417512893,173,81.217,,39.1423942,,-76.7304809,False,0.628187425999954,85.633,,39.1423943,,-76.7304791,4.416,,39.1423943,,-76.7304791,3.9118051528930655,7.243495464324951,-21.42832374572754,unknown,POSCTL,,,,59,,ACTIVE,1733609192.2113464,0.06,-0.18,-1.48,12,1,15,2,17760768,0,13
1733609196.1180258,0.0,True,lidar_spoofer,-0.0119767989963293,-0.0168768838047981,3.038649082183838,23.94,52,14.966,0,0,False,,,,75,125,3,17,0.1902006417512893,173,81.217,,39.1423942,,-76.7304809,False,0.7323950180000338,85.838,,39.1423943,,-76.730479,4.621,,39.1423943,,-76.730479,3.751242637634277,7.25200891494751,-21.421262741088867,unknown,POSCTL,,,,156,,ACTIVE,3.906679391860962,0.04,-0.18,-1.48,12,1,15,2,17760768,0,13
1733609196.2183032,0.0,True,lidar_spoofer,-0.009068613871932,-0.0155798410996794,3.0408263206481934,23.94,52,14.966,0,0,False,,,,79,132,3,16,0.1902006417512893,173,81.217,,39.1423942,,-76.7304809,False,0.8214055549999557,85.949,,39.1423944,,-76.730479,4.732,,39.1423944,,-76.730479,3.5776758193969727,7.260484218597412,-21.415910720825195,unknown,POSCTL,,,,340,,ACTIVE,1733609192.3116238,0.04,-0.19,-1.48,12,1,15,2,17760768,0,13
1733609196.3195114,0.0,True,lidar_spoofer,-0.0082325581461191,-0.0162949506193399,3.042696952819824,23.88,51,14.946,0,0,False,,,,82,148,4,17,0.1966802179813385,174,81.217,,39.1423942,,-76.7304809,False,0.947939611000038,86.043,,39.1423944,,-76.7304789,4.826,,39.1423944,,-76.7304789,3.4209296703338623,7.268931865692139,-21.41084671020508,unknown,POSCTL,,,,351,,ACTIVE,4.007887601852417,0.03,-0.19,-1.48,12,1,15,2,17760768,0,13
1733609196.4187822,0.0,True,lidar_spoofer,-0.007496366277337,-0.0146962599828839,3.0442416667938232,23.88,51,14.946,0,0,False,,,,82,148,4,17,0.1966802179813385,174,81.217,,39.1423942,,-76.7304809,False,0.0287699630000588,86.246,,39.1423945,,-76.7304787,5.029,,39.1423945,,-76.7304787,3.251277446746826,7.280884742736816,-21.402801513671875,unknown,POSCTL,,,,473,,ACTIVE,1733609192.4108946,0.03,-0.19,-1.48,12,1,15,2,17760768,0,13
1733609196.519518,0.0,True,lidar_spoofer,-0.0116405701264739,-0.0129883037880063,3.045027494430542,23.88,51,14.946,0,0,False,,,,82,148,4,18,0.1966802179813385,174,81.217,,39.1423942,,-76.7304809,False,0.1491794629999958,86.443,,39.1423946,,-76.7304786,5.226,,39.1423946,,-76.7304786,3.079831600189209,7.288366794586182,-21.394153594970703,unknown,POSCTL,,,,98,,ACTIVE,4.108623504638672,0.03,-0.19,-1.5,12,1,15,2,17760768,0,13
1733609196.6188393,0.0,True,lidar_spoofer,-0.0124982465058565,-0.0139981089159846,3.0459110736846924,23.88,51,14.946,0,0,False,,,,79,132,3,17,0.1966802179813385,174,81.217,,39.1423942,,-76.7304809,False,0.2443186670000159,86.545,,39.1423946,,-76.7304786,5.328,,39.1423946,,-76.7304786,2.916001558303833,7.297067642211914,-21.384620666503903,unknown,POSCTL,,,,148,,ACTIVE,1733609192.5102158,0.03,-0.19,-1.51,12,1,15,2,17760768,0,13
1733609196.7192552,0.0,True,lidar_spoofer,-0.0143857020884752,-0.0102982632815837,3.046486616134644,23.88,51,14.946,0,0,False,,,,79,132,3,17,0.2046414911746978,174,81.217,,39.1423942,,-76.7304809,False,0.3485172780000312,86.655,,39.1423947,,-76.7304785,5.438,,39.1423947,,-76.7304785,2.916001558303833,7.297067642211914,-21.384620666503903,unknown,POSCTL,,,,50,,ACTIVE,4.2090394496917725,0.03,-0.2,-1.56,12,1,15,2,17760768,0,13
1733609196.819092,0.0,True,lidar_spoofer,-0.015657166019082,-0.0117911314591765,3.046746015548706,23.88,51,14.946,0,0,False,,,,79,132,3,17,0.2046414911746978,174,81.217,,39.1423942,,-76.7304809,False,0.4403708150000511,86.849,,39.1423948,,-76.7304784,5.632,,39.1423948,,-76.7304784,2.747753381729126,7.303513526916504,-21.376001358032227,unknown,POSCTL,,,,395,,ACTIVE,1733609192.6100526,0.03,-0.2,-1.61,12,1,15,2,17760768,0,13
1733609196.919356,0.0,True,lidar_spoofer,-0.0152614284306764,-0.0119162918999791,3.0471901893615723,23.88,51,14.946,0,0,False,,,,79,132,3,17,0.2046414911746978,174,81.217,,39.1423942,,-76.7304809,False,0.5423699070000794,86.954,,39.1423948,,-76.7304783,5.737,,39.1423948,,-76.7304783,2.572594165802002,7.314272880554199,-21.36526107788086,unknown,POSCTL,,,,34,,ACTIVE,4.309303283691406,0.02,-0.21,-1.64,12,1,15,2,17760768,0,13
1733609197.0196488,0.0,True,lidar_spoofer,-0.0138614410534501,-0.0119594242423772,3.0476298332214355,25.03,49,14.864,0,0,False,,,,79,132,3,17,0.2173574715852737,174,81.217,,39.1423942,,-76.7304809,False,0.6464520370000173,87.192,,39.1423949,,-76.7304781,5.975,,39.1423949,,-76.7304781,2.376558780670166,7.33292293548584,-21.35502815246582,unknown,POSCTL,,,,192,,ACTIVE,1733609192.7103455,0.01,-0.21,-1.72,12,1,15,2,17760768,0,13
1733609197.1196055,0.0,True,lidar_spoofer,-0.0165630262345075,-0.0100630801171064,3.0481414794921875,25.03,49,14.864,0,0,False,,,,79,132,3,17,0.2173574715852737,174,81.217,,39.1423942,,-76.7304809,False,0.7482627780000257,87.306,,39.142395,,-76.730478,6.089,,39.142395,,-76.730478,2.167203664779663,7.342381000518799,-21.346603393554688,unknown,POSCTL,,,,158,,ACTIVE,4.409260034561157,0.0,-0.22,-1.75,12,1,15,2,17760768,0,13
1733609197.2198126,0.0,True,lidar_spoofer,-0.0168772060424089,-0.0096529508009552,3.0487546920776367,25.03,49,14.864,0,0,False,,,,79,132,3,17,0.2173574715852737,174,81.217,,39.1423942,,-76.7304809,False,0.8359327590000021,87.556,,39.142395,,-76.730478,6.339,,39.142395,,-76.730478,1.97229266166687,7.346677780151367,-21.33927726745605,unknown,POSCTL,,,,361,,ACTIVE,1733609192.8105526,0.0,-0.23,-1.81,12,1,15,2,17760768,0,13
1733609197.321077,0.0,True,lidar_spoofer,-0.0165369752794504,-0.0108566423878073,3.0496113300323486,25.03,49,14.864,0,0,False,,,,79,132,4,18,0.2173574715852737,174,81.217,,39.1423942,,-76.7304809,False,0.9516768330000788,87.668,,39.1423951,,-76.730478,6.451,,39.1423951,,-76.730478,1.764101266860962,7.350058078765869,-21.33220100402832,unknown,POSCTL,,,,198,,ACTIVE,4.510524749755859,0.0,-0.23,-1.84,12,1,15,2,17760768,0,13
1733609197.42011,0.0,True,lidar_spoofer,-0.0158442500978708,-0.0110009629279375,3.0505831241607666,25.03,49,14.864,0,0,False,,,,70,109,4,18,0.2445263564586639,174,81.217,,39.1423942,,-76.7304809,False,0.0393248709999625,87.934,,39.1423951,,-76.7304778,6.717,,39.1423951,,-76.7304778,1.536592721939087,7.358199119567871,-21.326663970947266,unknown,POSCTL,,,,224,,ACTIVE,1733609192.9095852,-0.02,-0.24,-1.91,12,1,15,2,17760768,0,13
1733609197.5203276,0.0,True,lidar_spoofer,-0.0160331483930349,-0.0109714670106768,3.052300214767456,25.03,49,14.864,0,0,False,,,,70,109,4,18,0.2445263564586639,174,81.217,,39.1423942,,-76.7304809,False,0.1192461849999517,88.066,,39.1423952,,-76.7304778,6.849,,39.1423952,,-76.7304778,1.536592721939087,7.358199119567871,-21.326663970947266,unknown,POSCTL,,,,91,,ACTIVE,4.610742330551148,-0.03,-0.24,-1.94,12,1,15,2,17760768,0,13
1733609197.620474,0.0,True,lidar_spoofer,-0.0140653848648071,-0.0099839176982641,3.0539584159851074,25.03,49,14.864,0,0,False,,,,70,109,4,18,0.2445263564586639,174,81.217,,39.1423942,,-76.7304809,False,0.2414237589999857,88.349,,39.1423952,,-76.7304777,7.132,,39.1423952,,-76.7304777,1.315732717514038,7.366467475891113,-21.32463264465332,unknown,POSCTL,,,,104,,ACTIVE,1733609193.0097315,-0.04,-0.26,-2.01,12,1,15,2,17760768,0,13
1733609197.720646,0.0,True,lidar_spoofer,-0.011712091974914,-0.0121587207540869,3.0555481910705566,25.73,48,14.821,0,0,False,,,,70,109,4,18,0.2724405229091644,175,81.217,,39.1423942,,-76.7304809,False,0.3340841109999246,88.485,,39.1423952,,-76.7304777,7.268,,39.1423952,,-76.7304777,1.0958656072616575,7.370419979095459,-21.32316017150879,unknown,POSCTL,,,,15,,ACTIVE,4.710914611816406,-0.05,-0.26,-2.04,12,1,15,2,17760768,0,13
1733609197.8220837,0.0,True,lidar_spoofer,-0.0144446343183517,-0.0103955240920186,3.056762456893921,25.73,48,14.821,0,0,False,,,,70,109,4,18,0.2724405229091644,175,81.217,,39.1423942,,-76.7304809,False,0.4469163520000165,88.776,,39.1423952,,-76.7304776,7.559,,39.1423952,,-76.7304776,0.8455520868301392,7.379092693328857,-21.32135391235352,unknown,POSCTL,,,,635,,ACTIVE,1733609193.1111689,-0.06,-0.27,-2.11,12,1,15,2,17760768,0,13
1733609197.9209137,0.0,True,lidar_spoofer,-0.0124543840065598,-0.0114911524578928,3.0580224990844727,25.73,48,14.821,0,0,False,,,,70,109,4,18,0.2724405229091644,175,81.217,,39.1423942,,-76.7304809,False,0.5339093329999969,88.914,,39.1423952,,-76.7304775,7.697,,39.1423952,,-76.7304775,0.6207653880119324,7.38723611831665,-21.321008682250977,unknown,POSCTL,,,,334,,ACTIVE,4.809744834899902,-0.06,-0.28,-2.14,12,1,15,2,17760768,0,13
1733609198.0217433,0.0,True,lidar_spoofer,-0.010730093345046,-0.0107892304658889,3.058936595916748,25.73,48,14.821,0,0,False,,,,70,109,4,18,0.2724405229091644,175,81.217,,39.1423942,,-76.7304809,False,0.645751703999963,89.047,,39.1423952,,-76.7304775,7.83,,39.1423952,,-76.7304775,0.356215238571167,7.388890743255615,-21.321273803710938,unknown,POSCTL,,,,478,,ACTIVE,1733609193.2119985,-0.06,-0.29,-2.17,12,1,15,2,17760768,0,13
1733609198.122167,0.0,True,lidar_spoofer,-0.0120423240587115,-0.0112169943749904,3.061018466949463,25.73,48,14.821,0,0,False,,,,70,109,4,18,0.3057574033737182,175,81.217,,39.1423942,,-76.7304809,False,0.746999073999973,89.342,,39.1423952,,-76.7304774,8.125,,39.1423952,,-76.7304774,0.1189965084195137,7.397256374359131,-21.320560455322266,unknown,POSCTL,,,,279,,ACTIVE,4.910168886184692,-0.07,-0.29,-2.15,12,1,15,2,17760768,0,13
1733609198.2213595,0.0,True,lidar_spoofer,-0.0115053122863173,-0.0131506109610199,3.064516067504883,25.73,48,14.821,0,0,False,,,,70,109,4,18,0.3057574033737182,175,81.217,,39.1423942,,-76.7304809,False,0.8431976109999368,89.502,,39.1423952,,-76.7304773,8.285,,39.1423952,,-76.7304773,-0.0973118767142295,7.406162261962891,-21.319843292236328,unknown,POSCTL,,,,131,,ACTIVE,1733609193.3111908,-0.07,-0.28,-2.04,12,1,15,2,17760768,0,13
1733609198.3214655,0.0,True,lidar_spoofer,-0.0106156961992383,-0.0126921785995364,3.0690512657165527,25.73,48,14.821,0,0,False,,,,79,132,3,17,0.3057574033737182,175,81.217,,39.1423942,,-76.7304809,False,0.9451554999999416,89.747,,39.1423952,,-76.7304772,8.53,,39.1423952,,-76.7304772,-0.0973118767142295,7.406162261962891,-21.319843292236328,unknown,POSCTL,,,,691,,ACTIVE,5.010274648666382,-0.07,-0.29,-1.71,12,1,15,2,17760768,0,13
1733609198.4223242,0.0,True,lidar_spoofer,-0.012791228480637,-0.00890539214015,3.07541298866272,19.89,48,14.941,0,0,False,,,,79,132,4,18,0.2970012128353119,175,81.217,,39.1423942,,-76.7304809,False,0.0335388700000294,89.85,,39.1423953,,-76.7304771,8.633,,39.1423953,,-76.7304771,-0.304887056350708,7.416482448577881,-21.31651496887207,unknown,POSCTL,,,,169,,ACTIVE,1733609193.4120495,-0.07,-0.28,-1.52,12,1,15,2,17760768,0,13
1733609198.5218832,0.0,True,lidar_spoofer,-0.0152865992859005,-0.0076930113136768,3.0805909633636475,19.89,48,14.941,0,0,False,,,,79,132,3,17,0.2970012128353119,175,81.217,,39.1423942,,-76.7304809,False,0.1156467030000385,90.033,,39.1423953,,-76.730477,8.816,,39.1423953,,-76.730477,-0.4587441682815552,7.423996925354004,-21.31403541564941,unknown,POSCTL,,,,566,,ACTIVE,5.109833717346191,-0.06,-0.29,-1.07,12,1,15,2,17760768,0,13
1733609198.6219378,0.0,True,lidar_spoofer,-0.0125344106927514,-0.0067940489389002,3.0863869190216064,19.89,48,14.941,0,0,False,,,,79,132,4,18,0.2970012128353119,175,81.217,,39.1423942,,-76.7304809,False,0.2121288509999885,90.107,,39.1423953,,-76.730477,8.89,,39.1423953,,-76.730477,-0.5850458741188049,7.4307332038879395,-21.310171127319336,unknown,POSCTL,,,,600,,ACTIVE,1733609193.512104,-0.06,-0.29,-0.93,12,1,15,2,17760768,0,13
1733609198.7220483,0.0,True,lidar_spoofer,-0.0116890845820307,-0.0046485872007906,3.08838438987732,19.89,48,14.941,0,0,False,,,,79,132,4,18,0.3178859651088714,176,81.217,,39.1423942,,-76.7304809,False,0.3314334440000266,90.166,,39.1423953,,-76.7304769,8.949,,39.1423953,,-76.7304769,-0.6826951503753662,7.437906742095947,-21.30554580688477,unknown,POSCTL,,,,427,,ACTIVE,5.209944486618042,-0.06,-0.3,-0.87,12,1,15,2,17760768,0,13
1733609198.8221953,0.0,True,lidar_spoofer,-0.0127178635448217,-0.0090468814596533,3.088406801223755,19.89,48,14.941,0,0,False,,,,79,132,4,18,0.3178859651088714,176,81.217,,39.1423942,,-76.7304809,False,0.4081630919999952,90.291,,39.1423954,,-76.7304768,9.074,,39.1423954,,-76.7304768,-0.7796792387962341,7.442598342895508,-21.3022518157959,unknown,POSCTL,,,,655,,ACTIVE,1733609193.6122508,-0.07,-0.31,-0.91,12,1,15,2,17760768,0,13
1733609198.9224412,0.0,True,lidar_spoofer,-0.0144156925380229,-0.0113556180149316,3.086696147918701,19.89,48,14.941,0,0,False,,,,70,109,4,18,0.3178859651088714,176,81.217,,39.1423942,,-76.7304809,False,0.5295247579999796,90.423,,39.1423954,,-76.7304768,9.206,,39.1423954,,-76.7304768,-0.899334728717804,7.447596549987793,-21.296266555786133,unknown,POSCTL,,,,159,,ACTIVE,5.310190439224243,-0.07,-0.32,-1.03,12,1,15,2,17760768,0,13
1733609199.0225008,0.0,True,lidar_spoofer,-0.0151323089376091,-0.0131427971646189,3.084099054336548,22.87,49,14.914,0,0,False,,,,70,109,4,18,0.3178859651088714,176,81.217,,39.1423942,,-76.7304809,False,0.6306706660000145,90.491,,39.1423955,,-76.7304768,9.274,,39.1423955,,-76.7304768,-1.0258355140686035,7.452082633972168,-21.29082298278809,unknown,POSCTL,,,,32,,ACTIVE,1733609193.7123103,-0.08,-0.32,-1.05,12,1,15,2,17760768,0,13
1733609199.1226523,0.0,True,lidar_spoofer,-0.0138443224132061,-0.0076479595154523,3.080343008041382,22.87,49,14.914,0,0,False,,,,70,109,4,18,0.3381422162055969,176,81.217,,39.1423942,,-76.7304809,False,0.7316388140000072,90.56,,39.1423955,,-76.7304767,9.343,,39.1423955,,-76.7304767,-1.0258355140686035,7.452082633972168,-21.29082298278809,unknown,POSCTL,,,,530,,ACTIVE,5.410342216491699,-0.08,-0.32,-1.07,12,1,15,2,17760768,0,13
1733609199.2227702,0.0,True,lidar_spoofer,-0.0169499982148408,-0.0051598902791738,3.076624155044556,22.87,49,14.914,0,0,False,,,,70,109,4,18,0.3381422162055969,176,81.217,,39.1423942,,-76.7304809,False,0.820903999000052,90.713,,39.1423955,,-76.7304767,9.496,,39.1423955,,-76.7304767,-1.14228618144989,7.458498954772949,-21.28663444519043,unknown,POSCTL,,,,299,,ACTIVE,1733609193.812428,-0.08,-0.32,-1.08,12,1,15,2,17760768,0,13
1733609199.3229303,0.0,True,lidar_spoofer,-0.0164525341242551,-0.004570435732603,3.0731451511383057,22.87,49,14.914,0,0,False,,,,70,109,4,18,0.3381422162055969,176,81.217,,39.1423942,,-76.7304809,False,0.924209258000019,90.796,,39.1423955,,-76.7304766,9.579,,39.1423955,,-76.7304766,-1.2717361450195312,7.460545063018799,-21.2846794128418,unknown,POSCTL,,,,99,,ACTIVE,5.510502338409424,-0.09,-0.33,-1.08,12,1,15,2,17760768,0,13
1733609199.4229522,0.0,True,lidar_spoofer,-0.0155069669708609,-0.0067713987082242,3.07110333442688,22.87,49,14.914,0,0,False,,,,79,132,4,18,0.3453316688537597,176,81.217,,39.1423942,,-76.7304809,False,0.049720111000056,90.921,,39.1423956,,-76.7304766,9.704,,39.1423956,,-76.7304766,-1.386782169342041,7.46618127822876,-21.28207397460937,unknown,POSCTL,,,,736,,ACTIVE,1733609193.9124498,-0.09,-0.33,-1.06,12,1,15,2,17760768,0,13
1733609199.5232434,0.0,True,lidar_spoofer,-0.0161406956613063,-0.0103416005149483,3.0692028999328613,22.87,49,14.914,0,0,False,,,,70,109,4,18,0.3453316688537597,176,81.217,,39.1423942,,-76.7304809,False,0.1448385550000921,90.999,,39.1423956,,-76.7304766,9.782,,39.1423956,,-76.7304766,-1.4982272386550903,7.468831539154053,-21.280492782592773,unknown,POSCTL,,,,10,,ACTIVE,5.610793590545654,-0.09,-0.33,-1.04,12,1,15,2,17760768,0,13
1733609199.62339,0.0,True,lidar_spoofer,-0.0150368064641952,-0.0106763215735554,3.0685927867889404,22.87,49,14.914,0,0,False,,,,70,109,4,18,0.3453316688537597,176,81.217,,39.1423942,,-76.7304809,False,0.250029611000059,91.13,,39.1423956,,-76.7304764,9.913,,39.1423956,,-76.7304764,-1.6099728345870972,7.4761834144592285,-21.27610969543457,unknown,POSCTL,,,,34,,ACTIVE,1733609194.0125964,-0.08,-0.32,-0.89,12,1,15,2,17760768,0,13
1733609199.724584,0.0,True,lidar_spoofer,-0.0137456692755222,-0.0063323285430669,3.0688419342041016,21.42,49,14.918,0,0,False,,,,70,109,4,18,0.3453316688537597,176,81.217,,39.1423942,,-76.7304809,False,0.3527418890000717,91.183,,39.1423956,,-76.7304764,9.966,,39.1423956,,-76.7304764,-1.7049344778060913,7.4807868003845215,-21.27204322814941,unknown,POSCTL,,,,629,,ACTIVE,5.711987495422363,-0.09,-0.33,-0.81,12,1,15,2,17760768,0,13
1733609199.8235936,0.0,True,lidar_spoofer,-0.0171093735843896,-0.0011812009615823,3.0684497356414795,21.42,49,14.918,0,0,False,,,,70,109,4,18,0.3467686176300049,175,81.217,,39.1423942,,-76.7304809,False,0.4412953140000581,91.285,,39.1423957,,-76.7304764,10.068,,39.1423957,,-76.7304764,-1.7818024158477783,7.483046531677246,-21.27154922485352,unknown,POSCTL,,,,325,,ACTIVE,1733609194.111606,-0.09,-0.33,-0.73,12,1,15,2,17760768,0,13
1733609199.923837,0.0,True,lidar_spoofer,-0.0189066883176565,-0.0001015053348965,3.0677030086517334,21.42,49,14.918,0,0,False,,,,70,109,4,18,0.3467686176300049,175,81.217,,39.1423942,,-76.7304809,False,0.5229266290000396,91.329,,39.1423957,,-76.7304763,10.111,,39.1423957,,-76.7304763,-1.7818024158477783,7.483046531677246,-21.27154922485352,unknown,POSCTL,,,,572,,ACTIVE,5.812230825424194,-0.08,-0.34,-0.73,12,1,15,2,17760768,0,13
1733609200.023993,0.0,True,lidar_spoofer,-0.0207908656448125,-0.0002090853522531,3.067490577697754,21.42,49,14.918,0,0,False,,,,70,109,4,18,0.3467686176300049,175,81.217,,39.1423942,,-76.7304809,False,0.6413232959999959,91.412,,39.1423957,,-76.7304763,10.195,,39.1423957,,-76.7304763,-1.8538087606430051,7.487780570983887,-21.268953323364254,unknown,POSCTL,,,,877,,ACTIVE,1733609194.2117622,-0.09,-0.35,-0.65,12,1,15,2,17760768,0,13
1733609200.1243618,0.0,True,lidar_spoofer,-0.019906023517251,-0.0046286038123071,3.0672600269317627,21.42,49,14.918,0,0,False,,,,70,109,4,18,0.3788645565509796,175,81.217,,39.1423942,,-76.7304809,False,0.7342854250000528,91.457,,39.1423957,,-76.7304763,10.24,,39.1423957,,-76.7304763,-1.9263355731964111,7.490993976593018,-21.26496315002441,unknown,POSCTL,,,,792,,ACTIVE,5.912599563598633,-0.09,-0.36,-0.64,12,1,15,2,17760768,0,13
1733609200.2242477,0.0,True,lidar_spoofer,-0.0196917988359928,-0.009394533932209,3.0658507347106934,21.42,49,14.918,0,0,False,,,,70,109,4,18,0.3788645565509796,175,81.217,,39.1423942,,-76.7304809,False,0.84737498100003,91.535,,39.1423957,,-76.7304763,10.318,,39.1423957,,-76.7304763,-1.9969266653060915,7.492242813110352,-21.26235580444336,unknown,POSCTL,,,,479,,ACTIVE,1733609194.311648,-0.1,-0.37,-0.68,12,1,15,2,17760768,0,13
1733609200.3252404,0.0,True,lidar_spoofer,-0.0160344913601875,-0.0101705156266689,3.065087080001831,21.42,49,14.918,0,0,False,,,,70,109,4,18,0.3788645565509796,175,81.217,,39.1423942,,-76.7304809,False,0.9531668880000552,91.581,,39.1423957,,-76.7304763,10.363,,39.1423957,,-76.7304763,-2.0637340545654297,7.491256237030029,-21.26131629943848,unknown,POSCTL,,,,529,,ACTIVE,6.01359224319458,-0.11,-0.37,-0.7,12,1,15,2,17760768,0,13
1733609200.424703,0.0,True,lidar_spoofer,-0.0141182895749807,-0.0107556087896227,3.064399003982544,23.14,48,14.862,0,0,False,,,,70,109,4,18,0.3788645565509796,175,81.217,,39.1423942,,-76.7304809,False,0.0503205369999477,91.621,,39.1423957,,-76.7304763,10.404,,39.1423957,,-76.7304763,-2.1290183067321777,7.494357585906982,-21.26153945922852,unknown,POSCTL,,,,107,,ACTIVE,1733609194.4111106,-0.11,-0.37,-0.71,12,1,15,2,17760768,0,13
1733609200.52481,0.0,True,lidar_spoofer,-0.0153237106278538,-0.0072896038182079,3.06421160697937,23.14,48,14.862,0,0,False,,,,70,109,4,18,0.394853413105011,175,81.217,,39.1423942,,-76.7304809,False,0.1439400739999428,91.706,,39.1423957,,-76.7304762,10.489,,39.1423957,,-76.7304762,-2.201050281524658,7.495337963104248,-21.26395606994629,unknown,POSCTL,,,,309,,ACTIVE,6.113699436187744,-0.12,-0.37,-0.72,12,1,15,2,17760768,0,13
1733609200.625068,0.0,True,lidar_spoofer,-0.014898132532835,-0.006332435645163,3.0644900798797607,23.14,48,14.862,0,0,False,,,,70,109,4,18,0.394853413105011,175,81.217,,39.1423942,,-76.7304809,False,0.2507764629999656,91.746,,39.1423957,,-76.7304762,10.528,,39.1423957,,-76.7304762,-2.2717316150665283,7.497743606567383,-21.26639938354492,unknown,POSCTL,,,,274,,ACTIVE,1733609194.5113685,-0.12,-0.37,-0.72,12,1,15,2,17760768,0,13
1733609200.725179,0.0,True,lidar_spoofer,-0.0156391710042953,-0.0079515688121318,3.0647072792053223,23.14,48,14.862,0,0,False,,,,70,109,4,18,0.394853413105011,175,81.217,,39.1423942,,-76.7304809,False,0.3482201289999693,91.827,,39.1423957,,-76.7304762,10.61,,39.1423957,,-76.7304762,-2.2717316150665283,7.497743606567383,-21.26639938354492,unknown,POSCTL,,,,90,,ACTIVE,6.213810443878174,-0.12,-0.38,-0.72,12,1,15,2,17760768,0,13
1733609200.825421,0.0,True,lidar_spoofer,-0.012204336002469,-0.0133662652224302,3.0656299591064453,23.14,48,14.862,0,0,False,,,,70,109,4,18,0.400395393371582,175,81.217,,39.1423942,,-76.7304809,False,0.4500200549999817,91.866,,39.1423957,,-76.7304762,10.649,,39.1423957,,-76.7304762,-2.3378801345825195,7.495595455169678,-21.270570755004883,unknown,POSCTL,,,,362,,ACTIVE,1733609194.611611,-0.12,-0.38,-0.71,12,1,15,2,17760768,0,13
1733609200.9258444,0.0,True,lidar_spoofer,-0.0123273273929953,-0.0135436980053782,3.0673458576202397,23.14,48,14.862,0,0,False,,,,70,109,4,18,0.400395393371582,175,81.217,,39.1423942,,-76.7304809,False,0.5547404809999534,91.937,,39.1423956,,-76.7304763,10.72,,39.1423956,,-76.7304763,-2.4014949798583984,7.492748260498047,-21.27495002746582,unknown,POSCTL,,,,532,,ACTIVE,6.314233541488648,-0.11,-0.38,-0.73,12,1,15,2,17760768,0,13
1733609201.0261064,0.0,True,lidar_spoofer,-0.0157159622758626,-0.0139994984492659,3.0680911540985107,23.14,48,14.862,0,0,False,,,,70,109,4,18,0.400395393371582,175,81.217,,39.1423942,,-76.7304809,False,0.6200770740000507,91.979,,39.1423956,,-76.7304763,10.762,,39.1423956,,-76.7304763,-2.4677767753601074,7.490228652954102,-21.279016494750977,unknown,POSCTL,,,,516,,ACTIVE,1733609194.7118728,-0.11,-0.39,-0.73,12,1,15,2,17760768,0,13
1733609201.1262407,0.0,True,lidar_spoofer,-0.0163091719150543,-0.0133083211258053,3.0696582794189453,23.62,47,14.827,0,0,False,,,,70,109,4,18,0.4051638543605804,175,81.217,,39.1423942,,-76.7304809,False,0.7547448509999413,92.058,,39.1423955,,-76.7304763,10.84,,39.1423955,,-76.7304763,-2.522692441940308,7.494659423828125,-21.28322410583496,unknown,POSCTL,,,,423,,ACTIVE,6.414367914199829,-0.11,-0.38,-0.74,12,1,15,2,17760768,0,13
1733609201.2268405,0.0,True,lidar_spoofer,-0.0114113232120871,-0.0095546375960111,3.070864200592041,23.62,47,14.827,0,0,False,,,,70,109,4,18,0.4051638543605804,175,81.217,,39.1423942,,-76.7304809,False,0.8557382220000136,92.089,,39.1423955,,-76.7304762,10.872,,39.1423955,,-76.7304762,-2.592892646789551,7.494496822357178,-21.288089752197266,unknown,POSCTL,,,,893,,ACTIVE,1733609194.8124723,-0.12,-0.38,-0.73,12,1,15,2,17760768,0,13
1733609201.3271449,0.0,True,lidar_spoofer,-0.0078114755451679,-0.0084695545956492,3.0721683502197266,23.62,47,14.827,0,0,False,,,,70,109,4,18,0.4051638543605804,175,81.217,,39.1423942,,-76.7304809,False,0.9500424809999686,92.171,,39.1423955,,-76.7304762,10.953,,39.1423955,,-76.7304762,-2.652327299118042,7.496319770812988,-21.29274177551269,unknown,POSCTL,,,,338,,ACTIVE,6.514672517776489,-0.12,-0.38,-0.76,12,1,15,2,17760768,0,13
1733609201.4272802,0.0,True,lidar_spoofer,-0.0072994655929505,-0.0039920411072671,3.073575973510742,23.62,47,14.827,0,0,False,,,,70,109,4,18,0.4051638543605804,175,81.217,,39.1423942,,-76.7304809,False,0.0444635740000194,92.205,,39.1423954,,-76.7304761,10.988,,39.1423954,,-76.7304761,-2.715322971343994,7.509658813476562,-21.295970916748047,unknown,POSCTL,,,,780,,ACTIVE,1733609194.9126077,-0.12,-0.38,-0.76,12,1,15,2,17760768,0,13
1733609201.5274408,0.0,True,lidar_spoofer,-0.0089750783517956,-0.0096711963415145,3.0742108821868896,23.62,47,14.827,0,0,False,,,,70,109,4,18,0.398870050907135,176,81.217,,39.1423942,,-76.7304809,False,0.1507104070000195,92.275,,39.1423954,,-76.7304759,11.058,,39.1423954,,-76.7304759,-2.715322971343994,7.509658813476562,-21.295970916748047,unknown,POSCTL,,,,733,,ACTIVE,6.614833116531372,-0.11,-0.38,-0.76,12,1,15,2,17760768,0,13
1733609201.627524,0.0,True,lidar_spoofer,-0.012181831523776,-0.0069033205509185,3.074653148651123,23.62,47,14.827,0,0,False,,,,70,109,4,18,0.398870050907135,176,81.217,,39.1423942,,-76.7304809,False,0.23945272200001,92.31,,39.1423954,,-76.7304759,11.093,,39.1423954,,-76.7304759,-2.775141477584839,7.523127555847168,-21.2980899810791,unknown,POSCTL,,,,474,,ACTIVE,1733609195.0126908,-0.12,-0.38,-0.75,12,1,15,2,17760768,0,13
1733609201.7277884,0.0,True,lidar_spoofer,-0.0092857657000422,-0.0044457498006522,3.074427843093872,23.62,47,14.827,0,0,False,,,,70,109,4,18,0.398870050907135,176,81.217,,39.1423942,,-76.7304809,False,0.3563425739999957,92.387,,39.1423953,,-76.7304759,11.169,,39.1423953,,-76.7304759,-2.8325374126434326,7.526923656463623,-21.302824020385746,unknown,POSCTL,,,,966,,ACTIVE,6.715097665786743,-0.12,-0.39,-0.77,12,1,15,2,17760768,0,13
1733609201.8279006,0.0,True,lidar_spoofer,-0.0091394633054733,-0.0053777885623276,3.0744833946228027,23.75,46,14.807,0,0,False,,,,70,109,4,18,0.4249683916568756,176,81.217,,39.1423942,,-76.7304809,False,0.4486356480000495,92.422,,39.1423953,,-76.7304759,11.205,,39.1423953,,-76.7304759,-2.8983561992645264,7.526250839233398,-21.31081771850586,unknown,POSCTL,,,,625,,ACTIVE,1733609195.112803,-0.13,-0.4,-0.77,12,1,15,2,17760768,0,13
1733609201.9280045,0.0,True,lidar_spoofer,-0.0067545440979301,-0.0047400519251823,3.0748636722564697,23.75,46,14.807,0,0,False,,,,70,109,4,18,0.4249683916568756,176,81.217,,39.1423942,,-76.7304809,False,0.5570918330000723,92.459,,39.1423952,,-76.7304759,11.242,,39.1423952,,-76.7304759,-2.9613044261932373,7.524764537811279,-21.317790985107425,unknown,POSCTL,,,,876,,ACTIVE,6.815201282501221,-0.13,-0.4,-0.78,12,1,15,2,17760768,0,13
1733609202.028205,0.0,True,lidar_spoofer,-0.0045281774364411,-0.0070848288014531,3.076280355453491,23.75,46,14.807,0,0,False,,,,70,109,4,18,0.4249683916568756,176,81.217,,39.1423942,,-76.7304809,False,0.6542262770000207,92.541,,39.1423952,,-76.7304759,11.323,,39.1423952,,-76.7304759,-3.0238265991210938,7.523690700531006,-21.323331832885746,unknown,POSCTL,,,,793,,ACTIVE,1733609195.2130036,-0.12,-0.4,-0.75,12,1,15,2,17760768,0,13
