timestamp,airspeed,armed,attack_type,attitude.pitch,attitude.roll,attitude.yaw,battery.current,battery.level,battery.voltage,commands.count,commands.next,ekf_ok,gimbal.pitch,gimbal.roll,gimbal.yaw,gps_0.eph,gps_0.epv,gps_0.fix_type,gps_0.satellites_visible,groundspeed,heading,home_location.alt,home_location.global_frame,home_location.lat,home_location.local_frame,home_location.lon,is_armable,last_heartbeat,location.global_frame.alt,location.global_frame.global_frame,location.global_frame.lat,location.global_frame.local_frame,location.global_frame.lon,location.global_relative_frame.alt,location.global_relative_frame.global_frame,location.global_relative_frame.lat,location.global_relative_frame.local_frame,location.global_relative_frame.lon,location.local_frame.down,location.local_frame.east,location.local_frame.north,ml_verdict,mode.name,mount_status[0],mount_status[1],mount_status[2],rangefinder.distance,rangefinder.voltage,system_status.state,timedelta,velocity[0],velocity[1],velocity[2],version.autopilot_type,version.major,version.minor,version.patch,version.raw_version,version.release,version.vehicle_type
1733424226.5274198,0.0,True,benign,-0.000796908512711525,0.0027072448283433914,0.15732671320438385,-1.0,100,16.198,0,8,False,,,,0,0,3,10,0.016653764992952347,9,28.504,,39.9526379,,-113.475976,False,0.09963496000273153,28.497,,39.9526378,,-113.4759759,0.0,,39.9526378,,-113.4759759,-0.00042763215606100857,0.005029191728681326,0.00399404251947999,-1,RTL,,,,,,ACTIVE,0,-0.01,0.0,0.0,12,1,15,0,17760384,128,2
1733424226.6261296,0.0,True,benign,-0.0009822123683989048,0.002591704251244664,0.15741200745105743,-1.0,100,16.198,0,8,False,,,,0,0,3,10,0.016066696494817734,9,28.504,,39.9526379,,-113.475976,False,0.1974883100047009,28.498,,39.9526378,,-113.4759759,0.001,,39.9526378,,-113.4759759,-0.0010652767959982157,0.005369434133172035,0.003959831781685352,-1,RTL,,,,,,ACTIVE,1733424226.6261296,-0.01,0.0,0.0,12,1,15,0,17760384,128,2
1733424226.72382,0.0,True,benign,-0.0010492227738723159,0.002629690570756793,0.1574162095785141,-1.0,100,16.192,0,8,False,,,,0,0,3,10,0.016355903819203377,9,28.504,,39.9526379,,-113.475976,False,0.29531319900706876,28.499,,39.9526378,,-113.4759759,0.002,,39.9526378,,-113.4759759,-0.0017374942544847727,0.005859813187271357,0.00390984769910574,-1,RTL,,,,,,ACTIVE,0.09769034385681152,-0.01,0.0,0.0,12,1,15,0,17760384,128,2
1733424226.826485,0.0,True,benign,-0.000807431060820818,0.0025327743496745825,0.15765297412872314,-1.0,100,16.192,0,8,False,,,,0,0,3,10,0.015618185512721539,9,28.504,,39.9526379,,-113.475976,False,0.3949798230023589,28.499,,39.9526378,,-113.4759759,0.002,,39.9526378,,-113.4759759,-0.002289128489792347,0.006132950074970722,0.003962093964219093,-1,RTL,,,,,,ACTIVE,1733424226.7287946,-0.01,0.0,0.0,12,1,15,0,17760384,128,2
1733424226.9288476,0.0,True,benign,-0.0005702641210518777,0.0025483141653239727,0.1580050140619278,-1.0,100,16.186,0,8,False,,,,0,0,3,10,0.013964452780783176,9,28.504,,39.9526379,,-113.475976,False,0.5003822060098173,28.5,,39.9526378,,-113.4759759,0.003,,39.9526378,,-113.4759759,-0.0032874976750463247,0.006229969207197428,0.003960441332310438,-1,RTL,,,,,,ACTIVE,0.20005297660827637,-0.01,0.0,0.0,12,1,15,0,17760384,128,2
1733424227.0364196,0.0,True,benign,-0.0005591930239461362,0.002415611408650875,0.1579570472240448,-1.0,100,16.186,0,8,False,,,,0,0,3,10,0.013778278604149818,9,28.504,,39.9526379,,-113.475976,False,0.6075399080000352,28.501,,39.9526378,,-113.4759759,0.004,,39.9526378,,-113.4759759,-0.004004344344139099,0.006223889067769051,0.003933512140065432,-1,RTL,,,,,,ACTIVE,1733424226.8363667,-0.01,0.0,0.0,12,1,15,0,17760384,128,2
1733424227.139531,0.0,True,benign,-0.000695158145390451,0.0021115487907081842,0.15800735354423523,-1.0,100,16.186,0,8,False,,,,0,0,3,10,0.013778278604149818,9,28.497,,39.9526378,,-113.4759759,False,0.7040678250050405,28.501,,39.9526378,,-113.4759759,0.004,,39.9526378,,-113.4759759,-0.004436915274709463,0.006183921825140715,0.0038674355018883944,-1,RTL,,,,,,ACTIVE,0.3031642436981201,-0.01,0.0,0.0,12,1,15,0,17760384,128,2
1733424227.2382545,0.0,True,benign,-0.000600710220169276,0.0020808728877454996,0.15807420015335083,-1.0,100,16.18,0,8,False,,,,0,0,3,10,0.011326386593282223,9,28.497,,39.9526378,,-113.4759759,False,0.8107041400071466,28.502,,39.9526378,,-113.4759759,0.005,,39.9526378,,-113.4759759,-0.005001240409910679,0.006069165654480457,0.003960097208619118,-1,RTL,,,,,,ACTIVE,1733424226.9350903,-0.01,0.0,0.0,12,1,15,0,17760384,128,2
1733424227.3363714,0.0,True,benign,-0.0003920096787624061,0.0021095885895192623,0.1584007889032364,-1.0,100,16.18,0,8,False,,,,0,0,3,10,0.011902214959263802,9,28.497,,39.9526378,,-113.4759759,False,0.9080461440025829,28.502,,39.9526378,,-113.4759759,0.005,,39.9526378,,-113.4759759,-0.00543304905295372,0.005840036552399397,0.00388552388176322,-1,RTL,,,,,,ACTIVE,0.40128111839294434,-0.01,0.0,0.0,12,1,15,0,17760384,128,2
1733424227.440401,0.0,True,benign,-0.0006606587558053434,0.0018547129584476352,0.15831401944160461,-1.0,100,16.174,0,8,False,,,,0,0,3,10,0.011038592085242271,9,28.497,,39.9526378,,-113.4759759,False,1.0055021640000632,28.503,,39.9526378,,-113.4759759,0.005,,39.9526378,,-113.4759759,-0.005679531022906303,0.0056016412563622,0.003955342806875706,-1,RTL,,,,,,ACTIVE,1733424227.03912,-0.01,0.0,0.0,12,1,15,0,17760384,128,2
1733424227.5470898,0.0,True,benign,-0.00032753904815763235,0.0020289679523557425,0.15835942327976227,-1.0,100,16.171,0,8,False,,,,0,0,3,10,0.01011747121810913,9,28.497,,39.9526378,,-113.4759759,False,0.007736658997600898,28.503,,39.9526378,,-113.4759759,0.006,,39.9526378,,-113.4759759,-0.00582208763808012,0.005167685449123383,0.004198329523205757,-1,RTL,,,,,,ACTIVE,0.507969856262207,-0.01,0.0,0.0,12,1,15,0,17760384,128,2
1733424227.6474733,0.0,True,benign,-0.00022637730580754578,0.0018533916445448995,0.15836726129055023,-1.0,100,16.168,0,8,False,,,,0,0,3,10,0.011049533262848854,9,28.497,,39.9526378,,-113.4759759,False,0.013499370004865341,28.503,,39.9526378,,-113.4759759,0.006,,39.9526378,,-113.4759759,-0.005832303315401077,0.00456964923068881,0.004562962334603071,-1,RTL,,,,,,ACTIVE,1733424227.1395035,-0.01,0.0,0.0,12,1,15,0,17760384,128,2
1733424227.7540863,0.0,True,benign,-0.00016699719708412886,0.0018723260145634413,0.15860384702682495,-1.0,100,16.168,0,8,False,,,,0,0,3,10,0.012892925180494785,9,28.497,,39.9526378,,-113.4759759,False,0.12054542600526474,28.503,,39.9526378,,-113.4759759,0.006,,39.9526378,,-113.4759759,-0.0059137591160833836,0.003966243006289005,0.0051206378266215324,-1,RTL,,,,,,ACTIVE,0.6145827770233154,-0.01,0.0,0.0,12,1,15,0,17760384,128,2
1733424227.8484411,0.0,True,benign,-0.00034858391154557467,0.0015025623142719269,0.15869024395942688,-1.0,100,16.168,0,8,False,,,,0,0,3,10,0.012782054953277111,9,28.497,,39.9526378,,-113.4759759,False,0.21287135600869078,28.503,,39.9526378,,-113.4759759,0.006,,39.9526378,,-113.4759759,-0.006147113163024187,0.0034528898540884256,0.00574287585914135,-1,RTL,,,,,,ACTIVE,1733424227.2338583,-0.01,0.0,0.0,12,1,15,0,17760384,128,2
1733424227.9648404,0.0,True,benign,-0.00046880674199201167,0.0013657589443027973,0.1583201140165329,-1.0,100,16.162,0,8,False,,,,0,0,3,10,0.012793395668268204,9,28.497,,39.9526378,,-113.4759759,False,0.3114771000109613,28.503,,39.9526378,,-113.4759759,0.006,,39.9526378,,-113.4759759,-0.006551722530275583,0.0030241941567510366,0.006479593459516764,-1,RTL,,,,,,ACTIVE,0.7309820652008057,-0.01,0.0,0.0,12,1,15,0,17760384,128,2
1733424228.048335,0.0,True,benign,-0.0010892442660406232,0.0014551118947565556,0.1583278626203537,-1.0,100,16.162,0,8,False,,,,0,0,3,10,0.014994210563600063,9,28.497,,39.9526378,,-113.4759759,False,0.4129667360102758,28.504,,39.9526378,,-113.4759759,0.007,,39.9526378,,-113.4759759,-0.006979509722441435,0.0027672299183905125,0.006961752660572529,-1,RTL,,,,,,ACTIVE,1733424227.317353,-0.01,0.0,0.0,12,1,15,0,17760384,128,2
1733424228.1486423,0.0,True,benign,-0.0010300856083631516,0.001705797971226275,0.15864737331867218,-1.0,99,16.156,0,8,False,,,,0,0,3,10,0.014065989293158054,9,28.497,,39.9526378,,-113.4759759,False,0.5104346870066365,28.504,,39.9526378,,-113.4759759,0.007,,39.9526378,,-113.4759759,-0.007308293133974075,0.0025475644506514072,0.0074673364870250225,-1,RTL,,,,,,ACTIVE,0.8312892913818359,-0.01,0.0,0.0,12,1,15,0,17760384,128,2
1733424228.25113,0.0,True,benign,-0.001264961319975555,0.0018240946810692549,0.1587100625038147,-1.0,99,16.156,0,8,False,,,,0,0,3,10,0.01437366008758545,9,28.497,,39.9526378,,-113.4759759,False,0.6179754409968155,28.505,,39.9526378,,-113.4759759,0.007,,39.9526378,,-113.4759759,-0.007671189960092306,0.0022486108355224133,0.008058090694248676,-1,RTL,,,,,,ACTIVE,1733424227.4198408,-0.01,0.0,0.0,12,1,15,0,17760384,128,2
1733424228.3505292,0.0,True,benign,-0.0014633379178121686,0.0021258003544062376,0.1585691273212433,-1.0,99,16.15,0,8,False,,,,0,0,3,10,0.014260759577155113,9,28.497,,39.9526378,,-113.4759759,False,0.7157758380053565,28.505,,39.9526378,,-113.4759759,0.008,,39.9526378,,-113.4759759,-0.007921308279037476,0.002017329214140773,0.008560430258512497,-1,RTL,,,,,,ACTIVE,0.9306883811950684,0.0,0.0,0.0,12,1,15,0,17760384,128,2
1733424228.453689,0.0,True,benign,-0.0013973867753520608,0.002281020162627101,0.15900932252407074,-1.0,99,16.15,0,8,False,,,,0,0,3,10,0.012942197732627392,9,28.497,,39.9526378,,-113.4759759,False,0.8197047270077746,28.505,,39.9526378,,-113.4759759,0.008,,39.9526378,,-113.4759759,-0.007968408986926079,0.0017783273942768574,0.008925190195441246,-1,RTL,,,,,,ACTIVE,1733424227.5230007,0.0,0.0,0.0,12,1,15,0,17760384,128,2
1733424228.5547376,0.0,True,benign,-0.0015201906207948923,0.002214384265244007,0.15908168256282806,-1.0,99,16.144,0,8,False,,,,0,0,3,10,0.011442432180047035,9,28.497,,39.9526378,,-113.4759759,False,0.9186466100072721,28.505,,39.9526378,,-113.4759759,0.008,,39.9526378,,-113.4759759,-0.008008349686861038,0.0017117823008447886,0.009069330990314484,-1,RTL,,,,,,ACTIVE,1.0317368507385254,0.0,0.0,0.0,12,1,15,0,17760384,128,2
1733424228.6536648,0.0,True,benign,-0.0018800246762111783,0.0023945816792547703,0.15948273241519928,-1.0,99,16.141,0,8,False,,,,0,0,3,10,0.009072070010006428,9,28.497,,39.9526378,,-113.4759759,False,0.003686106007080525,28.505,,39.9526378,,-113.4759759,0.008,,39.9526378,,-113.4759759,-0.00796730350703001,0.0018216943135485053,0.009187383577227592,-1,RTL,,,,,,ACTIVE,1733424227.621928,0.0,0.0,0.0,12,1,15,0,17760384,128,2
1733424228.7530198,0.0,True,benign,-0.002027951180934906,0.0023857238702476025,0.15986497700214386,-1.0,99,16.138,0,8,False,,,,0,0,3,10,0.008139306679368019,9,28.497,,39.9526378,,-113.4759759,False,0.009570156005793251,28.505,,39.9526378,,-113.4759759,0.008,,39.9526378,,-113.4759759,-0.008022039197385311,0.0023468127474188805,0.009525809437036514,-1,RTL,,,,,,ACTIVE,1.131091833114624,0.0,0.0,0.0,12,1,15,0,17760384,128,2
1733424228.866295,0.0,True,benign,-0.0017967744497582316,0.0022721884306520224,0.1601160615682602,-1.0,99,16.138,0,8,False,,,,0,0,3,10,0.005594525020569563,9,28.497,,39.9526378,,-113.4759759,False,0.12346734901075251,28.505,,39.9526378,,-113.4759759,0.008,,39.9526378,,-113.4759759,-0.008371531032025814,0.003006869228556752,0.010282139293849468,-1,RTL,,,,,,ACTIVE,1733424227.7352033,0.0,0.0,0.0,12,1,15,0,17760384,128,2
1733424228.9530747,0.0,True,benign,-0.0018008446786552668,0.0025044293142855167,0.16026031970977783,-1.0,99,16.138,0,8,False,,,,0,0,3,10,0.005038109142333269,9,28.497,,39.9526378,,-113.4759759,False,0.20491523201053496,28.505,,39.9526378,,-113.4759759,0.008,,39.9526378,,-113.4759759,-0.008543424308300018,0.0035328404046595097,0.010852445848286152,-1,RTL,,,,,,ACTIVE,1.2178714275360107,0.0,0.0,0.0,12,1,15,0,17760384,128,2
1733424229.0578392,0.0,True,benign,-0.0018777939258143306,0.002381144557148218,0.16044527292251587,-1.0,98,16.132,0,8,False,,,,0,0,3,10,0.004945436492562294,9,28.497,,39.9526378,,-113.4759759,False,0.312566238004365,28.506,,39.9526379,,-113.4759759,0.009,,39.9526379,,-113.4759759,-0.008761267177760601,0.004279188811779022,0.011455961503088474,-1,RTL,,,,,,ACTIVE,1733424227.8399677,0.0,0.0,0.0,12,1,15,0,17760384,128,2
1733424229.1628764,0.0,True,benign,-0.0016545818652957678,0.0023259781301021576,0.16070601344108582,-1.0,98,16.132,0,8,False,,,,0,0,3,10,0.006797164678573608,9,28.497,,39.9526378,,-113.4759759,False,0.4200518850120716,28.506,,39.9526379,,-113.4759759,0.009,,39.9526379,,-113.4759759,-0.009009299799799919,0.004845974501222372,0.011684817261993885,-1,RTL,,,,,,ACTIVE,1.322908639907837,0.0,0.0,0.0,12,1,15,0,17760384,128,2
1733424229.2561588,0.0,True,benign,-0.0016394117847085,0.00205043563619256,0.16070248186588287,-1.0,98,16.126,0,8,False,,,,0,0,3,10,0.006098890211433172,9,28.497,,39.9526378,,-113.4759759,False,0.511582997001824,28.506,,39.9526379,,-113.4759759,0.009,,39.9526379,,-113.4759759,-0.009124679490923882,0.005232756957411766,0.011846284382045269,-1,RTL,,,,,,ACTIVE,1733424227.9332502,0.0,0.0,0.0,12,1,15,0,17760384,128,2
1733424229.3572006,0.0,True,benign,-0.0015234111342579126,0.0018635891610756516,0.16037288308143616,-1.0,98,16.126,0,8,False,,,,0,0,3,10,0.006889155600219965,9,28.497,,39.9526378,,-113.4759759,False,0.6139152690011542,28.506,,39.9526379,,-113.4759759,0.009,,39.9526379,,-113.4759759,-0.00929652526974678,0.005727255716919899,0.01191705372184515,-1,RTL,,,,,,ACTIVE,1.423950433731079,0.0,0.0,0.0,12,1,15,0,17760384,128,2
1733424229.4577105,0.0,True,benign,-0.001315230387263,0.0018851462518796325,0.16021527349948883,-1.0,98,16.12,0,8,False,,,,0,0,3,10,0.0067801023833453655,9,28.497,,39.9526378,,-113.4759759,False,0.711305025004549,28.506,,39.9526379,,-113.4759759,0.009,,39.9526379,,-113.4759759,-0.00950902421027422,0.006184878759086132,0.011968058533966541,-1,RTL,,,,,,ACTIVE,1733424228.03376,0.0,0.0,0.0,12,1,15,0,17760384,128,2
1733424229.5579922,0.0,True,benign,-0.0015891885850578547,0.0017839805223047733,0.16013087332248688,-1.0,98,16.12,0,8,False,,,,0,0,3,10,0.005652324762195349,9,28.497,,39.9526378,,-113.4759759,False,0.8138415180001175,28.507,,39.9526379,,-113.4759759,0.009,,39.9526379,,-113.4759759,-0.009729373268783092,0.006581331603229046,0.012159821577370167,-1,RTL,,,,,,ACTIVE,1.5242321491241455,0.0,0.0,0.0,12,1,15,0,17760384,128,2
1733424229.6577165,0.0,True,benign,-0.0015782058471813798,0.0017637457931414247,0.16030962765216827,-1.0,97,16.114,0,8,False,,,,0,0,3,10,0.006965329870581627,9,28.497,,39.9526378,,-113.4759759,False,0.9110861610097345,28.507,,39.9526379,,-113.4759759,0.01,,39.9526379,,-113.4759759,-0.0099136121571064,0.006680552382022142,0.012335697188973427,-1,RTL,,,,,,ACTIVE,1733424228.1334844,0.0,0.0,0.0,12,1,15,0,17760384,128,2
1733424229.7616315,0.0,True,benign,-0.0018401456763967872,0.0017020658124238253,0.16021586954593658,-1.0,97,16.111,0,8,False,,,,0,0,3,10,0.0062258304096758366,9,28.497,,39.9526378,,-113.4759759,False,0.005197790000238456,28.507,,39.9526379,,-113.4759759,0.01,,39.9526379,,-113.4759759,-0.01026721391826868,0.006636176258325577,0.012540805153548717,-1,RTL,,,,,,ACTIVE,1.6281471252441406,0.0,0.0,0.0,12,1,15,0,17760384,128,2
1733424229.8604057,0.0,True,benign,-0.0019087775144726038,0.001868616440333426,0.16018112003803253,-1.0,97,16.108,0,8,False,,,,0,0,3,10,0.005450913682579994,9,28.497,,39.9526378,,-113.4759759,False,0.0047594689967809245,28.508,,39.9526379,,-113.4759759,0.01,,39.9526379,,-113.4759759,-0.010547289624810219,0.006573372986167669,0.012645287439227104,-1,RTL,,,,,,ACTIVE,1733424228.2322586,0.0,0.0,0.0,12,1,15,0,17760384,128,2
1733424229.9601927,0.0,True,benign,-0.0017924918793141842,0.0014862918760627508,0.16039974987506866,-1.0,97,16.108,0,8,False,,,,0,0,3,10,0.005450913682579994,9,28.497,,39.9526378,,-113.4759759,False,0.10222594399238005,28.508,,39.9526379,,-113.4759759,0.011,,39.9526379,,-113.4759759,-0.01075547281652689,0.006407616659998894,0.012752199545502663,-1,RTL,,,,,,ACTIVE,1.7279341220855713,0.0,0.0,0.0,12,1,15,0,17760384,128,2
1733424230.0612204,0.0,True,benign,-0.0016131685115396976,0.001375389052554965,0.1606711894273758,-1.0,97,16.108,0,8,False,,,,0,0,3,10,0.007624750025570393,9,28.497,,39.9526378,,-113.4759759,False,0.2051070460001938,28.508,,39.9526379,,-113.4759759,0.011,,39.9526379,,-113.4759759,-0.010838854126632214,0.0058546545915305614,0.01292940229177475,-1,RTL,,,,,,ACTIVE,1733424228.3332863,0.0,0.0,0.0,12,1,15,0,17760384,128,2
1733424230.1611602,0.0,True,benign,-0.001623874413780868,0.001602864358574152,0.16073158383369446,-1.0,97,16.102,0,8,False,,,,0,0,3,10,0.00784999132156372,9,28.497,,39.9526378,,-113.4759759,False,0.3033799709955929,28.508,,39.9526379,,-113.4759759,0.011,,39.9526379,,-113.4759759,-0.010970506817102432,0.004846736788749695,0.013051891699433327,-1,RTL,,,,,,ACTIVE,1.827873945236206,0.0,0.0,0.0,12,1,15,0,17760384,128,2
1733424230.2613308,0.0,True,benign,-0.0012752697803080082,0.0014067413285374641,0.16098229587078094,-1.0,97,16.102,0,8,False,,,,0,0,3,10,0.0092511847615242,9,28.497,,39.9526378,,-113.4759759,False,0.40639314299914986,28.508,,39.9526379,,-113.4759759,0.011,,39.9526379,,-113.4759759,-0.011039628647267818,0.003917370922863483,0.013102103024721146,-1,RTL,,,,,,ACTIVE,1733424228.433457,0.0,0.0,0.0,12,1,15,0,17760384,128,2
1733424230.3638048,0.0,True,benign,-0.0015339324017986655,0.0012266231933608651,0.16137440502643585,-1.0,96,16.096,0,8,False,,,,0,0,3,10,0.010575858876109123,9,28.497,,39.9526378,,-113.4759759,False,0.5079393630003324,28.508,,39.9526379,,-113.4759759,0.011,,39.9526379,,-113.4759759,-0.010978049598634243,0.0028929163236171007,0.013070394285023212,-1,RTL,,,,,,ACTIVE,1.9303479194641113,0.0,0.0,0.0,12,1,15,0,17760384,128,2
1733424230.463957,0.0,True,benign,-0.0016779842553660274,0.0011178083950653672,0.1612599641084671,-1.0,96,16.096,0,8,False,,,,0,0,3,10,0.009973011910915375,9,28.497,,39.9526378,,-113.4759759,False,0.6093944979947992,28.508,,39.9526379,,-113.4759759,0.011,,39.9526379,,-113.4759759,-0.010835004039108753,0.0024408376775681973,0.013048557564616203,-1,RTL,,,,,,ACTIVE,1733424228.5336092,0.0,0.0,0.0,12,1,15,0,17760384,128,2
1733424230.5652878,0.0,True,benign,-0.0016512074507772923,0.0010997995268553495,0.16174356639385223,-1.0,96,16.09,0,8,False,,,,0,0,3,10,0.010863295756280422,9,28.497,,39.9526378,,-113.4759759,False,0.7086733329924755,28.507,,39.9526379,,-113.4759759,0.01,,39.9526379,,-113.4759759,-0.01037795003503561,0.0019394689006730914,0.013101700693368912,-1,RTL,,,,,,ACTIVE,2.0316786766052246,0.0,0.0,0.0,12,1,15,0,17760384,128,2
1733424230.669163,0.0,True,benign,-0.001526208478026092,0.0009838294936344028,0.16201673448085785,-1.0,96,16.09,0,8,False,,,,0,0,3,10,0.011614357121288776,9,28.497,,39.9526378,,-113.4759759,False,0.8148481029929826,28.507,,39.9526379,,-113.4759759,0.01,,39.9526379,,-113.4759759,-0.009851655922830105,0.001559412106871605,0.013209410943090916,-1,RTL,,,,,,ACTIVE,1733424228.6374843,0.0,-0.01,0.0,12,1,15,0,17760384,128,2
1733424230.7685263,0.0,True,benign,-0.0016510527348145843,0.0011506682494655252,0.1617737114429474,-1.0,96,16.084,0,8,False,,,,0,0,3,10,0.012284782715141773,9,28.497,,39.9526378,,-113.4759759,False,0.9125044980028179,28.506,,39.9526379,,-113.4759759,0.009,,39.9526379,,-113.4759759,-0.009353398345410824,0.0011587139451876283,0.01326383464038372,-1,RTL,,,,,,ACTIVE,2.131042003631592,0.0,0.0,0.0,12,1,15,0,17760384,128,2
1733424230.874229,0.0,True,benign,-0.0015932818641886115,0.001293298089876771,0.16144651174545288,-1.0,96,16.081,0,8,False,,,,0,0,3,10,0.012207896448671818,9,28.497,,39.9526378,,-113.4759759,False,0.00525400199694559,28.506,,39.9526379,,-113.4759759,0.009,,39.9526379,,-113.4759759,-0.00884968787431717,0.0004785146738868207,0.013368525542318821,-1,RTL,,,,,,ACTIVE,1733424228.743187,0.0,0.0,0.0,12,1,15,0,17760384,128,2
1733424230.96852,0.0,True,benign,-0.0013890020782127976,0.0012570779072120786,0.16132715344429016,-1.0,96,16.081,0,8,False,,,,0,0,3,10,0.012207896448671818,9,28.497,,39.9526378,,-113.4759759,False,0.0976833120075753,28.505,,39.9526379,,-113.475976,0.008,,39.9526379,,-113.475976,-0.008508658036589622,-0.0002821767993737012,0.013435514643788338,-1,RTL,,,,,,ACTIVE,2.2253329753875732,0.0,-0.01,0.0,12,1,15,0,17760384,128,2
1733424231.0710166,0.0,True,benign,-0.0012336164945736527,0.001020201132632792,0.16140615940093994,-1.0,95,16.078,0,8,False,,,,0,0,3,10,0.012423036620020866,9,28.497,,39.9526378,,-113.4759759,False,0.09954472500248812,28.505,,39.9526379,,-113.475976,0.008,,39.9526379,,-113.475976,-0.008180765435099602,-0.0009969682432711124,0.013504407368600368,-1,RTL,,,,,,ACTIVE,1733424228.8456836,0.0,-0.01,0.0,12,1,15,0,17760384,128,2
1733424231.1735666,0.0,True,benign,-0.0013958789641037583,0.0009753050399012864,0.161342054605484,-1.0,95,16.078,0,8,False,,,,0,0,3,10,0.013602245599031448,9,28.497,,39.9526378,,-113.4759759,False,0.19538660600665025,28.505,,39.9526379,,-113.475976,0.008,,39.9526379,,-113.475976,-0.008026592433452606,-0.0014115531230345368,0.013471599668264389,-1,RTL,,,,,,ACTIVE,2.327883005142212,0.0,-0.01,0.0,12,1,15,0,17760384,128,2
1733424231.2796474,0.0,True,benign,-0.001382943126372993,0.0010444740764796734,0.16139143705368042,-1.0,95,16.072,0,8,False,,,,0,0,3,10,0.013435279950499535,9,28.497,,39.9526378,,-113.4759759,False,0.3083076770126354,28.505,,39.9526379,,-113.475976,0.008,,39.9526379,,-113.475976,-0.00786136370152235,-0.0019418424926698208,0.013247264549136162,-1,RTL,,,,,,ACTIVE,1733424228.9517643,0.0,-0.01,0.0,12,1,15,0,17760384,128,2
1733424231.3813925,0.0,True,benign,-0.0014639607397839427,0.001052282634191215,0.16140387952327728,-1.0,95,16.072,0,8,False,,,,0,0,3,10,0.015060042962431908,9,28.497,,39.9526378,,-113.4759759,False,0.41000454100139905,28.505,,39.9526379,,-113.475976,0.008,,39.9526379,,-113.475976,-0.007829826325178146,-0.0022117127664387226,0.012908401899039745,-1,RTL,,,,,,ACTIVE,2.4296281337738037,0.0,-0.01,0.0,12,1,15,0,17760384,128,2
1733424231.504482,0.0,True,benign,-0.0018965642666444182,0.0010703728767111897,0.16150613129138947,-1.0,95,16.066,0,8,False,,,,0,0,3,10,0.015812428668141365,9,28.497,,39.9526378,,-113.4759759,False,0.5338421150081558,28.504,,39.9526379,,-113.475976,0.007,,39.9526379,,-113.475976,-0.007425546646118164,-0.0028198694344609976,0.012283017858862877,-1,RTL,,,,,,ACTIVE,1733424229.074854,0.0,-0.01,0.0,12,1,15,0,17760384,128,2
1733424231.6092653,0.0,True,static_gps_spoofer,-0.0018988456577062607,0.0010967775015160441,0.1616477072238922,-1.0,95,16.066,0,8,False,,,,0,0,3,10,0.015982383862137794,9,28.497,,39.9526378,,-113.4759759,False,0.6377810850099195,28.504,,38.898100476102435,,-77.0366526080773,0.007,,39.9526379,,-113.475976,-0.006855353247374296,-0.0033940321300178766,0.011888972483575344,-1,RTL,,,,,,ACTIVE,2.5344114303588867,0.0,-0.01,0.0,12,1,15,0,17760384,128,2
1733424231.7097373,0.0,True,static_gps_spoofer,-0.0019211911130696535,0.000815419596619904,0.16199849545955658,-1.0,94,16.06,0,8,False,,,,0,0,3,10,0.015041416510939598,9,28.497,,39.9526378,,-113.4759759,False,0.7383292280137539,28.504,,38.89803659512358,,-77.0365471062227,0.006,,39.9526379,,-113.475976,-0.0066864085383713245,-0.003963106777518988,0.011610820889472961,-1,RTL,,,,,,ACTIVE,1733424229.1753259,0.0,-0.01,0.0,12,1,15,0,17760384,128,2
1733424231.813515,0.0,True,static_gps_spoofer,-0.0017837281338870525,0.0004924057284370065,0.16229316592216492,-1.0,94,16.06,0,8,False,,,,0,0,3,10,0.016065355390310287,9,28.497,,39.9526378,,-113.4759759,False,0.8417229210026562,28.504,,38.89799274782953,,-77.03648371214543,0.007,,39.9526379,,-113.475976,-0.006727865431457758,-0.0045310077257454395,0.011468133889138699,-1,RTL,,,,,,ACTIVE,2.6381890773773193,0.0,-0.01,0.0,12,1,15,0,17760384,128,2
1733424231.9151633,0.0,True,static_gps_spoofer,-0.0016879613976925611,0.0005861941608600318,0.16215895116329193,-1.0,94,16.06,0,8,False,,,,0,0,3,10,0.016592158004641533,9,28.497,,39.9526378,,-113.4759759,False,0.9437430390098598,28.504,,38.89801055513685,,-77.03654997507002,0.007,,39.9526379,,-113.475976,-0.006811125203967094,-0.005070447456091642,0.011376521550118923,-1,RTL,,,,,,ACTIVE,1733424229.2769742,0.0,-0.01,0.0,12,1,15,0,17760384,128,2
1733424232.0161448,0.0,True,static_gps_spoofer,-0.0019401831086724997,0.0005260540056042373,0.16228057444095612,-1.0,94,16.054,0,8,False,,,,0,0,3,10,0.016447078436613083,9,28.497,,39.9526378,,-113.4759759,False,1.0447169290127931,28.504,,38.89781065968828,,-77.03657258239576,0.007,,39.9526379,,-113.475976,-0.0070262872613966465,-0.0055172024294734,0.01121195126324892,-1,RTL,,,,,,ACTIVE,2.739170551300049,0.0,-0.01,0.0,12,1,15,0,17760384,128,2
1733424232.1172867,0.0,True,static_gps_spoofer,-0.00199175369925797,0.00044822294148616493,0.16235411167144775,-1.0,94,16.051,0,8,False,,,,0,0,3,10,0.017522860318422318,9,28.497,,39.9526378,,-113.4759759,False,0.05242445200565271,28.504,,38.89793681215386,,-77.03651436282648,0.007,,39.9526379,,-113.475976,-0.007279133889824152,-0.005743815563619137,0.01120601687580347,-1,RTL,,,,,,ACTIVE,1733424229.3781161,0.0,-0.01,0.0,12,1,15,0,17760384,128,2
1733424232.2161543,0.0,True,static_gps_spoofer,-0.0019616123754531145,0.0004284080641809851,0.16243048012256622,-1.0,94,16.048,0,8,False,,,,0,0,3,10,0.017958009615540504,9,28.497,,39.9526378,,-113.4759759,False,0.053738412010716274,28.504,,38.898088347560886,,-77.0365812688307,0.007,,39.9526379,,-113.475976,-0.007374786771833897,-0.0059665534645318985,0.011572546325623989,-1,RTL,,,,,,ACTIVE,2.838038206100464,0.0,-0.01,0.0,12,1,15,0,17760384,128,2
1733424232.3201041,0.0,True,static_gps_spoofer,-0.0018748868023976684,0.0003393165534362197,0.162292942404747,-1.0,94,16.048,0,8,False,,,,0,0,3,10,0.01995920017361641,9,28.497,,39.9526378,,-113.4759759,False,0.1576862680085469,28.504,,38.89790040846272,,-77.03650594392445,0.007,,39.9526379,,-113.475976,-0.00716315396130085,-0.006371252238750458,0.012211753986775875,-1,RTL,,,,,,ACTIVE,1733424229.482066,0.0,-0.02,0.0,12,1,15,0,17760384,128,2
1733424232.425057,0.0,True,static_gps_spoofer,-0.0019010924734175205,0.00025063063367269933,0.16236163675785065,-1.0,93,16.042,0,8,False,,,,0,0,3,10,0.021285399794578552,9,28.497,,39.9526378,,-113.4759759,False,0.2638096840091748,28.504,,38.89802650318152,,-77.03632617256166,0.006,,39.9526379,,-113.475976,-0.006640616338700056,-0.007085348013788462,0.013208565302193165,-1,RTL,,,,,,ACTIVE,2.942991018295288,0.0,-0.02,0.0,12,1,15,0,17760384,128,2
1733424232.5245535,0.0,True,static_gps_spoofer,-0.0018596039153635502,0.00022227712906897068,0.16261214017868042,-1.0,93,16.042,0,8,False,,,,0,0,3,10,0.02390241250395775,9,28.497,,39.9526378,,-113.4759759,False,0.36231937901175115,28.503,,38.89805340621621,,-77.03640601767077,0.006,,39.9526379,,-113.475976,-0.006154948379844427,-0.007799316197633743,0.013912499882280827,-1,RTL,,,,,,ACTIVE,1733424229.5815625,0.0,-0.02,0.0,12,1,15,0,17760384,128,2
1733424232.624805,0.0,True,static_gps_spoofer,-0.0019201544346287847,-6.837171531515196e-05,0.1628221571445465,-1.0,93,16.036,0,8,False,,,,0,0,3,10,0.02375573106110096,9,28.497,,39.9526378,,-113.4759759,False,0.4629336400103057,28.502,,38.89792152179181,,-77.03657744086043,0.005,,39.9526379,,-113.4759761,-0.005399450194090605,-0.008538520894944668,0.014510796405375004,-1,RTL,,,,,,ACTIVE,3.0432424545288086,0.0,-0.02,0.0,12,1,15,0,17760384,128,2
1733424232.7282507,0.0,True,static_gps_spoofer,-0.0019377991557121277,-0.00015576177975162864,0.1630285382270813,-1.0,93,16.036,0,8,False,,,,0,0,3,10,0.02495669387280941,9,28.497,,39.9526378,,-113.4759759,False,0.5669378730090102,28.502,,38.898079547407335,,-77.03667142385888,0.005,,39.9526379,,-113.4759761,-0.004889113828539848,-0.00895803514868021,0.01476981770247221,-1,RTL,,,,,,ACTIVE,1733424229.6850083,0.0,-0.02,0.0,12,1,15,0,17760384,128,2
1733424232.8251653,0.0,True,static_gps_spoofer,-0.002118285745382309,-0.000210726706427522,0.16314633190631866,-1.0,93,16.036,0,8,False,,,,0,0,3,10,0.02495669387280941,9,28.497,,39.9526378,,-113.4759759,False,0.6622302420000779,28.501,,38.89788139601243,,-77.0363680604984,0.004,,39.9526379,,-113.4759761,-0.004337448626756668,-0.00920173805207014,0.014895500615239143,-1,RTL,,,,,,ACTIVE,3.1401569843292236,0.0,-0.02,0.0,12,1,15,0,17760384,128,2
1733424232.9279637,0.0,True,static_gps_spoofer,-0.002373409690335393,-0.0003810738562606275,0.16331720352172852,-1.0,93,16.03,0,8,False,,,,0,0,3,10,0.02517942152917385,9,28.497,,39.9526378,,-113.4759759,False,0.765569448005408,28.501,,38.89800477655121,,-77.03653565932129,0.004,,39.9526379,,-113.4759761,-0.0038310822565108538,-0.00914823729544878,0.014998115599155426,-1,RTL,,,,,,ACTIVE,1733424229.7878067,0.0,-0.02,0.0,12,1,15,0,17760384,128,2
1733424233.0260448,0.0,True,static_gps_spoofer,-0.002626300323754549,-0.00034426370984874666,0.16329379379749298,-1.0,93,16.03,0,8,False,,,,0,0,3,10,0.02582612633705139,9,28.497,,39.9526378,,-113.4759759,False,0.8633023240108741,28.5,,38.897844308286814,,-77.03671038376015,0.003,,39.9526379,,-113.4759761,-0.0029335240833461285,-0.009081008844077587,0.015189704485237598,-1,RTL,,,,,,ACTIVE,3.2382380962371826,0.0,-0.02,0.0,12,1,15,0,17760384,128,2
1733424233.1364062,0.0,True,static_gps_spoofer,-0.0024671100545674562,-0.00019689467444550246,0.16381549835205078,-1.0,92,16.024,0,8,False,,,,0,0,3,10,0.02699444070458412,9,28.497,,39.9526378,,-113.4759759,False,0.9751345440017758,28.499,,38.897917907813984,,-77.03654802091324,0.002,,39.9526379,,-113.4759761,-0.001982481684535742,-0.00917345006018877,0.015436693094670773,-1,RTL,,,,,,ACTIVE,1733424229.898168,0.0,-0.02,0.0,12,1,15,0,17760384,128,2
1733424233.2263596,0.0,True,static_gps_spoofer,-0.00253479927778244,-0.00035499950172379613,0.1639813631772995,-1.0,92,16.021,0,8,False,,,,0,0,3,10,0.02867661416530609,9,28.497,,39.9526378,,-113.4759759,False,0.0301300310093211,28.498,,38.89797481944707,,-77.03638531063294,0.001,,39.9526379,,-113.4759761,-0.0014969914918765426,-0.00917975977063179,0.01561679970473051,-1,RTL,,,,,,ACTIVE,3.3281915187835693,0.0,-0.02,0.0,12,1,15,0,17760384,128,2
1733424233.3285332,0.0,True,static_gps_spoofer,-0.0026033937465399504,-0.0006108811357989907,0.16404305398464203,-1.0,92,16.018,0,8,False,,,,0,0,3,10,0.02932271920144558,9,28.497,,39.9526378,,-113.4759759,False,0.031955062004271895,28.498,,38.89790967536261,,-77.0365032283262,0.001,,39.9526379,,-113.4759761,-0.0010892021236941218,-0.009139780886471272,0.015719952061772346,-1,RTL,,,,,,ACTIVE,1733424230.0003417,0.0,-0.02,0.0,12,1,15,0,17760384,128,2
1733424233.4317238,0.0,True,static_gps_spoofer,-0.0025483202189207077,-0.000549421994946897,0.163715660572052,-1.0,92,16.018,0,8,False,,,,0,0,3,10,0.028068747371435165,9,28.497,,39.9526378,,-113.4759759,False,0.13374089599528816,28.498,,38.897933910176164,,-77.03654083999096,0.001,,39.9526379,,-113.4759761,-0.0009366536396555603,-0.008810823783278465,0.015716757625341415,-1,RTL,,,,,,ACTIVE,3.431382179260254,0.0,-0.02,0.0,12,1,15,0,17760384,128,2
1733424233.5367117,0.0,True,static_gps_spoofer,-0.002694671042263508,-0.0008097666432149708,0.1640520542860031,-1.0,92,16.018,0,8,False,,,,0,0,3,10,0.02927548624575138,9,28.497,,39.9526378,,-113.4759759,False,0.24095658199803438,28.498,,38.89815125396073,,-77.0366140697886,0.001,,39.9526379,,-113.475976,-0.0008800082141533494,-0.008523020893335342,0.01571349985897541,-1,RTL,,,,,,ACTIVE,1733424230.1053295,0.0,-0.02,0.0,12,1,15,0,17760384,128,2
1733424233.6390488,0.0,True,static_gps_spoofer,-0.0028334634844213724,-0.0006796260713599622,0.1644383668899536,-1.0,92,16.012,0,8,False,,,,0,0,3,10,0.028539495542645454,9,28.497,,39.9526378,,-113.4759759,False,0.34298789499734994,28.498,,38.89805980261509,,-77.03669136665407,0.001,,39.9526379,,-113.475976,-0.0009235746692866087,-0.008257324807345867,0.0158159751445055,-1,RTL,,,,,,ACTIVE,3.533719301223755,0.0,-0.02,0.0,12,1,15,0,17760384,128,2
1733424233.744589,0.0,True,static_gps_spoofer,-0.0029405918903648853,-0.00042740069329738617,0.16468997299671173,-1.0,92,16.012,0,8,False,,,,0,0,3,10,0.02917918935418129,9,28.497,,39.9526378,,-113.4759759,False,0.4491567149962066,28.498,,38.897983647496005,,-77.03656553500977,0.001,,39.9526379,,-113.475976,-0.0009252385352738202,-0.008026440627872944,0.015926344320178032,-1,RTL,,,,,,ACTIVE,1733424230.2108698,0.0,-0.02,0.0,12,1,15,0,17760384,128,2
1733424233.8400364,0.0,True,static_gps_spoofer,-0.003078441135585308,-0.0005219597951509058,0.16451027989387512,-1.0,91,16.006,0,8,False,,,,0,0,3,10,0.027350546792149544,9,28.497,,39.9526378,,-113.4759759,False,0.5415490460000001,28.498,,38.89796701195235,,-77.03647457695529,0.001,,39.9526379,,-113.475976,-0.0008683440391905606,-0.00777473347261548,0.015954842790961266,-1,RTL,,,,,,ACTIVE,3.629166603088379,0.0,-0.02,0.0,12,1,15,0,17760384,128,2
1733424233.9403248,0.0,True,static_gps_spoofer,-0.0033342938404530287,-0.0002654569107107818,0.1648959517478943,-1.0,91,16.006,0,8,False,,,,0,0,3,10,0.028661511838436127,9,28.497,,39.9526378,,-113.4759759,False,0.6439856649958529,28.498,,38.89811936639281,,-77.03655495661391,0.0,,39.9526379,,-113.475976,-0.0006950297974981368,-0.00745078269392252,0.01627735234797001,-1,RTL,,,,,,ACTIVE,1733424230.3111582,0.0,-0.02,0.0,12,1,15,0,17760384,128,2
1733424234.0422275,0.0,True,static_gps_spoofer,-0.0035643053706735373,4.8176952986977994e-05,0.16516730189323425,-1.0,91,16.0,0,8,False,,,,0,0,3,10,0.028571804985404015,9,28.497,,39.9526378,,-113.4759759,False,0.7467852660047356,28.498,,38.89801578180466,,-77.03656293365765,0.0,,39.9526379,,-113.475976,-0.0007034180453047156,-0.0071800751611590385,0.017019599676132202,-1,RTL,,,,,,ACTIVE,3.731069326400757,0.0,-0.02,0.0,12,1,15,0,17760384,128,2
1733424234.14849,0.0,True,static_gps_spoofer,-0.003802360501140356,0.00012426404282450676,0.16554461419582367,-1.0,91,16.0,0,8,False,,,,0,0,3,10,0.028782282024621964,9,28.497,,39.9526378,,-113.4759759,False,0.8527823839976918,28.498,,38.89786155773935,,-77.03670989473137,0.001,,39.9526379,,-113.475976,-0.0008078163373284042,-0.007005755789577961,0.01775505021214485,-1,RTL,,,,,,ACTIVE,1733424230.4174206,0.0,-0.02,0.0,12,1,15,0,17760384,128,2
1733424234.250535,0.0,True,static_gps_spoofer,-0.004202618263661861,7.101836672518402e-05,0.16566245257854462,-1.0,91,16.0,0,8,False,,,,0,0,3,10,0.028782282024621964,9,28.497,,39.9526378,,-113.4759759,False,0.9524188740033424,28.498,,38.89791601204548,,-77.03641475798274,0.001,,39.9526379,,-113.475976,-0.0010275176027789712,-0.0070390342734754086,0.018580393865704536,-1,RTL,,,,,,ACTIVE,3.8331143856048584,0.01,-0.02,0.0,12,1,15,0,17760384,128,2
1733424234.3509684,0.0,True,static_gps_spoofer,-0.0043237460777163506,0.00011915414506802335,0.16587913036346436,-1.0,91,15.994,0,8,False,,,,0,0,3,10,0.029406113550066948,9,28.497,,39.9526378,,-113.4759759,False,1.0546424710046267,28.498,,38.897938242036425,,-77.03656157664624,0.001,,39.9526379,,-113.475976,-0.0012702542589977384,-0.007309622596949339,0.019289620220661163,-1,RTL,,,,,,ACTIVE,1733424230.517854,0.01,-0.02,0.0,12,1,15,0,17760384,128,2
1733424234.4559643,0.0,True,static_gps_spoofer,-0.004377496428787708,6.719097291352227e-05,0.1659259796142578,-1.0,91,15.991,0,8,False,,,,0,0,3,10,0.030590873211622238,9,28.497,,39.9526378,,-113.4759759,False,0.07218753699271474,28.498,,38.897839680280285,,-77.03659240388414,0.001,,39.9526379,,-113.475976,-0.00130316277500242,-0.007972107268869877,0.020154515281319618,-1,RTL,,,,,,ACTIVE,3.9381103515625,0.01,-0.02,0.0,12,1,15,0,17760384,128,2
1733424234.5548794,0.0,True,static_gps_spoofer,-0.004115940071642399,0.0003804244624916464,0.1660337597131729,-1.0,90,15.988,0,8,False,,,,0,0,3,10,0.030801190063357353,9,28.497,,39.9526378,,-113.4759759,False,0.0638156990025891,28.498,,38.89800353793178,,-77.03640034911713,0.001,,39.9526379,,-113.475976,-0.0011633082758635283,-0.008307669311761856,0.020709484815597534,-1,RTL,,,,,,ACTIVE,1733424230.616769,0.01,-0.02,0.0,12,1,15,0,17760384,128,2
1733424234.6544676,0.0,True,static_gps_spoofer,-0.003995558246970177,0.00034725721343420446,0.16635119915008545,-1.0,90,15.988,0,8,False,,,,0,0,3,10,0.031241154298186302,9,28.497,,39.9526378,,-113.4759759,False,0.16114749800181016,28.498,,38.897880628752205,,-77.03658408737807,0.001,,39.9526379,,-113.475976,-0.0009014559327624738,-0.008481549099087715,0.021141916513442993,-1,RTL,,,,,,ACTIVE,4.03769850730896,0.01,-0.02,0.0,12,1,15,0,17760384,128,2
1733424234.756131,0.0,True,static_gps_spoofer,-0.0040067145600914955,0.00031004019547253847,0.16674849390983582,-1.0,90,15.982,0,8,False,,,,0,0,3,10,0.031686145812273026,9,28.497,,39.9526378,,-113.4759759,False,0.2632166350085754,28.497,,38.897689671455936,,-77.03652877837484,0.0,,39.9526379,,-113.4759761,-0.00053110794397071,-0.008801321499049664,0.021551309153437614,-1,RTL,,,,,,ACTIVE,1733424230.7184324,0.01,-0.02,0.0,12,1,15,0,17760384,128,2
1733424234.8594806,0.0,True,static_gps_spoofer,-0.004030159208923578,0.000391085835872218,0.16725799441337585,-1.0,90,15.982,0,8,False,,,,0,0,3,10,0.02986893802881241,9,28.497,,39.9526378,,-113.4759759,False,0.36623029100883286,28.497,,38.897961202385524,,-77.0365577821733,0.0,,39.9526379,,-113.4759761,-0.0003883203025907278,-0.008960217237472534,0.021850207820534706,-1,RTL,,,,,,ACTIVE,4.141048192977905,0.01,-0.02,0.0,12,1,15,0,17760384,128,2
1733424234.9603288,0.0,True,static_gps_spoofer,-0.003801685990765691,0.00035344064235687256,0.1678297370672226,-1.0,90,15.976,0,8,False,,,,0,0,3,10,0.029014069586992264,9,28.497,,39.9526378,,-113.4759759,False,0.46820590599963907,28.497,,38.898023939377744,,-77.03661988323428,0.0,,39.9526379,,-113.4759761,-0.0002356564800720662,-0.0091724107041955,0.022087160497903824,-1,RTL,,,,,,ACTIVE,1733424230.8192806,0.01,-0.02,0.0,12,1,15,0,17760384,128,2
1733424235.0603147,0.0,True,static_gps_spoofer,-0.0037424801848828793,0.0005318821640685201,0.1682463139295578,-1.0,90,15.976,0,8,False,,,,0,0,3,10,0.028841491788625717,9,28.497,,39.9526378,,-113.4759759,False,0.5684940189967165,28.497,,38.897967900657775,,-77.03661315954584,0.0,,39.9526379,,-113.4759761,-0.0002581113949418068,-0.009301284328103065,0.02225952036678791,-1,RTL,,,,,,ACTIVE,4.241034030914307,0.01,-0.02,0.0,12,1,15,0,17760384,128,2
1733424235.1609483,0.0,True,static_gps_spoofer,-0.0038123680278658867,0.000316449673846364,0.16862860321998596,-1.0,90,15.976,0,8,False,,,,0,0,3,10,0.029233859851956367,9,28.497,,39.9526378,,-113.4759759,False,0.6665871330042137,28.498,,38.897875161118925,,-77.03635160710593,0.0,,39.952638,,-113.4759761,-0.0005579447606578469,-0.009326070547103882,0.022515317425131798,-1,RTL,,,,,,ACTIVE,1733424230.9199142,0.01,-0.02,0.0,12,1,15,0,17760384,128,2
1733424235.261554,0.0,True,static_gps_spoofer,-0.003825168125331402,0.00029909168370068073,0.16873198747634888,-1.0,89,15.97,0,8,False,,,,0,0,3,10,0.02608112245798111,9,28.497,,39.9526378,,-113.4759759,False,0.764860431998386,28.498,,38.898005168133245,,-77.0364621258582,0.001,,39.952638,,-113.4759761,-0.0007780271116644144,-0.009104506112635136,0.02273453213274479,-1,RTL,,,,,,ACTIVE,4.341639757156372,0.01,-0.02,0.0,12,1,15,0,17760384,128,2
1733424235.361267,0.0,True,static_gps_spoofer,-0.0035275686532258987,0.0002775904431473464,0.16874167323112488,-1.0,89,15.97,0,8,False,,,,0,0,3,10,0.025946756824851036,9,28.497,,39.9526378,,-113.4759759,False,0.8665281849971507,28.498,,38.89798791135006,,-77.03668867585516,0.0,,39.952638,,-113.4759761,-0.0006833791849203408,-0.008880226872861385,0.02286858856678009,-1,RTL,,,,,,ACTIVE,1733424231.0196273,0.01,-0.02,0.0,12,1,15,0,17760384,128,2
1733424235.4613616,0.0,True,static_gps_spoofer,-0.0034375032410025597,0.0005285266088321805,0.16867776215076447,-1.0,89,15.964,0,8,False,,,,0,0,3,10,0.026161890476942062,9,28.497,,39.9526378,,-113.4759759,False,0.9682908240065444,28.497,,38.897988164498116,,-77.036427771218,0.0,,39.952638,,-113.4759761,-0.00023939022503327578,-0.008711500093340874,0.02289830893278122,-1,RTL,,,,,,ACTIVE,4.441734313964844,0.01,-0.02,0.0,12,1,15,0,17760384,128,2
1733424235.5623834,0.0,True,static_gps_spoofer,-0.0032637722324579954,0.00050956109771505,0.16879993677139282,-1.0,89,15.961,0,8,False,,,,0,0,3,10,0.026089221239089966,9,28.497,,39.9526378,,-113.4759759,False,0.023042629996780306,28.497,,38.89792452748908,,-77.0363919535386,0.0,,39.952638,,-113.475976,0.00032611098140478134,-0.008483494631946087,0.022868402302265167,-1,RTL,,,,,,ACTIVE,1733424231.120649,0.01,-0.02,0.0,12,1,15,0,17760384,128,2
1733424235.6642988,0.0,True,static_gps_spoofer,-0.0032213889062404633,0.0006093009724281728,0.16886994242668152,-1.0,89,15.958,0,8,False,,,,0,0,3,10,0.025037502869963646,9,28.497,,39.9526378,,-113.4759759,False,0.018639236004673876,28.496,,38.897827104115706,,-77.03662702952288,0.0,,39.952638,,-113.475976,0.000754490785766393,-0.008127957582473755,0.022655058652162552,-1,RTL,,,,,,ACTIVE,4.543649673461914,0.01,-0.02,0.0,12,1,15,0,17760384,128,2
1733424235.7634184,0.0,True,static_gps_spoofer,-0.0032655540853738785,0.0005754529847763479,0.16921742260456085,-1.0,89,15.958,0,8,False,,,,0,0,3,10,0.02300393581390381,9,28.497,,39.9526378,,-113.4759759,False,0.12134472299658228,28.496,,38.897886069929314,,-77.03644898573127,0.0,,39.952638,,-113.475976,0.0010405697394162416,-0.0076743122190237045,0.0225151926279068,-1,RTL,,,,,,ACTIVE,1733424231.2197688,0.01,-0.01,0.0,12,1,15,0,17760384,128,2
1733424235.8716867,0.0,True,static_gps_spoofer,-0.0031099491752684116,0.0004203893186058849,0.16932646930217743,-1.0,88,15.952,0,8,False,,,,0,0,3,10,0.02168847993016243,9,28.497,,39.9526378,,-113.4759759,False,0.23026350799773354,28.496,,38.89796136441775,,-77.03665840169349,0.0,,39.952638,,-113.475976,0.0011543104192242026,-0.007226454559713602,0.0224870927631855,-1,RTL,,,,,,ACTIVE,4.651917934417725,0.01,-0.01,0.0,12,1,15,0,17760384,128,2
1733424235.9740665,0.0,True,static_gps_spoofer,-0.0034169380087405443,0.0008404426625929773,0.16966919600963593,-1.0,88,15.952,0,8,False,,,,0,0,3,10,0.022294389083981514,9,28.497,,39.9526378,,-113.4759759,False,0.33281346199510153,28.496,,38.89802789198553,,-77.0366400036397,0.0,,39.952638,,-113.475976,0.0012300902744755149,-0.006880626082420349,0.022345563396811485,-1,RTL,,,,,,ACTIVE,1733424231.3221486,0.01,-0.01,0.0,12,1,15,0,17760384,128,2
1733424236.0749195,0.0,True,static_gps_spoofer,-0.0037266756407916546,0.0004894108860753477,0.16984334588050842,-1.0,88,15.952,0,8,False,,,,0,0,3,10,0.022294389083981514,9,28.497,,39.9526378,,-113.4759759,False,0.4333853169955546,28.496,,38.89788184740324,,-77.03662449365167,0.0,,39.952638,,-113.475976,0.001267096376977861,-0.006817718967795372,0.02228151448071003,-1,RTL,,,,,,ACTIVE,4.752770900726318,0.01,-0.01,0.0,12,1,15,0,17760384,128,2
1733424236.1798682,0.0,True,static_gps_spoofer,-0.003767410758882761,0.0002923609863501042,0.16985656321048737,-1.0,88,15.946,0,8,False,,,,0,0,3,10,0.021647697314620018,9,28.497,,39.9526378,,-113.4759759,False,0.5393591500032926,28.496,,38.89790623559909,,-77.03663655255623,0.0,,39.9526379,,-113.475976,0.001139478525146842,-0.006750019267201424,0.022004783153533936,-1,RTL,,,,,,ACTIVE,1733424231.4270973,0.0,-0.02,0.0,12,1,15,0,17760384,128,2
1733424236.2795377,0.0,True,static_gps_spoofer,-0.0036622490733861923,0.0004140131059102714,0.1695362627506256,-1.0,88,15.946,0,8,False,,,,0,0,3,10,0.02254239283502102,9,28.497,,39.9526378,,-113.4759759,False,0.6383124370040605,28.496,,38.8979405579894,,-77.0365117938127,0.0,,39.9526379,,-113.475976,0.000994278583675623,-0.006889062002301216,0.021622812375426292,-1,RTL,,,,,,ACTIVE,4.852440357208252,0.0,-0.02,0.0,12,1,15,0,17760384,128,2
1733424236.3804681,0.0,True,static_gps_spoofer,-0.00391753064468503,0.0003165612870361656,0.16945306956768036,-1.0,88,15.94,0,8,False,,,,0,0,3,10,0.022704336792230606,9,28.497,,39.9526378,,-113.4759759,False,0.7399520250037313,28.496,,38.897918360094295,,-77.03669950131777,0.0,,39.9526379,,-113.475976,0.0008120943675749004,-0.007182240951806307,0.02138744480907917,-1,RTL,,,,,,ACTIVE,1733424231.5280278,0.0,-0.02,0.0,12,1,15,0,17760384,128,2
1733424236.4805882,0.0,True,static_gps_spoofer,-0.00388015853241086,0.00033086189068853855,0.16955649852752686,-1.0,88,15.94,0,8,False,,,,0,0,3,10,0.02319013513624668,9,28.497,,39.9526378,,-113.4759759,False,0.8400827510049567,28.496,,38.89805406775,,-77.03655366811408,0.0,,39.9526379,,-113.475976,0.0006472575478255749,-0.007546395994722843,0.021311601623892784,-1,RTL,,,,,,ACTIVE,4.9525604248046875,0.0,-0.02,0.0,12,1,15,0,17760384,128,2
1733424236.5796745,0.0,True,static_gps_spoofer,-0.004007009323686361,0.0001380305620841682,0.16970422863960266,-1.0,88,15.94,0,8,False,,,,0,0,3,10,0.02319013513624668,9,28.497,,39.9526378,,-113.4759759,False,0.9371521220018622,28.497,,38.89818153709776,,-77.03651413321586,0.0,,39.9526379,,-113.475976,0.00041641161078587174,-0.00786548387259245,0.02131810039281845,-1,RTL,,,,,,ACTIVE,1733424231.627114,0.0,-0.02,0.0,12,1,15,0,17760384,128,2
1733424236.6803038,0.0,True,static_gps_spoofer,-0.003980862908065319,0.0003186018147971481,0.16973945498466492,-1.0,87,15.934,0,8,False,,,,0,0,3,10,0.025077639147639275,9,28.497,,39.9526378,,-113.4759759,False,1.0239477489958517,28.497,,38.8981972759922,,-77.03650068824629,0.0,,39.9526379,,-113.475976,2.060151018667966e-07,-0.008390571922063828,0.021289385855197906,-1,RTL,,,,,,ACTIVE,5.053189754486084,0.01,-0.02,0.0,12,1,15,0,17760384,128,2
1733424236.7845528,0.0,True,static_gps_spoofer,-0.004119895398616791,0.0005274104769341648,0.16988086700439453,-1.0,87,15.931,0,8,False,,,,0,0,3,10,0.026080887764692307,9,28.497,,39.9526378,,-113.4759759,False,0.01689949500723742,28.497,,38.897890735478136,,-77.03635956080336,0.0,,39.9526379,,-113.4759761,-0.00032223667949438095,-0.008790696039795876,0.02131071127951145,-1,RTL,,,,,,ACTIVE,1733424231.731363,0.01,-0.02,0.0,12,1,15,0,17760384,128,2
1733424236.9060864,0.0,True,static_gps_spoofer,-0.004180701449513435,0.0004188964667264372,0.1701582819223404,-1.0,87,15.928,0,8,False,,,,0,0,3,10,0.027038665488362312,9,28.497,,39.9526378,,-113.4759759,False,0.024265870000817813,28.498,,38.89801141891343,,-77.03672504664297,0.001,,39.9526379,,-113.4759761,-0.0009715293417684734,-0.00956413522362709,0.021786317229270935,-1,RTL,,,,,,ACTIVE,5.174723386764526,0.01,-0.02,0.0,12,1,15,0,17760384,128,2
1733424237.0139813,0.0,True,static_gps_spoofer,-0.0037949695251882076,0.00033430024632252753,0.17058835923671722,-1.0,87,15.928,0,8,False,,,,0,0,3,10,0.02842315286397934,9,28.497,,39.9526378,,-113.4759759,False,0.13139640100416727,28.498,,38.897986830997176,,-77.03670233767613,0.001,,39.952638,,-113.4759761,-0.0015883161686360836,-0.01025224756449461,0.022510379552841187,-1,RTL,,,,,,ACTIVE,1733424231.839258,0.01,-0.02,0.0,12,1,15,0,17760384,128,2
1733424237.114143,0.0,True,static_gps_spoofer,-0.0038382811471819878,0.0008131900103762746,0.17086240649223328,-1.0,87,15.928,0,8,False,,,,0,0,3,10,0.028345612809062004,9,28.497,,39.9526378,,-113.4759759,False,0.2279107810027199,28.499,,38.898028436074384,,-77.03671156169793,0.002,,39.952638,,-113.4759761,-0.0022514578886330128,-0.011012268252670765,0.023181093856692314,-1,RTL,,,,,,ACTIVE,5.274884939193726,0.01,-0.02,0.0,12,1,15,0,17760384,128,2
1733424237.215164,0.0,True,static_gps_spoofer,-0.0036615540739148855,0.000988517887890339,0.17083115875720978,-1.0,87,15.922,0,8,False,,,,0,0,3,10,0.02844398468732834,9,28.497,,39.9526378,,-113.4759759,False,0.3286949120083591,28.5,,38.8978932899388,,-77.03648152536803,0.003,,39.952638,,-113.4759761,-0.002924583852291107,-0.011734050698578358,0.02383328042924404,-1,RTL,,,,,,ACTIVE,1733424231.940279,0.01,-0.02,0.0,12,1,15,0,17760384,128,2
1733424237.3152893,0.0,True,static_gps_spoofer,-0.003608468221500516,0.000981376157142222,0.17087391018867493,-1.0,87,15.922,0,8,False,,,,0,0,3,10,0.027426939457654953,9,28.497,,39.9526378,,-113.4759759,False,0.4323556860035751,28.5,,38.89818556500123,,-77.03653378959001,0.003,,39.952638,,-113.4759761,-0.003532490925863385,-0.012317076325416565,0.024356279522180557,-1,RTL,,,,,,ACTIVE,5.375010251998901,0.01,-0.02,0.0,12,1,15,0,17760384,128,2
1733424237.4160159,0.0,True,static_gps_spoofer,-0.0036976663395762444,0.0008247606456279755,0.1709066480398178,-1.0,86,15.916,0,8,False,,,,0,0,3,10,0.026256082579493523,9,28.497,,39.9526378,,-113.4759759,False,0.5337115529982839,28.501,,38.89784077491508,,-77.03653989649476,0.004,,39.952638,,-113.4759761,-0.004170078784227371,-0.0126775112003088,0.024757521227002144,-1,RTL,,,,,,ACTIVE,1733424232.0410056,0.01,-0.02,0.0,12,1,15,0,17760384,128,2
1733424237.517589,0.0,True,static_gps_spoofer,-0.0036763171665370464,0.000873012759257108,0.17110462486743927,-1.0,86,15.916,0,8,False,,,,0,0,3,10,0.02523788996040821,9,28.497,,39.9526378,,-113.4759759,False,0.636254123004619,28.502,,38.898004199601004,,-77.03647490308931,0.005,,39.952638,,-113.4759761,-0.004785454832017422,-0.012752363458275795,0.024916497990489006,-1,RTL,,,,,,ACTIVE,5.476583480834961,0.01,-0.02,0.0,12,1,15,0,17760384,128,2
1733424237.6199288,0.0,True,static_gps_spoofer,-0.003691085148602724,0.000972893787547946,0.17106769979000092,-1.0,86,15.916,0,8,False,,,,0,0,3,10,0.02523788996040821,9,28.497,,39.9526378,,-113.4759759,False,0.7344729750038823,28.502,,38.897948521346066,,-77.03668779959162,0.005,,39.952638,,-113.4759761,-0.005422343034297228,-0.012851626612246037,0.024902502074837685,-1,RTL,,,,,,ACTIVE,1733424232.1433454,0.01,-0.02,0.0,12,1,15,0,17760384,128,2
1733424237.7210479,0.0,True,static_gps_spoofer,-0.003661572700366378,0.0012399796396493912,0.17114974558353424,-1.0,86,15.91,0,8,False,,,,0,0,3,10,0.02541518770158291,9,28.497,,39.9526378,,-113.4759759,False,0.838681629000348,28.503,,38.898064708969365,,-77.03641538023959,0.006,,39.952638,,-113.4759761,-0.006062934175133705,-0.012909671291708946,0.024742281064391136,-1,RTL,,,,,,ACTIVE,5.577702522277832,0.01,-0.02,0.0,12,1,15,0,17760384,128,2
1733424237.8223443,0.0,True,static_gps_spoofer,-0.00347153190523386,0.0012912412639707327,0.170970618724823,-1.0,86,15.91,0,8,False,,,,0,0,3,10,0.02404569834470749,9,28.497,,39.9526378,,-113.4759759,False,0.9374064690055093,28.504,,38.89796294657269,,-77.03653620471427,0.006,,39.952638,,-113.4759761,-0.006649498362094164,-0.012847776524722576,0.024587051942944527,-1,RTL,,,,,,ACTIVE,1733424232.2446418,0.0,-0.02,0.0,12,1,15,0,17760384,128,2
1733424237.9245522,0.0,True,static_gps_spoofer,-0.0032889540307223797,0.0013183894334360957,0.17136505246162415,-1.0,86,15.904,0,8,False,,,,0,0,3,10,0.02248099260032177,9,28.497,,39.9526378,,-113.4759759,False,1.0413631900009932,28.504,,38.89785152198278,,-77.03649550730711,0.007,,39.952638,,-113.4759761,-0.007395103573799133,-0.012622238136827946,0.024504363536834717,-1,RTL,,,,,,ACTIVE,5.67991042137146,0.0,-0.02,0.0,12,1,15,0,17760384,128,2
1733424238.0249162,0.0,True,static_gps_spoofer,-0.00336092384532094,0.0014846156118437648,0.1716165393590927,-1.0,86,15.904,0,8,False,,,,0,0,3,10,0.020873764529824257,9,28.497,,39.9526378,,-113.4759759,False,1.1425121119973483,28.505,,38.897953618019386,,-77.03658258154091,0.008,,39.952638,,-113.4759761,-0.008167902939021587,-0.01203351840376854,0.024472996592521667,-1,RTL,,,,,,ACTIVE,1733424232.3450058,0.0,-0.01,0.0,12,1,15,0,17760384,128,2
1733424238.12766,0.0,True,static_gps_spoofer,-0.003159015206620097,0.0013397339498624206,0.17164738476276398,-1.0,86,15.901,0,8,False,,,,0,0,3,10,0.020714715123176575,9,28.497,,39.9526378,,-113.4759759,False,0.09802605900040362,28.506,,38.897708514821254,,-77.03635849890686,0.008,,39.952638,,-113.4759761,-0.00865752063691616,-0.011274338699877262,0.02427060529589653,-1,RTL,,,,,,ACTIVE,5.782654285430908,0.0,-0.01,0.0,12,1,15,0,17760384,128,2
