timestamp,airspeed,armed,attack_type,attitude.pitch,attitude.roll,attitude.yaw,battery.current,battery.level,battery.voltage,commands.count,commands.next,companion_computer.cpu_temp,companion_computer.cpu_usage,companion_computer.ram_usage,ekf_ok,gimbal.pitch,gimbal.roll,gimbal.yaw,gps_0.eph,gps_0.epv,gps_0.fix_type,gps_0.satellites_visible,groundspeed,heading,home_location.alt,home_location.global_frame,home_location.lat,home_location.local_frame,home_location.lon,is_armable,last_heartbeat,location.global_frame.alt,location.global_frame.global_frame,location.global_frame.lat,location.global_frame.local_frame,location.global_frame.lon,location.global_relative_frame.alt,location.global_relative_frame.global_frame,location.global_relative_frame.lat,location.global_relative_frame.local_frame,location.global_relative_frame.lon,location.local_frame.down,location.local_frame.east,location.local_frame.north,ml_verdict,mode.name,mount_status[0],mount_status[1],mount_status[2],rangefinder.distance,rangefinder.voltage,system_status.state,timedelta,velocity[0],velocity[1],velocity[2],version.autopilot_type,version.major,version.minor,version.patch,version.raw_version,version.release,version.vehicle_type
1733609187.390545,0.0,True,benign,-0.0091980574652552,-0.0206746347248554,3.073096990585327,3.26,79,16.127,0,0,,27.9,71.8,False,,,,84,135,4,17,0.0490313693881034,175,80.555,,39.142395,,-76.7304815,False,0.0191541660000211,81.145,,39.1423948,,-76.7304808,0.026,,39.1423948,,-76.7304808,8.364935874938965,7.0980987548828125,-21.36360740661621,unknown,POSCTL,,,,9,,ACTIVE,0.0,0.01,0.04,-0.17,12,1,15,2,17760768,0,13
1733609188.4048374,0.0,True,benign,-0.0087132221087813,-0.0171379670500755,3.0753304958343506,3.57,78,16.092,0,0,,11.8,71.8,False,,,,84,135,4,16,0.0304566584527492,176,81.118,,39.142395,,-76.7304809,False,0.0306657219999806,81.181,,39.1423945,,-76.7304808,0.062,,39.1423945,,-76.7304808,8.32996940612793,7.106895446777344,-21.398792266845703,unknown,POSCTL,,,,9,,ACTIVE,1733609188.4048374,0.02,0.03,-0.18,12,1,15,2,17760768,0,13
1733609188.5044632,0.0,True,benign,-0.0087842792272567,-0.0168404150754213,3.075721979141236,3.57,78,16.092,0,0,,14.3,71.8,False,,,,84,135,4,16,0.0208934787660837,176,81.118,,39.142395,,-76.7304809,False,0.1293873150000308,81.186,,39.1423945,,-76.7304807,0.067,,39.1423945,,-76.7304807,8.324910163879395,7.107613563537598,-21.4007511138916,unknown,POSCTL,,,,9,,ACTIVE,0.099625825881958,0.02,0.02,-0.18,12,1,15,2,17760768,0,13
1733609188.6045823,0.0,True,benign,-0.0085474699735641,-0.0161083377897739,3.076392889022827,3.57,78,16.092,0,0,,11.9,71.8,False,,,,84,135,4,16,0.0208934787660837,176,81.118,,39.142395,,-76.7304809,False,0.2230442960000118,81.19,,39.1423945,,-76.7304807,0.071,,39.1423945,,-76.7304807,8.324910163879395,7.107613563537598,-21.4007511138916,unknown,POSCTL,,,,9,,ACTIVE,1733609188.5049565,0.03,0.02,-0.17,12,1,15,2,17760768,0,13
1733609188.7047763,0.0,True,benign,-0.00769745092839,-0.015624857507646,3.076385974884033,3.57,78,16.092,0,0,,10.7,71.8,False,,,,84,135,4,16,0.0208934787660837,176,81.118,,39.142395,,-76.7304809,False,0.3289400740000019,81.192,,39.1423945,,-76.7304807,0.073,,39.1423945,,-76.7304807,8.319700241088867,7.1074748039245605,-21.401227951049805,unknown,POSCTL,,,,9,,ACTIVE,0.199819803237915,0.03,0.0,-0.16,12,1,15,2,17760768,0,13
1733609188.8050642,0.0,True,benign,-0.0075140832923352,-0.015910368412733,3.0768814086914062,3.61,77,16.056,0,0,,15.5,71.8,False,,,,84,135,4,16,0.0376097485423088,176,81.118,,39.142395,,-76.7304809,False,0.4184492959999488,81.195,,39.1423945,,-76.7304808,0.076,,39.1423945,,-76.7304808,8.317727088928223,7.106616497039795,-21.400697708129883,unknown,POSCTL,,,,9,,ACTIVE,1733609188.6052444,0.03,-0.01,-0.17,12,1,15,2,17760768,0,13
1733609188.905892,0.0,True,benign,-0.0073495074175298,-0.0153719764202833,3.0774893760681152,3.61,77,16.056,0,0,,15.3,71.9,False,,,,84,135,4,16,0.0376097485423088,176,81.118,,39.142395,,-76.7304809,False,0.5314471289999574,81.197,,39.1423945,,-76.7304808,0.078,,39.1423945,,-76.7304808,8.314353942871094,7.105128765106201,-21.40066337585449,unknown,POSCTL,,,,9,,ACTIVE,0.3006477355957031,0.03,-0.02,-0.16,12,1,15,2,17760768,0,13
1733609189.005492,0.0,True,benign,-0.0072791050188243,-0.0150184454396367,3.077552795410156,3.61,77,16.056,0,0,,20.8,71.9,False,,,,84,135,4,16,0.0376097485423088,176,81.118,,39.142395,,-76.7304809,False,0.6192755739999711,81.201,,39.1423945,,-76.7304808,0.082,,39.1423945,,-76.7304808,8.310311317443848,7.105242729187012,-21.4001407623291,unknown,POSCTL,,,,9,,ACTIVE,1733609188.7048442,0.04,-0.01,-0.16,12,1,15,2,17760768,0,13
1733609189.105608,0.0,True,benign,-0.0083005540072917,-0.0150975519791245,3.0777459144592285,3.61,77,16.056,0,0,,9.5,71.8,False,,,,84,135,4,16,0.0376097485423088,176,81.118,,39.142395,,-76.7304809,False,0.727328813999975,81.204,,39.1423945,,-76.7304808,0.086,,39.1423945,,-76.7304808,8.305431365966797,7.104766845703125,-21.4000244140625,unknown,POSCTL,,,,9,,ACTIVE,0.4007637500762939,0.03,-0.03,-0.16,12,1,15,2,17760768,0,13
1733609189.2057772,0.0,True,benign,-0.0070292758755385,-0.0145272323861718,3.077969074249268,3.61,77,16.056,0,0,,10.6,71.8,False,,,,84,135,4,16,0.032839611172676,176,81.118,,39.142395,,-76.7304809,False,0.8260696480000433,81.209,,39.1423945,,-76.7304808,0.09,,39.1423945,,-76.7304808,8.302452087402344,7.103817939758301,-21.40190887451172,unknown,POSCTL,,,,9,,ACTIVE,1733609188.8050134,0.02,-0.04,-0.16,12,1,15,2,17760768,0,13
1733609189.3068671,0.0,True,benign,-0.0082527007907629,-0.0141587732359766,3.0777406692504883,3.61,77,16.056,0,0,,10.6,71.8,False,,,,84,135,4,16,0.032839611172676,176,81.118,,39.142395,,-76.7304809,False,0.9322747590000516,81.208,,39.1423945,,-76.7304808,0.09,,39.1423945,,-76.7304808,8.302319526672363,7.102174758911133,-21.40723991394043,unknown,POSCTL,,,,9,,ACTIVE,0.5018537044525146,0.01,-0.03,-0.15,12,1,15,2,17760768,0,13
1733609189.4064448,0.0,True,benign,-0.0074370936490595,-0.0143410125747323,3.0787582397460938,3.61,77,16.056,0,0,,6.0,71.8,False,,,,84,135,4,16,0.032839611172676,176,81.118,,39.142395,,-76.7304809,False,0.0345370920000505,81.209,,39.1423944,,-76.7304808,0.091,,39.1423944,,-76.7304808,8.302319526672363,7.102174758911133,-21.40723991394043,unknown,POSCTL,,,,9,,ACTIVE,1733609188.904591,0.01,-0.05,-0.15,12,1,15,2,17760768,0,13
1733609189.5075507,0.0,True,benign,-0.0078553389757871,-0.0139238750562071,3.078439950942993,3.48,76,16.043,0,0,,1.2,71.8,False,,,,84,135,4,16,0.042870670557022,176,81.118,,39.142395,,-76.7304809,False,0.1358208330000252,81.212,,39.1423944,,-76.7304808,0.094,,39.1423944,,-76.7304808,8.300702095031738,7.100275039672852,-21.41025161743164,unknown,POSCTL,,,,9,,ACTIVE,0.6029596328735352,0.01,-0.04,-0.15,12,1,15,2,17760768,0,13
1733609189.606716,0.0,True,benign,-0.0083559155464172,-0.0142070213332772,3.077714443206787,3.48,76,16.043,0,0,,5.2,71.8,False,,,,84,135,4,16,0.042870670557022,176,81.118,,39.142395,,-76.7304809,False,0.2318294620000642,81.211,,39.1423944,,-76.7304808,0.092,,39.1423944,,-76.7304808,8.299729347229004,7.099204063415527,-21.41314125061035,unknown,POSCTL,,,,9,,ACTIVE,1733609189.0037563,0.01,-0.05,-0.13,12,1,15,2,17760768,0,13
1733609189.7069943,0.0,True,benign,-0.0083412481471896,-0.0138913076370954,3.077819585800171,3.48,76,16.043,0,0,,1.2,71.8,False,,,,84,135,4,16,0.042870670557022,176,81.118,,39.142395,,-76.7304809,False,0.3069702770000049,81.209,,39.1423943,,-76.7304808,0.091,,39.1423943,,-76.7304808,8.30179214477539,7.098433971405029,-21.417404174804688,unknown,POSCTL,,,,9,,ACTIVE,0.7032380104064941,0.0,-0.03,-0.14,12,1,15,2,17760768,0,13
1733609189.807186,0.0,True,benign,-0.0084452219307422,-0.013512154109776,3.078200578689575,3.48,76,16.043,0,0,,2.1,71.8,False,,,,84,135,4,16,0.0496208518743515,176,81.118,,39.142395,,-76.7304809,False,0.4322931840000592,81.205,,39.1423943,,-76.7304808,0.086,,39.1423943,,-76.7304808,8.307355880737305,7.099738597869873,-21.42161750793457,unknown,POSCTL,,,,9,,ACTIVE,1733609189.103948,0.01,-0.04,-0.14,12,1,15,2,17760768,0,13
1733609189.9074228,0.0,True,benign,-0.0084245819598436,-0.0134094897657632,3.078129768371582,3.48,76,16.043,0,0,,1.2,71.8,False,,,,84,135,4,16,0.0496208518743515,176,81.118,,39.142395,,-76.7304809,False,0.513726555000062,81.202,,39.1423943,,-76.7304808,0.083,,39.1423943,,-76.7304808,8.309897422790527,7.101489067077637,-21.42512321472168,unknown,POSCTL,,,,9,,ACTIVE,0.8034749031066895,0.0,-0.03,-0.14,12,1,15,2,17760768,0,13
1733609190.0075245,0.0,True,benign,-0.007902911864221,-0.0130494842305779,3.078252077102661,3.48,76,16.043,0,0,,0.0,71.8,False,,,,84,135,4,16,0.0496208518743515,176,81.118,,39.142395,,-76.7304809,False,0.6341536659999747,81.204,,39.1423943,,-76.7304808,0.085,,39.1423943,,-76.7304808,8.30626106262207,7.100989818572998,-21.426633834838867,unknown,POSCTL,,,,9,,ACTIVE,1733609189.204049,0.01,-0.06,-0.14,12,1,15,2,17760768,0,13
1733609190.1077466,0.0,True,benign,-0.0082087172195315,-0.0129710528999567,3.078834056854248,3.48,76,16.043,0,0,,1.0,71.8,False,,,,84,135,4,16,0.0496208518743515,176,81.118,,39.142395,,-76.7304809,False,0.7303841469999952,81.204,,39.1423942,,-76.7304808,0.086,,39.1423942,,-76.7304808,8.30808162689209,7.100656032562256,-21.4299259185791,unknown,POSCTL,,,,9,,ACTIVE,0.9036972522735596,0.0,-0.04,-0.14,12,1,15,2,17760768,0,13
1733609190.2089927,0.0,True,benign,-0.007813025265932,-0.0125705804675817,3.0794577598571777,3.5,76,16.035,0,0,,0.0,71.8,False,,,,84,135,4,16,0.083159327507019,176,81.118,,39.142395,,-76.7304809,False,0.8372885730000235,81.204,,39.1423942,,-76.7304808,0.085,,39.1423942,,-76.7304808,8.30808162689209,7.100656032562256,-21.4299259185791,unknown,POSCTL,,,,9,,ACTIVE,1733609189.3052957,0.0,-0.08,-0.14,12,1,15,2,17760768,0,13
1733609190.3080497,0.0,True,benign,-0.0073782382532954,-0.0122357411310076,3.079824209213257,3.5,76,16.035,0,0,,13.5,71.8,False,,,,84,135,4,16,0.083159327507019,176,81.118,,39.142395,,-76.7304809,False,0.9254214989999808,81.205,,39.1423942,,-76.7304809,0.087,,39.1423942,,-76.7304809,8.305737495422363,7.09836483001709,-21.43259048461914,unknown,POSCTL,,,,9,,ACTIVE,1.0027542114257812,0.01,-0.06,-0.16,12,1,15,2,17760768,0,13
1733609190.409232,0.0,True,benign,-0.0073501230217516,-0.0120158167555928,3.080044984817505,3.5,76,16.035,0,0,,23.5,71.8,False,,,,84,135,4,16,0.083159327507019,176,81.118,,39.142395,,-76.7304809,False,0.0403548889999001,81.207,,39.1423942,,-76.7304809,0.088,,39.1423942,,-76.7304809,8.304535865783691,7.096092700958252,-21.433988571166992,unknown,POSCTL,,,,9,,ACTIVE,1733609189.406478,0.01,-0.08,-0.16,12,1,15,2,17760768,0,13
1733609190.5091724,0.0,True,benign,-0.0072659789584577,-0.0117193413898348,3.0809695720672607,3.5,76,16.035,0,0,,39.3,71.0,False,,,,84,135,4,16,0.0859168693423271,176,81.118,,39.142395,,-76.7304809,False,0.1402979069999901,81.206,,39.1423942,,-76.7304809,0.088,,39.1423942,,-76.7304809,8.304924964904785,7.096224308013916,-21.43577003479004,unknown,POSCTL,,,,9,,ACTIVE,1.1026945114135742,0.02,-0.06,-0.17,12,1,15,2,17760768,0,13
1733609190.6085117,0.0,True,benign,-0.0071381470188498,-0.011777626350522,3.080569267272949,3.5,76,16.035,0,0,,52.3,71.5,False,,,,84,135,4,16,0.0859168693423271,176,81.118,,39.142395,,-76.7304809,False,0.2364339439999412,81.207,,39.1423942,,-76.7304808,0.088,,39.1423942,,-76.7304808,8.30395221710205,7.097583293914795,-21.43305015563965,unknown,POSCTL,,,,9,,ACTIVE,1733609189.5058172,0.02,-0.09,-0.16,12,1,15,2,17760768,0,13
1733609190.708661,0.0,True,benign,-0.0076979584991931,-0.0115906530991196,3.081228494644165,3.5,76,16.035,0,0,,59.5,71.4,False,,,,84,135,4,16,0.0859168693423271,176,81.118,,39.142395,,-76.7304809,False,0.3204536289999851,81.211,,39.1423942,,-76.7304808,0.092,,39.1423942,,-76.7304808,8.30074691772461,7.097954750061035,-21.43277931213379,unknown,POSCTL,,,,9,,ACTIVE,1.2028439044952393,0.03,-0.09,-0.17,12,1,15,2,17760768,0,13
1733609190.8091288,0.0,True,benign,-0.0077776699326932,-0.0115708252415061,3.0815751552581787,3.57,75,16.019,0,0,,31.8,71.7,False,,,,84,136,4,16,0.0859168693423271,176,81.118,,39.142395,,-76.7304809,False,0.4391331109999328,81.211,,39.1423942,,-76.7304808,0.093,,39.1423942,,-76.7304808,8.298418045043945,7.100034713745117,-21.432838439941406,unknown,POSCTL,,,,9,,ACTIVE,1733609189.6062849,0.03,-0.09,-0.17,12,1,15,2,17760768,0,13
1733609190.9092782,0.0,True,benign,-0.0078160958364605,-0.0115665439516305,3.081727266311645,3.57,75,16.019,0,0,,37.6,71.9,False,,,,84,136,4,16,0.0822413265705108,176,81.118,,39.142395,,-76.7304809,False,0.5335380550000082,81.209,,39.1423942,,-76.7304808,0.091,,39.1423942,,-76.7304808,8.300515174865723,7.100344181060791,-21.433040618896484,unknown,POSCTL,,,,9,,ACTIVE,1.3029932975769043,0.04,-0.1,-0.17,12,1,15,2,17760768,0,13
1733609191.0101955,0.0,True,benign,-0.0080557828769087,-0.01095971185714,3.0822739601135254,3.57,75,16.019,0,0,,36.9,72.0,False,,,,84,136,4,16,0.0822413265705108,176,81.118,,39.142395,,-76.7304809,False,0.6413271479999594,81.214,,39.1423942,,-76.7304808,0.095,,39.1423942,,-76.7304808,8.300515174865723,7.100344181060791,-21.433040618896484,unknown,POSCTL,,,,9,,ACTIVE,1733609189.7072022,0.04,-0.07,-0.16,12,1,15,2,17760768,0,13
1733609191.109867,0.0,True,benign,-0.0075447936542332,-0.0109780244529247,3.081298351287842,3.57,75,16.019,0,0,,54.7,72.0,False,,,,84,136,4,16,0.0822413265705108,176,81.118,,39.142395,,-76.7304809,False,0.7329986849999841,81.22,,39.1423942,,-76.7304809,0.101,,39.1423942,,-76.7304809,8.29404067993164,7.096923351287842,-21.432241439819336,unknown,POSCTL,,,,9,,ACTIVE,1.4026648998260498,0.03,-0.09,-0.15,12,1,15,2,17760768,0,13
1733609191.2097538,0.0,True,benign,-0.007272454444319,-0.011115706525743,3.082832098007202,3.57,75,16.019,0,0,,52.1,72.1,False,,,,84,136,4,16,0.1144774705171585,176,81.118,,39.142395,,-76.7304809,False,0.8225887029999512,81.219,,39.1423942,,-76.7304809,0.101,,39.1423942,,-76.7304809,8.292170524597168,7.095653057098389,-21.43247985839844,unknown,POSCTL,,,,9,,ACTIVE,1733609189.8070889,0.03,-0.1,-0.16,12,1,15,2,17760768,0,13
1733609191.3099852,0.0,True,benign,-0.0059152920730412,-0.0110476640984416,3.082794189453125,3.57,75,16.019,0,0,,41.2,72.2,False,,,,84,136,4,16,0.1144774705171585,176,81.118,,39.142395,,-76.7304809,False,0.9379466479999792,81.218,,39.1423942,,-76.7304809,0.099,,39.1423942,,-76.7304809,8.293564796447754,7.09544563293457,-21.43227767944336,unknown,POSCTL,,,,9,,ACTIVE,1.5028963088989258,0.04,-0.11,-0.15,12,1,15,2,17760768,0,13
1733609191.4101486,0.0,True,benign,-0.0050826212391257,-0.0112030673772096,3.0829203128814697,3.57,75,16.019,0,0,,26.2,72.2,False,,,,84,136,4,17,0.1144774705171585,176,81.118,,39.142395,,-76.7304809,False,0.0051393149999512,81.216,,39.1423942,,-76.7304809,0.097,,39.1423942,,-76.7304809,8.295685768127441,7.0963945388793945,-21.431716918945312,unknown,POSCTL,,,,9,,ACTIVE,1733609189.9072523,0.03,-0.1,-0.15,12,1,15,2,17760768,0,13
1733609191.5112216,0.0,True,benign,-0.0046024634502828,-0.0115805929526686,3.083134889602661,7.84,73,15.882,0,0,,32.0,72.3,False,,,,84,136,4,16,0.1144774705171585,176,81.118,,39.142395,,-76.7304809,False,0.1141715919999342,81.217,,39.1423942,,-76.7304809,0.0,,39.1423942,,-76.7304809,8.294530868530273,7.0953521728515625,-21.43120384216309,unknown,POSCTL,,,,9,,ACTIVE,1.6039693355560305,0.04,-0.11,-0.15,12,1,15,2,17760768,0,13
1733609191.6105156,0.0,True,benign,-0.0054006674326956,-0.0120512647554278,3.0831849575042725,7.84,73,15.882,0,0,,33.3,72.2,False,,,,84,136,4,16,0.1224433034658432,176,81.118,,39.142395,,-76.7304809,False,0.2039521659999081,81.219,,39.1423942,,-76.7304809,0.001,,39.1423942,,-76.7304809,8.292853355407715,7.094235897064209,-21.42915153503418,unknown,POSCTL,,,,9,,ACTIVE,1733609190.0065465,0.05,-0.11,-0.15,12,1,15,2,17760768,0,13
1733609191.7107682,0.0,True,benign,-0.0065989289432764,-0.0114272767677903,3.083975553512573,7.84,73,15.882,0,0,,7.3,71.9,False,,,,84,136,4,16,0.1224433034658432,176,81.118,,39.142395,,-76.7304809,False,0.3070071659999485,81.219,,39.1423942,,-76.7304809,0.002,,39.1423942,,-76.7304809,8.291215896606445,7.09272050857544,-21.4273681640625,unknown,POSCTL,,,,9,,ACTIVE,1.7042219638824463,0.05,-0.11,-0.15,12,1,15,2,17760768,0,13
1733609191.8109372,0.0,True,benign,-0.0063113095238804,-0.0110324984416365,3.084436655044556,7.84,73,15.882,0,0,,4.8,71.9,False,,,,84,136,4,16,0.1224433034658432,176,81.118,,39.142395,,-76.7304809,False,0.4103495919999886,81.222,,39.1423943,,-76.7304809,0.004,,39.1423943,,-76.7304809,8.291215896606445,7.09272050857544,-21.4273681640625,unknown,POSCTL,,,,9,,ACTIVE,1733609190.1067152,0.06,-0.11,-0.15,12,1,15,2,17760768,0,13
1733609191.911425,0.0,True,benign,-0.0058712339960038,-0.0107190124690532,3.083802461624145,7.84,73,15.882,0,0,,0.0,71.9,False,,,,84,136,4,16,0.1504909545183181,176,81.118,,39.142395,,-76.7304809,False,0.5136116289999109,81.223,,39.1423943,,-76.7304809,0.005,,39.1423943,,-76.7304809,8.288827896118164,7.092634201049805,-21.424436569213867,unknown,POSCTL,,,,9,,ACTIVE,1.8047099113464355,0.08,-0.12,-0.15,12,1,15,2,17760768,0,13
1733609192.011529,0.0,True,benign,-0.0072483555413782,-0.0109408935531973,3.08454966545105,7.84,73,15.882,0,0,,6.6,71.9,False,,,,84,136,4,16,0.1504909545183181,176,81.118,,39.142395,,-76.7304809,False,0.5966783139999734,81.232,,39.1423943,,-76.730481,0.015,,39.1423943,,-76.730481,8.283169746398926,7.089361190795898,-21.420307159423828,unknown,POSCTL,,,,9,,ACTIVE,1733609190.206819,0.07,-0.12,-0.17,12,1,15,2,17760768,0,13
1733609192.11187,0.0,True,benign,-0.0071754627861082,-0.0113361394032835,3.083935022354126,7.84,73,15.882,0,0,,23.8,71.8,False,,,,84,136,4,16,0.1504909545183181,176,81.118,,39.142395,,-76.7304809,False,0.6850603699999738,81.232,,39.1423943,,-76.730481,0.015,,39.1423943,,-76.730481,8.279552459716797,7.088734149932861,-21.416955947875977,unknown,POSCTL,,,,9,,ACTIVE,1.9050509929656985,0.07,-0.12,-0.17,12,1,15,2,17760768,0,13
1733609192.2127838,0.0,True,benign,-0.0071878740563988,-0.0120652569457888,3.08337950706482,11.97,71,15.723,0,0,,10.1,71.8,False,,,,84,136,4,16,0.1337813735008239,176,81.118,,39.142395,,-76.7304809,False,0.816247313999952,81.231,,39.1423943,,-76.7304809,0.014,,39.1423943,,-76.7304809,8.279794692993164,7.093181610107422,-21.417675018310547,unknown,POSCTL,,,,9,,ACTIVE,1733609190.3077328,0.07,-0.11,-0.17,12,1,15,2,17760768,0,13
1733609192.3121097,0.0,True,benign,-0.0083968015387654,-0.0137608991935849,3.0819129943847656,11.97,71,15.723,0,0,,10.2,71.8,False,,,,84,136,4,16,0.1337813735008239,176,81.118,,39.142395,,-76.7304809,False,0.8903127959999892,81.235,,39.1423943,,-76.7304809,0.018,,39.1423943,,-76.7304809,8.274879455566406,7.094174861907959,-21.41579246520996,unknown,POSCTL,,,,9,,ACTIVE,2.0043768882751465,0.07,-0.11,-0.18,12,1,15,2,17760768,0,13
1733609192.412506,0.0,True,lidar_spoofer,-0.0099500939249992,-0.0210513994097709,3.076589584350586,11.97,71,15.723,0,0,,7.5,71.9,False,,,,84,136,4,16,0.1337813735008239,176,81.118,,39.142395,,-76.7304809,False,0.0322914629999786,81.253,,39.1423944,,-76.7304809,0.036,,39.1423944,,-76.7304809,8.259549140930176,7.092478752136231,-21.411975860595703,unknown,POSCTL,,,,4,,ACTIVE,1733609190.4081292,0.06,-0.1,-0.27,12,1,15,2,17760768,0,13
1733609192.5125155,0.0,True,lidar_spoofer,-0.0122951297089457,-0.0297646578401327,3.060123920440674,11.97,71,15.723,0,0,,27.3,72.4,False,,,,84,136,4,16,0.1337813735008239,176,81.118,,39.142395,,-76.7304809,False,0.1262410369999997,81.267,,39.1423944,,-76.7304809,0.049,,39.1423944,,-76.7304809,8.238452911376953,7.0965752601623535,-21.41330909729004,unknown,POSCTL,,,,4,,ACTIVE,2.104386329650879,0.06,-0.1,-0.36,12,1,15,2,17760768,0,13
1733609192.6126256,0.0,True,lidar_spoofer,-0.014340529218316,-0.0333307310938835,3.0384838581085205,11.97,71,15.723,0,0,,26.6,72.2,False,,,,84,136,4,16,0.1273126006126403,174,81.118,,39.142395,,-76.7304809,False,0.2378671300000405,81.307,,39.1423943,,-76.7304808,0.09,,39.1423943,,-76.7304808,8.238452911376953,7.0965752601623535,-21.41330909729004,unknown,POSCTL,,,,1,,ACTIVE,1733609190.5082393,0.04,-0.11,-0.59,12,1,15,2,17760768,0,13
1733609192.7126293,0.0,True,lidar_spoofer,-0.011842387728393,-0.0359869748353958,3.0112085342407227,11.97,71,15.723,0,0,,18.2,72.1,False,,,,84,136,4,16,0.1273126006126403,174,81.118,,39.142395,,-76.7304809,False,0.3259235000000444,81.34,,39.1423943,,-76.7304808,0.122,,39.1423943,,-76.7304808,8.199748039245605,7.099696159362793,-21.41724967956543,unknown,POSCTL,,,,11,,ACTIVE,2.204390048980713,0.02,-0.12,-0.71,12,1,15,2,17760768,0,13
1733609192.8128774,0.0,True,lidar_spoofer,-0.001941681257449,-0.038056094199419,2.9858767986297607,11.97,71,15.723,0,0,,8.3,72.9,False,,,,84,136,4,16,0.1273126006126403,174,81.118,,39.142395,,-76.7304809,False,0.4371336110000356,81.381,,39.1423943,,-76.7304808,0.164,,39.1423943,,-76.7304808,8.13047981262207,7.102680683135986,-21.42465209960937,unknown,POSCTL,,,,7,,ACTIVE,1733609190.6084874,0.01,-0.11,-0.84,12,1,15,2,17760768,0,13
1733609192.9131415,0.0,True,lidar_spoofer,0.005375200882554,-0.0338011123239994,2.960115909576416,24.19,65,15.312,0,0,,17.9,72.3,False,,,,84,136,4,16,0.1086548864841461,169,81.118,,39.142395,,-76.7304809,False,0.5358432780000157,81.504,,39.1423942,,-76.7304808,0.287,,39.1423942,,-76.7304808,8.04397201538086,7.105038642883301,-21.43276023864746,unknown,POSCTL,,,,1,,ACTIVE,2.304654121398926,0.01,-0.1,-1.14,12,1,15,2,17760768,0,13
1733609193.0130546,0.0,True,lidar_spoofer,-0.0003024375473614,-0.0252928659319877,2.9387168884277344,24.19,65,15.312,0,0,,3.6,72.1,False,,,,84,136,4,16,0.1086548864841461,169,81.118,,39.142395,,-76.7304809,False,0.6339067410000325,81.58,,39.1423941,,-76.7304807,0.363,,39.1423941,,-76.7304807,7.919307231903076,7.1074957847595215,-21.439924240112305,unknown,POSCTL,,,,11,,ACTIVE,1733609190.7084005,0.01,-0.11,-1.25,12,1,15,2,17760768,0,13
1733609193.1133597,0.0,True,lidar_spoofer,-0.001255708746612,-0.0263236593455076,2.923720359802246,24.19,65,15.312,0,0,,4.2,72.1,False,,,,84,136,4,16,0.1086548864841461,169,81.118,,39.142395,,-76.7304809,False,0.7372307589999991,81.738,,39.1423941,,-76.7304807,0.521,,39.1423941,,-76.7304807,7.800424098968506,7.110321521759033,-21.44872283935547,unknown,POSCTL,,,,16,,ACTIVE,2.404958963394165,0.02,-0.11,-1.37,12,1,15,2,17760768,0,13
1733609193.2136014,0.0,True,lidar_spoofer,-0.0047877393662929,-0.0262455772608518,2.9167943000793457,24.19,65,15.312,0,0,,10.8,72.1,False,,,,84,136,4,16,0.1086548864841461,169,81.118,,39.142395,,-76.7304809,False,0.839019889000042,81.816,,39.142394,,-76.7304807,0.599,,39.142394,,-76.7304807,7.643513202667236,7.114929676055908,-21.45745849609375,unknown,POSCTL,,,,37,,ACTIVE,1733609190.8086424,0.01,-0.11,-1.38,12,1,15,2,17760768,0,13
1733609193.3144038,0.0,True,lidar_spoofer,-0.0060604810714721,-0.0254653524607419,2.910361289978028,24.19,65,15.312,0,0,,6.7,72.2,False,,,,84,136,4,16,0.1203315705060958,166,81.118,,39.142395,,-76.7304809,False,0.9414044810000632,81.991,,39.1423939,,-76.7304806,0.774,,39.1423939,,-76.7304806,7.494124889373779,7.119565963745117,-21.467506408691406,unknown,POSCTL,,,,41,,ACTIVE,2.5057613849639893,0.0,-0.12,-1.41,12,1,15,2,17760768,0,13
1733609193.4137702,0.0,True,lidar_spoofer,-0.007147092372179,-0.0243193507194519,2.9095308780670166,24.19,65,15.312,0,0,,23.3,72.1,False,,,,84,136,4,16,0.1203315705060958,166,81.118,,39.142395,,-76.7304809,False,0.0395308509999949,82.077,,39.1423938,,-76.7304806,0.86,,39.1423938,,-76.7304806,7.494124889373779,7.119565963745117,-21.467506408691406,unknown,POSCTL,,,,61,,ACTIVE,1733609190.9080088,0.0,-0.13,-1.41,12,1,15,2,17760768,0,13
1733609193.5139277,0.0,True,lidar_spoofer,-0.0056409863755106,-0.0221454557031393,2.912994623184204,24.19,65,15.312,0,0,,25.0,72.1,False,,,,84,136,4,16,0.1203315705060958,166,81.118,,39.142395,,-76.7304809,False,0.1306833879999658,82.252,,39.1423937,,-76.7304806,1.035,,39.1423937,,-76.7304806,7.374139785766602,7.1227569580078125,-21.476993560791016,unknown,POSCTL,,,,23,,ACTIVE,2.6059186458587646,0.0,-0.13,-1.41,12,1,15,2,17760768,0,13
1733609193.6140304,0.0,True,lidar_spoofer,-0.000858629704453,-0.0239373501390218,2.9187657833099365,24.16,60,15.175,0,0,,13.5,72.1,False,,,,84,136,4,17,0.1425054371356964,167,81.118,,39.142395,,-76.7304809,False,0.2235260549999793,82.334,,39.1423937,,-76.7304806,1.117,,39.1423937,,-76.7304806,7.218245983123779,7.122653484344482,-21.48896026611328,unknown,POSCTL,,,,20,,ACTIVE,1733609191.0081117,0.0,-0.14,-1.4,12,1,15,2,17760768,0,13
1733609193.7140186,0.0,True,lidar_spoofer,0.0052398066036403,-0.0283414721488952,2.926326274871826,24.16,60,15.175,0,0,,11.5,72.1,False,,,,84,136,4,17,0.1425054371356964,167,81.118,,39.142395,,-76.7304809,False,0.3335182029999259,82.503,,39.1423935,,-76.7304805,1.286,,39.1423935,,-76.7304805,7.076698780059815,7.128530025482178,-21.50395774841309,unknown,POSCTL,,,,109,,ACTIVE,2.705906867980957,0.0,-0.14,-1.41,12,1,15,2,17760768,0,13
1733609193.8143094,0.0,True,lidar_spoofer,0.0098802912980318,-0.0299020800739526,2.9352288246154785,24.16,60,15.175,0,0,,13.5,72.1,False,,,,84,136,4,17,0.1425054371356964,167,81.118,,39.142395,,-76.7304809,False,0.4206033140000045,82.587,,39.1423934,,-76.7304805,1.37,,39.1423934,,-76.7304805,6.939172267913818,7.128686428070068,-21.51667213439941,unknown,POSCTL,,,,46,,ACTIVE,1733609191.1084025,0.0,-0.14,-1.41,12,1,15,2,17760768,0,13
1733609193.914793,0.0,True,lidar_spoofer,0.0103405751287937,-0.0291906148195266,2.944960117340088,24.16,60,15.175,0,0,,11.9,72.1,False,,,,75,125,4,17,0.1446519494056701,168,81.118,,39.142395,,-76.7304809,False,0.5398571839999704,82.669,,39.1423934,,-76.7304805,1.452,,39.1423934,,-76.7304805,6.78884744644165,7.127925872802734,-21.527847290039062,unknown,POSCTL,,,,11,,ACTIVE,2.8063905239105225,0.0,-0.14,-1.4,12,1,15,2,17760768,0,13
1733609194.0145628,0.0,True,lidar_spoofer,0.0149645758792757,-0.0310986414551734,2.954735040664673,24.16,60,15.175,0,0,,16.7,72.1,False,,,,75,125,4,17,0.1446519494056701,168,81.118,,39.142395,,-76.7304809,False,0.6296934439999404,82.849,,39.1423933,,-76.7304805,1.631,,39.1423933,,-76.7304805,6.649036884307861,7.129261016845703,-21.535757064819336,unknown,POSCTL,,,,39,,ACTIVE,1733609191.2081723,0.02,-0.15,-1.44,12,1,15,2,17760768,0,13
1733609194.1158464,0.0,True,lidar_spoofer,0.0127786425873637,-0.0311709009110927,2.9634270668029785,24.16,60,15.175,0,0,,17.6,72.1,False,,,,75,125,4,17,0.1446519494056701,168,81.118,,39.142395,,-76.7304809,False,0.7441521099999591,82.934,,39.1423932,,-76.7304805,1.717,,39.1423932,,-76.7304805,6.492033004760742,7.129262924194336,-21.53993034362793,unknown,POSCTL,,,,71,,ACTIVE,2.9076740741729736,0.02,-0.15,-1.44,12,1,15,2,17760768,0,13
1733609194.2156694,0.0,True,lidar_spoofer,0.0073346337303519,-0.029142428189516,2.972336769104004,24.16,60,15.175,0,0,,22.9,72.1,False,,,,75,125,4,17,0.1446519494056701,168,81.118,,39.142395,,-76.7304809,False,0.8439888689999862,83.118,,39.1423932,,-76.7304805,1.901,,39.1423932,,-76.7304805,6.346438884735107,7.127093315124512,-21.53936195373535,unknown,POSCTL,,,,154,,ACTIVE,1733609191.307995,0.04,-0.15,-1.45,12,1,15,2,17760768,0,13
1733609194.3151643,0.0,True,lidar_spoofer,0.005992685444653,-0.0276978947222232,2.9803452491760254,24.16,56,15.071,0,0,,13.9,72.1,False,,,,75,125,4,17,0.1675853133201599,170,81.118,,39.142395,,-76.7304809,False,0.9381308319999562,83.208,,39.1423932,,-76.7304805,1.991,,39.1423932,,-76.7304805,6.346438884735107,7.127093315124512,-21.53936195373535,unknown,POSCTL,,,,187,,ACTIVE,3.007169008255005,0.05,-0.15,-1.45,12,1,15,2,17760768,0,13
1733609194.4151769,0.0,True,lidar_spoofer,0.0045875012874603,-0.0287753008306026,2.987679004669189,24.16,56,15.071,0,0,,36.7,72.1,False,,,,75,125,4,17,0.1675853133201599,170,81.118,,39.142395,,-76.7304809,False,0.0409857410000995,83.389,,39.1423933,,-76.7304805,2.172,,39.1423933,,-76.7304805,6.201476573944092,7.129748821258545,-21.539066314697266,unknown,POSCTL,,,,154,,ACTIVE,1733609191.408008,0.07,-0.15,-1.46,12,1,15,2,17760768,0,13
1733609194.515314,0.0,True,lidar_spoofer,0.0018541591707617,-0.0285773742944002,2.9919567108154297,24.16,56,15.071,0,0,,16.3,72.1,False,,,,75,125,4,17,0.1675853133201599,170,81.118,,39.142395,,-76.7304809,False,0.1268440180000425,83.479,,39.1423933,,-76.7304805,2.262,,39.1423933,,-76.7304805,6.031928062438965,7.130216598510742,-21.53401756286621,unknown,POSCTL,,,,178,,ACTIVE,3.1073060035705566,0.08,-0.15,-1.47,12,1,15,2,17760768,0,13
1733609194.615658,0.0,True,lidar_spoofer,-0.0011126002063974,-0.0294246543198823,2.997400999069214,24.16,56,15.071,0,0,,2.4,72.1,False,,,,75,125,4,17,0.182184025645256,171,81.118,,39.142395,,-76.7304809,False,0.2413635920000842,83.67,,39.1423933,,-76.7304803,2.453,,39.1423933,,-76.7304803,5.891181468963623,7.139173030853272,-21.530759811401367,unknown,POSCTL,,,,220,,ACTIVE,1733609191.508352,0.09,-0.15,-1.47,12,1,15,2,17760768,0,13
1733609194.7154784,0.0,True,lidar_spoofer,-0.0052786963060498,-0.0274234488606452,3.0018270015716557,24.16,56,15.071,0,0,,8.2,72.1,False,,,,75,125,4,17,0.182184025645256,171,81.217,,39.1423942,,-76.7304809,False,0.3138696660000732,83.768,,39.1423934,,-76.7304803,2.551,,39.1423934,,-76.7304803,5.730481624603272,7.147913932800293,-21.52515411376953,unknown,POSCTL,,,,57,,ACTIVE,3.207126379013061,0.09,-0.14,-1.46,12,1,15,2,17760768,0,13
1733609194.816312,0.0,True,lidar_spoofer,-0.0054770787246525,-0.0228052213788032,3.0054736137390137,24.16,56,15.071,0,0,,10.3,72.1,False,,,,75,125,4,17,0.182184025645256,171,81.217,,39.1423942,,-76.7304809,False,0.4444892960000288,83.968,,39.1423934,,-76.7304802,2.751,,39.1423934,,-76.7304802,5.558035373687744,7.152734279632568,-21.51727867126465,unknown,POSCTL,,,,30,,ACTIVE,1733609191.6091857,0.08,-0.14,-1.47,12,1,15,2,17760768,0,13
1733609194.9164348,0.0,True,lidar_spoofer,-0.0017082403646782,-0.0258607678115367,3.00879430770874,23.89,53,15.004,0,0,,17.6,72.1,False,,,,75,125,4,17,0.182184025645256,171,81.217,,39.1423942,,-76.7304809,False,0.5438158700000031,84.057,,39.1423935,,-76.7304802,2.84,,39.1423935,,-76.7304802,5.397668361663818,7.156891345977783,-21.51069641113281,unknown,POSCTL,,,,92,,ACTIVE,3.307249069213867,0.09,-0.14,-1.47,12,1,15,2,17760768,0,13
1733609195.0173542,0.0,True,lidar_spoofer,-0.0024896522518247,-0.0255425740033388,3.011887788772583,23.89,53,15.004,0,0,,13.5,72.0,False,,,,75,125,4,17,0.1683865785598755,172,81.217,,39.1423942,,-76.7304809,False,0.6467157400001042,84.261,,39.1423936,,-76.7304801,3.044,,39.1423936,,-76.7304801,5.235121250152588,7.16287899017334,-21.50455474853516,unknown,POSCTL,,,,13,,ACTIVE,1733609191.7101052,0.07,-0.13,-1.47,12,1,15,2,17760768,0,13
1733609195.1166377,0.0,True,lidar_spoofer,-0.0024455552920699,-0.0237159058451652,3.015139102935791,23.89,53,15.004,0,0,,2.4,72.0,False,,,,75,125,4,17,0.1683865785598755,172,81.217,,39.1423942,,-76.7304809,False,0.7266714070000262,84.347,,39.1423936,,-76.7304801,3.13,,39.1423936,,-76.7304801,5.235121250152588,7.16287899017334,-21.50455474853516,unknown,POSCTL,,,,254,,ACTIVE,3.406532526016236,0.07,-0.13,-1.48,12,1,15,2,17760768,0,13
1733609195.2166512,0.0,True,lidar_spoofer,-0.0026627520564943,-0.0221297424286603,3.017827272415161,23.89,53,15.004,0,0,,7.1,72.0,False,,,,75,125,4,17,0.1683865785598755,172,81.217,,39.1423942,,-76.7304809,False,0.842899796000097,84.546,,39.1423937,,-76.7304799,3.329,,39.1423937,,-76.7304799,5.066146373748779,7.174245357513428,-21.49798011779785,unknown,POSCTL,,,,59,,ACTIVE,1733609191.810119,0.07,-0.14,-1.48,12,1,15,2,17760768,0,13
1733609195.3170996,0.0,True,lidar_spoofer,-0.0044867731630802,-0.0205578561872243,3.0203094482421875,23.89,53,15.004,0,0,,2.4,72.0,False,,,,75,125,4,17,0.1596166342496872,173,81.217,,39.1423942,,-76.7304809,False,0.9392991470000424,84.664,,39.1423937,,-76.7304798,3.447,,39.1423937,,-76.7304798,4.894162178039551,7.187044620513916,-21.490583419799805,unknown,POSCTL,,,,206,,ACTIVE,3.5069808959960938,0.07,-0.14,-1.47,12,1,15,2,17760768,0,13
1733609195.4171472,0.0,True,lidar_spoofer,-0.0050721815787255,-0.0198755040764808,3.023033380508423,23.89,53,15.004,0,0,,9.4,72.0,False,,,,75,125,4,17,0.1596166342496872,173,81.217,,39.1423942,,-76.7304809,False,0.0439822219999541,84.755,,39.1423937,,-76.7304797,3.538,,39.1423937,,-76.7304797,4.739595413208008,7.198002815246582,-21.484352111816406,unknown,POSCTL,,,,12,,ACTIVE,1733609191.9101665,0.08,-0.13,-1.46,12,1,15,2,17760768,0,13
