timestamp,airspeed,armed,attack_type,attitude.pitch,attitude.roll,attitude.yaw,battery.current,battery.level,battery.voltage,commands.count,commands.next,ekf_ok,gimbal.pitch,gimbal.roll,gimbal.yaw,gps_0.eph,gps_0.epv,gps_0.fix_type,gps_0.satellites_visible,groundspeed,heading,home_location.alt,home_location.global_frame,home_location.lat,home_location.local_frame,home_location.lon,is_armable,last_heartbeat,location.global_frame.alt,location.global_frame.global_frame,location.global_frame.lat,location.global_frame.local_frame,location.global_frame.lon,location.global_relative_frame.alt,location.global_relative_frame.global_frame,location.global_relative_frame.lat,location.global_relative_frame.local_frame,location.global_relative_frame.lon,location.local_frame.down,location.local_frame.east,location.local_frame.north,ml_verdict,mode.name,mount_status[0],mount_status[1],mount_status[2],rangefinder.distance,rangefinder.voltage,system_status.state,timedelta,velocity[0],velocity[1],velocity[2],version.autopilot_type,version.major,version.minor,version.patch,version.raw_version,version.release,version.vehicle_type
1732729749.591646,0.0,True,benign,0.0354512296617031,-0.0335585288703441,-3.13130784034729,0.26,37,15.017,0,0,False,,,,62,89,4,21,0.2697812020778656,180,76.493,,39.1424083,,-76.7304791,False,0.0192102409992003,77.245,,39.14241,,-76.730483,0.088,,39.14241,,-76.730483,12.778446197509766,6.402864456176758,-23.404769897460938,unknown,POSCTL,,,,8,,ACTIVE,1732729674.6477618,0.1,0.23,-0.13,12,1,15,2,17760768,0,13
1732729749.6861515,0.0,True,benign,0.0354849472641944,-0.0333824269473552,-3.131312608718872,0.26,37,15.017,0,0,False,,,,62,89,4,21,0.2607640624046325,180,76.493,,39.1424083,,-76.7304791,False,0.1065650189993903,77.268,,39.1424101,,-76.730483,0.111,,39.1424101,,-76.730483,12.778446197509766,6.402864456176758,-23.404769897460938,unknown,POSCTL,,,,8,,ACTIVE,75.03838992118835,0.1,0.24,-0.12,12,1,15,2,17760768,0,13
1732729749.7876062,0.0,True,benign,0.0353520698845386,-0.0329544246196746,-3.1313729286193848,0.26,37,15.017,0,0,False,,,,62,89,4,20,0.2607640624046325,180,76.493,,39.1424083,,-76.7304791,False,0.2173288519998095,77.278,,39.1424101,,-76.730483,0.121,,39.1424101,,-76.730483,12.762182235717772,6.403763294219971,-23.39976501464844,unknown,POSCTL,,,,9,,ACTIVE,1732729674.7492163,0.09,0.24,-0.12,12,1,15,2,17760768,0,13
1732729749.8865938,0.0,True,benign,0.0346502549946308,-0.0323994234204292,-3.131617784500122,0.26,37,15.017,0,0,False,,,,64,94,4,20,0.2607640624046325,180,76.493,,39.1424083,,-76.7304791,False,0.3043882219999432,77.303,,39.1424101,,-76.7304832,0.145,,39.1424101,,-76.7304832,12.741291999816896,6.389463901519775,-23.40003204345703,unknown,POSCTL,,,,9,,ACTIVE,75.13737750053406,0.09,0.22,-0.13,12,1,15,2,17760768,0,13
1732729749.986757,0.0,True,benign,0.0345618724822998,-0.0318770259618759,-3.132021427154541,1.22,37,15.006,0,0,False,,,,64,94,4,20,0.2532305121421814,180,76.493,,39.1424083,,-76.7304791,False,0.406152092999946,77.317,,39.1424101,,-76.7304832,0.159,,39.1424101,,-76.7304832,12.719744682312012,6.382134914398193,-23.398956298828125,unknown,POSCTL,,,,9,,ACTIVE,1732729674.8493795,0.09,0.23,-0.14,12,1,15,2,17760768,0,13
1732729750.0868757,0.0,True,benign,0.0342500023543834,-0.0314004085958004,-3.131997585296631,1.22,37,15.006,0,0,False,,,,64,94,4,21,0.2532305121421814,180,76.493,,39.1424083,,-76.7304791,False,0.5109505559994432,77.342,,39.1424101,,-76.7304834,0.185,,39.1424101,,-76.7304834,12.697367668151855,6.374972820281982,-23.39881134033203,unknown,POSCTL,,,,9,,ACTIVE,75.23749613761902,0.08,0.23,-0.15,12,1,15,2,17760768,0,13
1732729750.187111,0.0,True,benign,0.0341336689889431,-0.0310247279703617,-3.132021427154541,1.22,37,15.006,0,0,False,,,,64,94,4,22,0.2532305121421814,180,76.493,,39.1424083,,-76.7304791,False,0.6138508699996237,77.357,,39.1424101,,-76.7304834,0.2,,39.1424101,,-76.7304834,12.673502922058104,6.3678412437438965,-23.39683532714844,unknown,POSCTL,,,,8,,ACTIVE,1732729674.9496143,0.08,0.23,-0.15,12,1,15,2,17760768,0,13
1732729750.2874975,0.0,True,benign,0.0339490957558155,-0.0305017344653606,-3.1319403648376465,1.22,37,15.006,0,0,False,,,,62,89,4,22,0.2532305121421814,180,76.493,,39.1424083,,-76.7304791,False,0.71465320399966,77.383,,39.1424102,,-76.7304835,0.225,,39.1424102,,-76.7304835,12.653746604919434,6.362008571624756,-23.39501190185547,unknown,POSCTL,,,,8,,ACTIVE,75.33788299560547,0.08,0.23,-0.15,12,1,15,2,17760768,0,13
1732729750.3880205,0.0,True,benign,0.0336141139268875,-0.029940515756607,-3.131866216659546,1.22,37,15.006,0,0,False,,,,62,89,4,21,0.2503789961338043,180,76.493,,39.1424083,,-76.7304791,False,0.8175096850000045,77.394,,39.1424102,,-76.7304835,0.237,,39.1424102,,-76.7304835,12.635454177856444,6.360434055328369,-23.39219284057617,unknown,POSCTL,,,,8,,ACTIVE,1732729675.0501375,0.07,0.23,-0.14,12,1,15,2,17760768,0,13
1732729750.4874294,0.0,True,benign,0.0333845727145671,-0.0296556483954191,-3.132286310195923,1.22,37,15.006,0,0,False,,,,62,89,4,21,0.2503789961338043,180,76.493,,39.1424083,,-76.7304791,False,0.9091662589999032,77.417,,39.1424102,,-76.7304836,0.26,,39.1424102,,-76.7304836,12.635454177856444,6.360434055328369,-23.39219284057617,unknown,POSCTL,,,,9,,ACTIVE,75.43729186058044,0.07,0.22,-0.16,12,1,15,2,17760768,0,13
1732729750.5876205,0.0,True,benign,0.0331764705479145,-0.0287934504449367,-3.1322593688964844,1.22,37,15.006,0,0,False,,,,64,94,4,21,0.2503789961338043,180,76.493,,39.1424083,,-76.7304791,False,0.0103357589996448,77.43,,39.1424102,,-76.7304836,0.272,,39.1424102,,-76.7304836,12.61546802520752,6.355395317077637,-23.3902587890625,unknown,POSCTL,,,,9,,ACTIVE,1732729675.1503286,0.07,0.22,-0.17,12,1,15,2,17760768,0,13
1732729750.6883347,0.0,True,benign,0.0329591445624828,-0.0284626856446266,-3.132220506668091,1.16,37,15.005,0,0,False,,,,64,94,4,21,0.2344342917203903,180,76.493,,39.1424083,,-76.7304791,False,0.1384178879998217,77.441,,39.1424102,,-76.7304837,0.284,,39.1424102,,-76.7304837,12.595059394836426,6.33968448638916,-23.390661239624023,unknown,POSCTL,,,,9,,ACTIVE,75.538006067276,0.07,0.22,-0.16,12,1,15,2,17760768,0,13
1732729750.7884712,0.0,True,benign,0.032496340572834,-0.0279859695583581,-3.132080078125,1.16,37,15.005,0,0,False,,,,62,89,4,21,0.2344342917203903,180,76.493,,39.1424083,,-76.7304791,False,0.2316799070003981,77.464,,39.1424102,,-76.7304838,0.307,,39.1424102,,-76.7304838,12.575541496276855,6.332333564758301,-23.389347076416016,unknown,POSCTL,,,,9,,ACTIVE,1732729675.2504652,0.07,0.22,-0.16,12,1,15,2,17760768,0,13
1732729750.8894975,0.0,True,benign,0.0325046889483928,-0.0273969285190105,-3.132066011428833,1.16,37,15.005,0,0,False,,,,62,89,4,22,0.2344342917203903,180,76.493,,39.1424083,,-76.7304791,False,0.3408047960001568,77.474,,39.1424102,,-76.7304839,0.317,,39.1424102,,-76.7304839,12.558935165405272,6.323879241943359,-23.38812828063965,unknown,POSCTL,,,,8,,ACTIVE,75.6390323638916,0.07,0.22,-0.16,12,1,15,2,17760768,0,13
1732729750.988717,0.0,True,benign,0.0322554558515548,-0.027099136263132,-3.1322808265686035,1.16,37,15.005,0,0,False,,,,62,89,4,22,0.2344342917203903,180,76.493,,39.1424083,,-76.7304791,False,0.4387042219996147,77.493,,39.1424102,,-76.730484,0.336,,39.1424102,,-76.730484,12.544754028320312,6.318784236907959,-23.3861026763916,unknown,POSCTL,,,,8,,ACTIVE,1732729675.3496847,0.07,0.21,-0.17,12,1,15,2,17760768,0,13
1732729751.0898862,0.0,True,benign,0.0317745134234428,-0.0266285575926303,-3.132474660873413,1.16,37,15.005,0,0,False,,,,62,89,4,22,0.2261980473995208,180,76.493,,39.1424083,,-76.7304791,False,0.5411813509999774,77.502,,39.1424103,,-76.730484,0.344,,39.1424103,,-76.730484,12.529709815979004,6.31839656829834,-23.38359832763672,unknown,POSCTL,,,,8,,ACTIVE,75.74020147323608,0.07,0.21,-0.17,12,1,15,2,17760768,0,13
1732729751.1889706,0.0,True,benign,0.0313446372747421,-0.026313291862607,-3.133064746856689,1.16,37,15.005,0,0,False,,,,62,89,4,22,0.2261980473995208,180,76.493,,39.1424083,,-76.7304791,False,0.6325009989996033,77.519,,39.1424103,,-76.730484,0.362,,39.1424103,,-76.730484,12.515474319458008,6.317417144775391,-23.38314247131348,unknown,POSCTL,,,,9,,ACTIVE,1732729675.448769,0.06,0.21,-0.17,12,1,15,2,17760768,0,13
1732729751.289227,0.0,True,benign,0.0307498760521411,-0.025599667802453,-3.1326870918273926,1.16,37,15.005,0,0,False,,,,62,89,4,21,0.2261980473995208,180,76.493,,39.1424083,,-76.7304791,False,0.7313308510001661,77.526,,39.1424102,,-76.7304841,0.368,,39.1424102,,-76.7304841,12.515474319458008,6.317417144775391,-23.38314247131348,unknown,POSCTL,,,,9,,ACTIVE,75.84045791625977,0.05,0.21,-0.17,12,1,15,2,17760768,0,13
1732729751.389315,0.0,True,benign,0.0309425499290227,-0.0252785440534353,-3.1330320835113525,1.14,38,15.015,0,0,False,,,,64,94,4,22,0.221848726272583,180,76.493,,39.1424083,,-76.7304791,False,0.8330687580000813,77.539,,39.1424102,,-76.7304841,0.381,,39.1424102,,-76.7304841,12.50347137451172,6.308488845825195,-23.38581275939941,unknown,POSCTL,,,,9,,ACTIVE,1732729675.5488567,0.06,0.21,-0.15,12,1,15,2,17760768,0,13
1732729751.4894178,0.0,True,benign,0.0306692775338888,-0.024560373276472,-3.1330697536468506,1.14,38,15.015,0,0,False,,,,64,94,4,22,0.221848726272583,180,76.493,,39.1424083,,-76.7304791,False,0.9378166289998262,77.545,,39.1424102,,-76.7304841,0.387,,39.1424102,,-76.7304841,12.4938325881958,6.309610366821289,-23.384878158569336,unknown,POSCTL,,,,8,,ACTIVE,75.94056105613708,0.06,0.21,-0.15,12,1,15,2,17760768,0,13
1732729751.590311,0.0,True,benign,0.0300871785730123,-0.0241071842610836,-3.13323974609375,1.14,38,15.015,0,0,False,,,,62,89,4,22,0.221848726272583,180,76.493,,39.1424083,,-76.7304791,False,0.0457139070003904,77.554,,39.1424102,,-76.7304841,0.397,,39.1424102,,-76.7304841,12.485151290893556,6.307316780090332,-23.384984970092773,unknown,POSCTL,,,,8,,ACTIVE,1732729675.64975,0.05,0.21,-0.13,12,1,15,2,17760768,0,13
1732729751.6912756,0.0,True,benign,0.0298527088016271,-0.0235538706183433,-3.13321852684021,1.14,38,15.015,0,0,False,,,,62,89,4,21,0.2173529118299484,180,76.493,,39.1424083,,-76.7304791,False,0.1476137409999864,77.559,,39.1424102,,-76.7304842,0.402,,39.1424102,,-76.7304842,12.477459907531738,6.303578853607178,-23.386579513549805,unknown,POSCTL,,,,8,,ACTIVE,76.0415256023407,0.05,0.2,-0.13,12,1,15,2,17760768,0,13
1732729751.7906327,0.0,True,benign,0.0294939652085304,-0.0233220886439085,-3.1332249641418457,1.14,38,15.015,0,0,False,,,,62,89,4,21,0.2173529118299484,180,76.493,,39.1424083,,-76.7304791,False,0.2378380919999472,77.568,,39.1424102,,-76.7304842,0.411,,39.1424102,,-76.7304842,12.4689302444458,6.299411773681641,-23.388219833374023,unknown,POSCTL,,,,8,,ACTIVE,1732729675.7491071,0.04,0.19,-0.12,12,1,15,2,17760768,0,13
1732729751.890941,0.0,True,benign,0.0290178712457418,-0.0227789729833602,-3.1331117153167725,1.14,38,15.015,0,0,False,,,,62,89,4,22,0.2173529118299484,180,76.493,,39.1424083,,-76.7304791,False,0.3314077400000315,77.573,,39.1424102,,-76.7304843,0.416,,39.1424102,,-76.7304843,12.460999488830566,6.2891926765441895,-23.39110565185547,unknown,POSCTL,,,,9,,ACTIVE,76.14183378219604,0.04,0.19,-0.13,12,1,15,2,17760768,0,13
1732729751.991678,0.0,True,benign,0.0293486788868904,-0.0223301947116851,-3.133089303970337,1.14,38,15.015,0,0,False,,,,62,89,4,22,0.2173529118299484,180,76.493,,39.1424083,,-76.7304791,False,0.4480261110002175,77.582,,39.1424102,,-76.7304844,0.425,,39.1424102,,-76.7304844,12.454132080078123,6.284393787384033,-23.39346694946289,unknown,POSCTL,,,,9,,ACTIVE,1732729675.8498442,0.03,0.18,-0.12,12,1,15,2,17760768,0,13
1732729752.0917664,0.0,True,benign,0.0289422404021024,-0.0220617428421974,-3.1328229904174805,1.13,37,15.012,0,0,False,,,,62,89,4,22,0.1846658140420913,180,76.493,,39.1424083,,-76.7304791,False,0.5474372590006169,77.588,,39.1424101,,-76.7304844,0.43,,39.1424101,,-76.7304844,12.446538925170898,6.274501800537109,-23.39832878112793,unknown,POSCTL,,,,9,,ACTIVE,76.24192214012146,0.02,0.18,-0.12,12,1,15,2,17760768,0,13
1732729752.1911876,0.0,True,benign,0.0283826421946287,-0.0218722838908433,-3.132779359817505,1.13,37,15.012,0,0,False,,,,62,89,4,22,0.1846658140420913,180,76.493,,39.1424083,,-76.7304791,False,0.644972888000666,77.592,,39.1424101,,-76.7304845,0.435,,39.1424101,,-76.7304845,12.446538925170898,6.274501800537109,-23.39832878112793,unknown,POSCTL,,,,9,,ACTIVE,1732729675.9492657,0.02,0.17,-0.11,12,1,15,2,17760768,0,13
1732729752.2913153,0.0,True,benign,0.0277533065527677,-0.0214168820530176,-3.132478713989258,1.13,37,15.012,0,0,False,,,,62,89,4,21,0.1846658140420913,180,76.493,,39.1424083,,-76.7304791,False,0.7299689990004481,77.601,,39.1424101,,-76.7304845,0.444,,39.1424101,,-76.7304845,12.438151359558104,6.274204730987549,-23.401020050048828,unknown,POSCTL,,,,9,,ACTIVE,76.34204983711243,0.01,0.17,-0.11,12,1,15,2,17760768,0,13
1732729752.3914614,0.0,True,benign,0.0265973750501871,-0.0205818694084882,-3.132938861846924,1.13,37,15.012,0,0,False,,,,64,94,4,21,0.1649655103683471,180,76.493,,39.1424083,,-76.7304791,False,0.8328635550005856,77.605,,39.1424101,,-76.7304846,0.447,,39.1424101,,-76.7304846,12.431694984436035,6.268491744995117,-23.405385971069336,unknown,POSCTL,,,,9,,ACTIVE,1732729676.0494115,0.01,0.15,-0.11,12,1,15,2,17760768,0,13
1732729752.4916058,0.0,True,benign,0.0263630673289299,-0.0198478531092405,-3.1325628757476807,1.13,37,15.012,0,0,False,,,,64,94,4,21,0.1649655103683471,180,76.493,,39.1424083,,-76.7304791,False,0.9354209620005348,77.614,,39.14241,,-76.7304846,0.457,,39.14241,,-76.7304846,12.42410373687744,6.265171051025391,-23.40906143188477,unknown,POSCTL,,,,9,,ACTIVE,76.44219422340393,0.0,0.15,-0.12,12,1,15,2,17760768,0,13
1732729752.5918918,0.0,True,benign,0.0260074436664581,-0.0185258854180574,-3.1325109004974365,1.13,37,15.012,0,0,False,,,,64,94,4,21,0.1649655103683471,180,76.493,,39.1424083,,-76.7304791,False,0.0376208140005474,77.619,,39.14241,,-76.7304847,0.461,,39.14241,,-76.7304847,12.41584587097168,6.259531021118164,-23.41327476501465,unknown,POSCTL,,,,8,,ACTIVE,1732729676.1496975,0.0,0.15,-0.12,12,1,15,2,17760768,0,13
1732729752.6919398,0.0,True,benign,0.0253324229270219,-0.0180795118212699,-3.132117509841919,2.13,37,14.983,0,0,False,,,,64,94,4,21,0.1649655103683471,180,76.493,,39.1424083,,-76.7304791,False,0.1454964069998823,77.627,,39.1424099,,-76.7304848,0.469,,39.1424099,,-76.7304848,12.40951442718506,6.252303123474121,-23.417823791503903,unknown,POSCTL,,,,8,,ACTIVE,76.54224228858948,0.0,0.14,-0.12,12,1,15,2,17760768,0,13
1732729752.7925572,0.0,True,benign,0.0247813314199447,-0.017448104918003,-3.131998300552368,2.13,37,14.983,0,0,False,,,,64,94,4,21,0.1444572806358337,180,77.157,,39.1424099,,-76.7304826,False,0.2477852960000746,77.631,,39.1424099,,-76.7304848,0.474,,39.1424099,,-76.7304848,12.402743339538574,6.247883319854736,-23.42193031311035,unknown,POSCTL,,,,8,,ACTIVE,1732729676.250315,0.0,0.13,-0.12,12,1,15,2,17760768,0,13
1732729752.892254,0.0,True,benign,0.0241838973015546,-0.0165844690054655,-3.1321380138397217,2.13,37,14.983,0,0,False,,,,64,94,4,21,0.1444572806358337,180,77.157,,39.1424099,,-76.7304826,False,0.3395619809998607,77.639,,39.1424099,,-76.7304848,0.006,,39.1424099,,-76.7304848,12.402743339538574,6.247883319854736,-23.42193031311035,unknown,POSCTL,,,,9,,ACTIVE,76.64193916320801,0.0,0.12,-0.13,12,1,15,2,17760768,0,13
1732729752.9925056,0.0,True,benign,0.024398349225521,-0.015929190441966,-3.1318130493164062,2.13,37,14.983,0,0,False,,,,64,94,4,21,0.1444572806358337,180,77.157,,39.1424099,,-76.7304826,False,0.4137289070004044,77.643,,39.1424099,,-76.7304849,0.01,,39.1424099,,-76.7304849,12.395508766174316,6.245704174041748,-23.424957275390625,unknown,POSCTL,,,,9,,ACTIVE,1732729676.3505664,0.0,0.1,-0.12,12,1,15,2,17760768,0,13
1732729753.092548,0.0,True,benign,0.0246285647153854,-0.0146550387144088,-3.1314287185668945,2.13,37,14.983,0,0,False,,,,64,94,4,21,0.0990689545869827,180,77.157,,39.1424099,,-76.7304826,False,0.5388818700002957,77.651,,39.1424098,,-76.730485,0.018,,39.1424098,,-76.730485,12.38930606842041,6.236339569091797,-23.42965316772461,unknown,POSCTL,,,,9,,ACTIVE,76.74198150634766,-0.01,0.1,-0.13,12,1,15,2,17760768,0,13
1732729753.1930778,0.0,True,benign,0.0244377106428146,-0.0119198532775044,-3.1311802864074707,2.13,37,14.983,0,0,False,,,,64,94,4,20,0.0990689545869827,180,77.157,,39.1424099,,-76.7304826,False,0.6473513509999975,77.656,,39.1424098,,-76.730485,0.023,,39.1424098,,-76.730485,12.381551742553713,6.2275471687316895,-23.43512725830078,unknown,POSCTL,,,,9,,ACTIVE,1732729676.4510963,-0.01,0.09,-0.13,12,1,15,2,17760768,0,13
1732729753.2931845,0.0,True,benign,0.0253554433584213,-0.0104202404618263,-3.129915475845337,2.13,37,14.983,0,0,False,,,,64,94,4,20,0.0990689545869827,180,77.157,,39.1424099,,-76.7304826,False,0.745837092000329,77.668,,39.1424097,,-76.7304851,0.035,,39.1424097,,-76.7304851,12.371430397033691,6.2236151695251465,-23.43978881835937,unknown,POSCTL,,,,9,,ACTIVE,76.84208798408508,-0.02,0.07,-0.14,12,1,15,2,17760768,0,13
1732729753.3944094,0.0,True,benign,0.0261852610856294,-0.0114734070375561,-3.1284632682800293,7.27,36,14.84,0,0,False,,,,64,94,4,20,0.0678288489580154,180,77.157,,39.1424099,,-76.7304826,False,0.8498712580003485,77.674,,39.1424097,,-76.7304852,0.041,,39.1424097,,-76.7304852,12.361187934875488,6.21243953704834,-23.446386337280277,unknown,POSCTL,,,,9,,ACTIVE,1732729676.5523214,-0.02,0.07,-0.13,12,1,15,2,17760768,0,13
1732729753.4934444,0.0,True,benign,0.0270402487367391,-0.0076858713291585,-3.128927230834961,7.27,36,14.84,0,0,False,,,,64,94,4,22,0.0678288489580154,180,77.157,,39.1424099,,-76.7304826,False,0.9476007769999342,77.68,,39.1424097,,-76.7304853,0.047,,39.1424097,,-76.7304853,12.351841926574709,6.2031731605529785,-23.45294761657715,unknown,POSCTL,,,,9,,ACTIVE,76.94112300872803,-0.04,0.04,-0.14,12,1,15,2,17760768,0,13
1732729753.5935907,0.0,True,benign,0.026871770620346,-0.0048514152877032,-3.1281633377075195,7.27,36,14.84,0,0,False,,,,64,94,4,21,0.0678288489580154,180,77.157,,39.1424099,,-76.7304826,False,0.0425911479997012,77.692,,39.1424096,,-76.7304854,0.059,,39.1424096,,-76.7304854,12.34107780456543,6.193976402282715,-23.45991516113281,unknown,POSCTL,,,,9,,ACTIVE,1732729676.6524675,-0.04,0.03,-0.16,12,1,15,2,17760768,0,13
1732729753.6937678,0.0,True,benign,0.0291202683001756,0.0013533064629882,-3.130124807357788,7.27,36,14.84,0,0,False,,,,64,94,4,21,0.0678288489580154,180,77.157,,39.1424099,,-76.7304826,False,0.1349517219996414,77.698,,39.1424096,,-76.7304855,0.065,,39.1424096,,-76.7304855,12.34107780456543,6.193976402282715,-23.45991516113281,unknown,POSCTL,,,,9,,ACTIVE,77.04130005836487,-0.04,0.02,-0.16,12,1,15,2,17760768,0,13
1732729753.7941403,0.0,True,benign,0.0341035313904285,0.0047471178695559,-3.132114887237549,7.27,36,14.84,0,0,False,,,,64,94,4,21,0.0433859229087829,180,77.157,,39.1424099,,-76.7304826,False,0.2390893699994194,77.712,,39.1424095,,-76.7304856,0.079,,39.1424095,,-76.7304856,12.331571578979492,6.187063694000244,-23.465673446655277,unknown,POSCTL,,,,9,,ACTIVE,1732729676.7528405,-0.03,0.02,-0.2,12,1,15,2,17760768,0,13
1732729753.894237,0.0,True,benign,0.0286169312894344,0.0042839348316192,3.1412081718444824,7.27,36,14.84,0,0,False,,,,64,94,4,22,0.0433859229087829,180,77.157,,39.1424099,,-76.7304826,False,0.3412193699996351,77.725,,39.1424095,,-76.7304856,0.092,,39.1424095,,-76.7304856,12.315424919128418,6.179907321929932,-23.47041702270508,unknown,POSCTL,,,,9,,ACTIVE,77.14139676094055,-0.03,0.01,-0.26,12,1,15,2,17760768,0,13
1732729753.9943411,0.0,True,benign,0.0271997079253196,-0.0125060193240642,3.121537208557129,7.27,36,14.84,0,0,False,,,,64,94,4,22,0.0433859229087829,180,77.157,,39.1424099,,-76.7304826,False,0.4456513699997231,77.764,,39.1424094,,-76.7304857,0.131,,39.1424094,,-76.7304857,12.285385131835938,6.175289630889893,-23.47436141967773,unknown,POSCTL,,,,9,,ACTIVE,1732729676.8529444,-0.02,-0.01,-0.46,12,1,15,2,17760768,0,13
1732729754.0945623,0.0,True,benign,0.0235626883804798,-0.0337551049888134,3.0927083492279053,20.16,33,14.519,0,0,False,,,,62,89,4,22,0.0313363261520862,177,77.157,,39.1424099,,-76.7304826,False,0.5483224069994321,77.796,,39.1424094,,-76.7304858,0.163,,39.1424094,,-76.7304858,12.235640525817873,6.163900375366211,-23.47613525390625,unknown,POSCTL,,,,9,,ACTIVE,77.24161791801453,-0.01,-0.02,-0.59,12,1,15,2,17760768,0,13
1732729754.1956053,0.0,True,benign,0.0146096786484122,-0.040295023471117,3.0610923767089844,20.16,33,14.519,0,0,False,,,,62,89,4,22,0.0313363261520862,177,77.157,,39.1424099,,-76.7304826,False,0.6519544249995306,77.878,,39.1424094,,-76.7304859,0.245,,39.1424094,,-76.7304859,12.16477870941162,6.152081489562988,-23.47599601745605,unknown,POSCTL,,,,9,,ACTIVE,1732729676.9539874,-0.01,-0.04,-0.8,12,1,15,2,17760768,0,13
1732729754.2959025,0.0,True,benign,0.0053957444615662,-0.0474461205303669,3.0274600982666016,20.16,33,14.519,0,0,False,,,,65,94,4,22,0.0313363261520862,177,77.157,,39.1424099,,-76.7304826,False,0.7522488879994853,77.938,,39.1424094,,-76.730486,0.304,,39.1424094,,-76.730486,12.073976516723633,6.141858100891113,-23.47565650939941,unknown,POSCTL,,,,26,,ACTIVE,77.34191489219666,0.0,-0.03,-0.92,12,1,15,2,17760768,0,13
1732729754.3957,0.0,True,benign,-0.0065762917511165,-0.0502277463674545,3.006621837615967,20.16,33,14.519,0,0,False,,,,65,94,4,22,0.0313363261520862,177,77.157,,39.1424099,,-76.7304826,False,0.8520443879997401,78.064,,39.1424095,,-76.7304861,0.431,,39.1424095,,-76.7304861,12.073976516723633,6.141858100891113,-23.47565650939941,unknown,POSCTL,,,,26,,ACTIVE,1732729677.053785,-0.02,-0.01,-1.12,12,1,15,2,17760768,0,13
1732729754.4950829,0.0,True,benign,-0.0081436820328235,-0.0486587174236774,2.9805707931518555,20.16,33,14.519,0,0,False,,,,65,94,4,22,0.0239284820854663,171,77.157,,39.1424099,,-76.7304826,False,0.9324227950000932,78.132,,39.1424095,,-76.7304861,0.498,,39.1424095,,-76.7304861,11.965445518493652,6.137866020202637,-23.47274780273437,unknown,POSCTL,,,,26,,ACTIVE,77.44129776954651,-0.03,0.0,-1.19,12,1,15,2,17760768,0,13
1732729754.5955937,0.0,True,lidar_spoofer,0.0038937926292419,-0.0423103421926498,2.9577908515930176,20.16,33,14.519,0,0,False,,,,62,89,4,22,0.0239284820854663,171,77.157,,39.1424099,,-76.7304826,False,0.0483448149998366,78.284,,39.1424094,,-76.7304862,0.651,,39.1424094,,-76.7304862,11.84391975402832,6.130780220031738,-23.47418594360352,unknown,POSCTL,,,,20,,ACTIVE,1732729677.154296,-0.04,0.01,-1.24,12,1,15,2,17760768,0,13
1732729754.6953728,0.0,True,lidar_spoofer,0.0074973898008465,-0.0426631309092044,2.944446086883545,20.16,33,14.519,0,0,False,,,,65,93,4,22,0.0239284820854663,171,77.157,,39.1424099,,-76.7304826,False,0.1288388339999073,78.37,,39.1424095,,-76.7304862,0.737,,39.1424095,,-76.7304862,11.711695671081545,6.126369953155518,-23.47272300720215,unknown,POSCTL,,,,54,,ACTIVE,77.54107689857483,-0.04,0.02,-1.25,12,1,15,2,17760768,0,13
1732729754.7961442,0.0,True,lidar_spoofer,0.0033933438826352,-0.0367460884153842,2.9364898204803467,23.92,29,14.315,0,0,False,,,,65,93,4,22,0.060106411576271,168,77.157,,39.1424099,,-76.7304826,False,0.2503905739995389,78.438,,39.1424095,,-76.7304862,0.805,,39.1424095,,-76.7304862,11.58129596710205,6.125453472137451,-23.4683780670166,unknown,POSCTL,,,,56,,ACTIVE,1732729677.255067,-0.05,0.02,-1.27,12,1,15,2,17760768,0,13
1732729754.8961065,0.0,True,lidar_spoofer,0.0085586039349436,-0.0356402732431888,2.933542013168335,23.92,29,14.315,0,0,False,,,,68,98,4,21,0.060106411576271,168,77.157,,39.1424099,,-76.7304826,False,0.3484547589996509,78.593,,39.1424095,,-76.7304862,0.959,,39.1424095,,-76.7304862,11.450697898864746,6.126173973083496,-23.46534538269043,unknown,POSCTL,,,,4,,ACTIVE,77.6410391330719,-0.06,0.02,-1.28,12,1,15,2,17760768,0,13
1732729754.997216,0.0,True,lidar_spoofer,0.0128742028027772,-0.0367084667086601,2.9356343746185303,23.92,29,14.315,0,0,False,,,,65,93,4,20,0.060106411576271,168,77.157,,39.1424099,,-76.7304826,False,0.4529717219993472,78.682,,39.1424095,,-76.7304862,1.048,,39.1424095,,-76.7304862,11.324995994567873,6.126895427703857,-23.46092796325684,unknown,POSCTL,,,,17,,ACTIVE,1732729677.3561769,-0.06,0.02,-1.29,12,1,15,2,17760768,0,13
1732729755.0965643,0.0,True,lidar_spoofer,0.0135919218882918,-0.0394038222730159,2.938810110092163,23.92,29,14.315,0,0,False,,,,65,93,4,20,0.060106411576271,168,77.157,,39.1424099,,-76.7304826,False,0.5478253149994998,78.842,,39.1424096,,-76.7304862,1.209,,39.1424096,,-76.7304862,11.183768272399902,6.126507759094238,-23.454513549804688,unknown,POSCTL,,,,61,,ACTIVE,77.74038767814636,-0.05,0.02,-1.29,12,1,15,2,17760768,0,13
1732729755.1968577,0.0,True,lidar_spoofer,0.0125397751107811,-0.0405792593955993,2.94957971572876,23.92,29,14.315,0,0,False,,,,68,98,4,21,0.0543880984187126,168,77.157,,39.1424099,,-76.7304826,False,0.6418538889993215,78.92,,39.1424097,,-76.7304862,1.287,,39.1424097,,-76.7304862,11.048190116882324,6.126214981079102,-23.44606208801269,unknown,POSCTL,,,,78,,ACTIVE,1732729677.45647,-0.05,0.02,-1.29,12,1,15,2,17760768,0,13
1732729755.2968757,0.0,True,lidar_spoofer,0.0107295298948884,-0.0381332971155643,2.960547685623169,23.92,29,14.315,0,0,False,,,,65,93,4,21,0.0543880984187126,168,77.157,,39.1424099,,-76.7304826,False,0.7476908700000422,79.089,,39.1424098,,-76.7304862,1.455,,39.1424098,,-76.7304862,11.048190116882324,6.126214981079102,-23.44606208801269,unknown,POSCTL,,,,75,,ACTIVE,77.84040570259094,-0.02,0.02,-1.32,12,1,15,2,17760768,0,13
1732729755.3967366,0.0,True,lidar_spoofer,0.0062422254122793,-0.037232968956232,2.972691297531128,23.92,29,14.315,0,0,False,,,,65,93,4,21,0.0543880984187126,168,77.157,,39.1424099,,-76.7304826,False,0.8500074260000474,79.172,,39.1424099,,-76.7304862,1.539,,39.1424099,,-76.7304862,10.906170845031738,6.124507427215576,-23.429649353027344,unknown,POSCTL,,,,116,,ACTIVE,1732729677.556331,-0.02,0.02,-1.32,12,1,15,2,17760768,0,13
1732729755.497107,0.0,True,lidar_spoofer,0.0051761828362941,-0.0383070819079875,2.980604410171509,24.76,25,14.199,0,0,False,,,,65,93,4,21,0.0426137559115886,170,77.157,,39.1424099,,-76.7304826,False,0.9377790549997372,79.335,,39.1424101,,-76.7304862,1.702,,39.1424101,,-76.7304862,10.781533241271973,6.1262078285217285,-23.41672706604004,unknown,POSCTL,,,,8,,ACTIVE,77.94077610969543,-0.02,0.02,-1.34,12,1,15,2,17760768,0,13
1732729755.5969884,0.0,True,lidar_spoofer,0.0039906473830342,-0.0350498668849468,2.993446111679077,24.76,25,14.199,0,0,False,,,,65,93,4,21,0.0426137559115886,170,77.157,,39.1424099,,-76.7304826,False,0.0387926290004543,79.423,,39.1424102,,-76.7304862,1.79,,39.1424102,,-76.7304862,10.631510734558104,6.1286725997924805,-23.39561653137207,unknown,POSCTL,,,,0,,ACTIVE,1732729677.6562123,-0.02,0.02,-1.35,12,1,15,2,17760768,0,13
1732729755.697146,0.0,True,lidar_spoofer,0.0038468809798359,-0.034503199160099,3.007370710372925,24.76,25,14.199,0,0,False,,,,65,93,4,22,0.0426137559115886,170,77.157,,39.1424099,,-76.7304826,False,0.1329905180000423,79.587,,39.1424103,,-76.7304861,1.954,,39.1424103,,-76.7304861,10.499120712280272,6.134006023406982,-23.381580352783203,unknown,POSCTL,,,,94,,ACTIVE,78.04093360900879,-0.02,0.02,-1.35,12,1,15,2,17760768,0,13
1732729755.7974868,0.0,True,lidar_spoofer,0.0015819690888747,-0.0345353931188583,3.019516944885254,24.76,25,14.199,0,0,False,,,,62,89,4,22,0.0356300398707389,173,77.157,,39.1424099,,-76.7304826,False,0.2404072219997033,79.675,,39.1424104,,-76.7304861,2.042,,39.1424104,,-76.7304861,10.345797538757324,6.139252662658691,-23.366056442260746,unknown,POSCTL,,,,74,,ACTIVE,1732729677.7565532,-0.02,0.02,-1.36,12,1,15,2,17760768,0,13
1732729755.898299,0.0,True,lidar_spoofer,0.0004229594487696,-0.034955658018589,3.0318751335144043,24.76,25,14.199,0,0,False,,,,62,89,4,22,0.0356300398707389,173,77.157,,39.1424099,,-76.7304826,False,0.3423778140004287,79.854,,39.1424106,,-76.730486,2.221,,39.1424106,,-76.730486,10.2137451171875,6.143872261047363,-23.35159492492676,unknown,POSCTL,,,,84,,ACTIVE,78.14174580574036,-0.03,0.01,-1.38,12,1,15,2,17760768,0,13
1732729755.997786,0.0,True,lidar_spoofer,-0.0004863430804107,-0.0362343154847621,3.0435004234313965,24.76,25,14.199,0,0,False,,,,62,89,4,22,0.0356300398707389,173,77.157,,39.1424099,,-76.7304826,False,0.4280137770001602,79.933,,39.1424106,,-76.7304859,2.3,,39.1424106,,-76.7304859,10.062644958496094,6.152079582214356,-23.337085723876957,unknown,POSCTL,,,,218,,ACTIVE,1732729677.8560402,-0.04,0.01,-1.38,12,1,15,2,17760768,0,13
1732729756.0979824,0.0,True,lidar_spoofer,-0.0021588176023215,-0.0386006720364093,3.0532009601593018,24.76,25,14.199,0,0,False,,,,62,89,4,22,0.0356300398707389,173,77.157,,39.1424099,,-76.7304826,False,0.5406205369999952,80.03,,39.1424107,,-76.7304859,2.397,,39.1424107,,-76.7304859,10.062644958496094,6.152079582214356,-23.337085723876957,unknown,POSCTL,,,,77,,ACTIVE,78.2419421672821,-0.04,0.01,-1.39,12,1,15,2,17760768,0,13
1732729756.198119,0.0,True,lidar_spoofer,7.390804967144504e-05,-0.0362484194338321,3.063349485397339,24.42,23,14.145,0,0,False,,,,66,98,4,19,0.0464152507483959,175,77.157,,39.1424099,,-76.7304826,False,0.6322438139995938,80.209,,39.1424109,,-76.7304858,2.576,,39.1424109,,-76.7304858,9.909452438354492,6.160510540008545,-23.320470809936523,unknown,POSCTL,,,,216,,ACTIVE,1732729677.9561768,-0.03,0.01,-1.39,12,1,15,2,17760768,0,13
1732729756.2982671,0.0,True,lidar_spoofer,-0.0023114187642931,-0.0325301550328731,3.071598768234253,24.42,23,14.145,0,0,False,,,,66,98,4,19,0.0464152507483959,175,77.157,,39.1424099,,-76.7304826,False,0.727367962000244,80.303,,39.142411,,-76.7304857,2.67,,39.142411,,-76.7304857,9.74564266204834,6.171041011810303,-23.30156135559082,unknown,POSCTL,,,,124,,ACTIVE,78.34209036827087,-0.04,0.01,-1.38,12,1,15,2,17760768,0,13
1732729756.3984048,0.0,True,lidar_spoofer,-0.0044884704984724,-0.032249379903078,3.078105926513672,24.42,23,14.145,0,0,False,,,,66,98,4,21,0.0464152507483959,175,77.157,,39.1424099,,-76.7304826,False,0.8320712220001951,80.489,,39.1424111,,-76.7304855,2.856,,39.1424111,,-76.7304855,9.594058990478516,6.187230587005615,-23.28783798217773,unknown,POSCTL,,,,137,,ACTIVE,1732729678.0563145,-0.04,0.02,-1.38,12,1,15,2,17760768,0,13
1732729756.4994946,0.0,True,lidar_spoofer,-0.0034948729444295,-0.0275460630655288,3.0845863819122314,24.42,23,14.145,0,0,False,,,,66,98,4,20,0.0543217957019805,176,77.157,,39.1424099,,-76.7304826,False,0.9425140359999205,80.595,,39.1424112,,-76.7304853,2.961,,39.1424112,,-76.7304853,9.441682815551758,6.202556610107422,-23.2773494720459,unknown,POSCTL,,,,221,,ACTIVE,78.44318008422852,-0.04,0.02,-1.41,12,1,15,2,17760768,0,13
1732729756.5986762,0.0,True,lidar_spoofer,-0.0038233094383031,-0.0274141486734151,3.088318347930908,24.42,23,14.145,0,0,False,,,,66,98,4,20,0.0543217957019805,176,77.157,,39.1424099,,-76.7304826,False,0.044101092999881,80.777,,39.1424114,,-76.7304851,3.144,,39.1424114,,-76.7304851,9.275168418884276,6.222639560699463,-23.26178359985352,unknown,POSCTL,,,,58,,ACTIVE,1732729678.155496,-0.06,0.03,-1.4,12,1,15,2,17760768,0,13
1732729756.698875,0.0,True,lidar_spoofer,-0.0049761123955249,-0.0207823626697063,3.091792106628418,24.42,23,14.145,0,0,False,,,,65,93,4,22,0.0543217957019805,176,77.157,,39.1424099,,-76.7304826,False,0.1444689820000348,80.878,,39.1424114,,-76.7304849,3.244,,39.1424114,,-76.7304849,9.12159824371338,6.246829032897949,-23.2500114440918,unknown,POSCTL,,,,260,,ACTIVE,78.54337882995605,-0.07,0.02,-1.4,12,1,15,2,17760768,0,13
1732729756.7996926,0.0,True,lidar_spoofer,-0.0052778888493776,-0.0200100447982549,3.0938563346862797,24.42,23,14.145,0,0,False,,,,65,93,4,20,0.0543217957019805,176,77.157,,39.1424099,,-76.7304826,False,0.248482777999925,81.071,,39.1424115,,-76.7304846,3.437,,39.1424115,,-76.7304846,8.965620994567871,6.268280506134033,-23.24706077575684,unknown,POSCTL,,,,166,,ACTIVE,1732729678.2563138,-0.08,0.02,-1.41,12,1,15,2,17760768,0,13
1732729756.8991463,0.0,True,lidar_spoofer,-0.0044632963836193,-0.0178821887820959,3.095481634140014,24.11,22,14.117,0,0,False,,,,64,94,4,20,0.0915704146027565,177,77.157,,39.1424099,,-76.7304826,False,0.3190453709994472,81.166,,39.1424115,,-76.7304844,3.533,,39.1424115,,-76.7304844,8.965620994567871,6.268280506134033,-23.24706077575684,unknown,POSCTL,,,,323,,ACTIVE,78.6428325176239,-0.09,0.01,-1.42,12,1,15,2,17760768,0,13
1732729757.0001924,0.0,True,lidar_spoofer,-0.0039895041845738,-0.0149580352008342,3.097966194152832,24.11,22,14.117,0,0,False,,,,64,94,4,21,0.0915704146027565,177,77.157,,39.1424099,,-76.7304826,False,0.4492353149998962,81.347,,39.1424116,,-76.730484,3.714,,39.1424116,,-76.730484,8.795364379882812,6.294817924499512,-23.2374267578125,unknown,POSCTL,,,,309,,ACTIVE,1732729678.35736,-0.11,0.0,-1.42,12,1,15,2,17760768,0,13
1732729757.0993743,0.0,True,lidar_spoofer,-0.0031171191949397,-0.0117584709078073,3.100027561187744,24.11,22,14.117,0,0,False,,,,64,94,4,21,0.0915704146027565,177,77.157,,39.1424099,,-76.7304826,False,0.5255285369994454,81.452,,39.1424116,,-76.7304838,3.819,,39.1424116,,-76.7304838,8.637062072753906,6.324209213256836,-23.23128890991211,unknown,POSCTL,,,,215,,ACTIVE,78.74201440811157,-0.11,0.0,-1.42,12,1,15,2,17760768,0,13
1732729757.2003434,0.0,True,lidar_spoofer,-0.0021827714517712,-0.0091420859098434,3.101693153381348,24.11,22,14.117,0,0,False,,,,64,94,4,19,0.1274202018976211,177,77.157,,39.1424099,,-76.7304826,False,0.6491152039998269,81.649,,39.1424116,,-76.7304835,4.016,,39.1424116,,-76.7304835,8.469904899597168,6.352551937103272,-23.228485107421875,unknown,POSCTL,,,,283,,ACTIVE,1732729678.458329,-0.12,-0.02,-1.41,12,1,15,2,17760768,0,13
1732729757.299687,0.0,True,lidar_spoofer,-0.0035269081126898,-0.0116969291120767,3.102789640426636,24.11,22,14.117,0,0,False,,,,66,102,4,20,0.1274202018976211,177,77.157,,39.1424099,,-76.7304826,False,0.7458887040002082,81.746,,39.1424116,,-76.7304833,4.113,,39.1424116,,-76.7304833,8.31563663482666,6.375283241271973,-23.23021125793457,unknown,POSCTL,,,,55,,ACTIVE,78.8413577079773,-0.13,-0.03,-1.43,12,1,15,2,17760768,0,13
1732729757.3999755,0.0,True,lidar_spoofer,-0.0007606521248817,-0.0069133923389017,3.104501247406006,24.11,22,14.117,0,0,False,,,,66,102,4,20,0.1274202018976211,177,77.157,,39.1424099,,-76.7304826,False,0.8470926109994252,81.831,,39.1424116,,-76.7304831,4.198,,39.1424116,,-76.7304831,8.16058349609375,6.402464389801025,-23.22808837890625,unknown,POSCTL,,,,168,,ACTIVE,1732729678.5586178,-0.13,-0.04,-1.43,12,1,15,2,17760768,0,13
1732729757.4999597,0.0,True,lidar_spoofer,0.0001962387323146,-0.0046174698509275,3.1058523654937744,23.98,20,14.055,0,0,False,,,,66,102,4,20,0.1274202018976211,177,77.157,,39.1424099,,-76.7304826,False,0.9468864069995108,82.037,,39.1424117,,-76.7304827,4.404,,39.1424117,,-76.7304827,7.999289512634277,6.433340549468994,-23.226316452026367,unknown,POSCTL,,,,34,,ACTIVE,78.94134163856506,-0.14,-0.05,-1.43,12,1,15,2,17760768,0,13
1732729757.60001,0.0,True,lidar_spoofer,0.0023322280030697,-0.0031904685311019,3.107707023620605,23.98,20,14.055,0,0,False,,,,66,102,4,19,0.1597212851047516,177,77.157,,39.1424099,,-76.7304826,False,0.0433777779999218,82.131,,39.1424117,,-76.7304824,4.497,,39.1424117,,-76.7304824,7.83071756362915,6.467838764190674,-23.2275333404541,unknown,POSCTL,,,,365,,ACTIVE,1732729678.6586685,-0.15,-0.06,-1.44,12,1,15,2,17760768,0,13
1732729757.7010229,0.0,True,lidar_spoofer,0.0044111520983278,0.0019131959415972,3.109323740005493,23.98,20,14.055,0,0,False,,,,66,102,4,19,0.1597212851047516,177,77.157,,39.1424099,,-76.7304826,False,0.1535444629998892,82.328,,39.1424116,,-76.730482,4.694,,39.1424116,,-76.730482,7.658995151519775,6.502946853637695,-23.23092269897461,unknown,POSCTL,,,,176,,ACTIVE,79.04235458374023,-0.16,-0.08,-1.45,12,1,15,2,17760768,0,13
1732729757.8004632,0.0,True,lidar_spoofer,0.0037519882898777,0.0059732198715209,3.1106128692626958,23.98,20,14.055,0,0,False,,,,72,104,4,21,0.1597212851047516,177,77.157,,39.1424099,,-76.7304826,False,0.2451787039999544,82.434,,39.1424116,,-76.7304817,4.801,,39.1424116,,-76.7304817,7.658995151519775,6.502946853637695,-23.23092269897461,unknown,POSCTL,,,,100,,ACTIVE,1732729678.7581086,-0.16,-0.08,-1.45,12,1,15,2,17760768,0,13
1732729757.9012933,0.0,True,lidar_spoofer,0.0044568236917257,0.0071528712287545,3.112177610397339,23.98,20,14.055,0,0,False,,,,66,102,4,20,0.1901483684778213,178,77.157,,39.1424099,,-76.7304826,False,0.3537415000000692,82.614,,39.1424116,,-76.7304813,4.98,,39.1424116,,-76.7304813,7.502923488616943,6.533576965332031,-23.234682083129883,unknown,POSCTL,,,,454,,ACTIVE,79.14318466186523,-0.16,-0.11,-1.45,12,1,15,2,17760768,0,13
1732729758.00073,0.0,True,lidar_spoofer,0.0076104220934212,0.0091938376426696,3.1143693923950195,23.98,20,14.055,0,0,False,,,,66,102,4,19,0.1901483684778213,178,77.157,,39.1424099,,-76.7304826,False,0.4464585919995443,82.722,,39.1424115,,-76.7304812,5.088,,39.1424115,,-76.7304812,7.335998058319092,6.557474613189697,-23.23942756652832,unknown,POSCTL,,,,31,,ACTIVE,1732729678.8575454,-0.16,-0.14,-1.45,12,1,15,2,17760768,0,13
1732729758.1008372,0.0,True,lidar_spoofer,0.0086474139243364,0.0055096456781029,3.1149675846099854,23.98,20,14.055,0,0,False,,,,66,102,4,19,0.1901483684778213,178,77.157,,39.1424099,,-76.7304826,False,0.5424877779996677,82.916,,39.1424115,,-76.7304808,5.283,,39.1424115,,-76.7304808,7.172491073608398,6.581398010253906,-23.246448516845703,unknown,POSCTL,,,,6,,ACTIVE,79.2432918548584,-0.16,-0.17,-1.48,12,1,15,2,17760768,0,13
1732729758.20177,0.0,True,lidar_spoofer,0.0098007973283529,0.0076685901731252,3.1160614490509038,25.08,18,13.987,0,0,False,,,,66,102,4,20,0.253471702337265,178,77.157,,39.1424099,,-76.7304826,False,0.654907889000242,83.026,,39.1424115,,-76.7304806,5.393,,39.1424115,,-76.7304806,6.994104862213135,6.6098175048828125,-23.24997329711914,unknown,POSCTL,,,,293,,ACTIVE,1732729678.9584782,-0.15,-0.19,-1.53,12,1,15,2,17760768,0,13
1732729758.3011696,0.0,True,lidar_spoofer,0.0090098287910223,0.0087950807064771,3.116447687149048,25.08,18,13.987,0,0,False,,,,64,101,4,19,0.253471702337265,178,77.157,,39.1424099,,-76.7304826,False,0.7528171849999126,83.12,,39.1424114,,-76.7304805,5.487,,39.1424114,,-76.7304805,6.827282428741455,6.631609916687012,-23.251747131347656,unknown,POSCTL,,,,261,,ACTIVE,79.34269142150879,-0.15,-0.2,-1.57,12,1,15,2,17760768,0,13
1732729758.4014351,0.0,True,lidar_spoofer,0.0058887377381324,0.0065747620537877,3.116844892501831,25.08,18,13.987,0,0,False,,,,66,106,4,20,0.253471702337265,178,77.157,,39.1424099,,-76.7304826,False,0.8360432219997165,83.352,,39.1424114,,-76.7304801,5.719,,39.1424114,,-76.7304801,6.6320414543151855,6.663120746612549,-23.25249671936035,unknown,POSCTL,,,,42,,ACTIVE,1732729679.0587437,-0.14,-0.21,-1.66,12,1,15,2,17760768,0,13
1732729758.5014205,0.0,True,lidar_spoofer,0.0051555205136537,0.0076852664351463,3.117530584335327,25.08,18,13.987,0,0,False,,,,66,106,4,20,0.253471702337265,178,77.157,,39.1424099,,-76.7304826,False,0.9525529439997626,83.575,,39.1424114,,-76.7304799,5.941,,39.1424114,,-76.7304799,6.6320414543151855,6.663120746612549,-23.25249671936035,unknown,POSCTL,,,,487,,ACTIVE,79.44267654418945,-0.14,-0.25,-1.72,12,1,15,2,17760768,0,13
1732729758.6014557,0.0,True,lidar_spoofer,0.0055346377193927,0.0064337789081037,3.118215560913086,25.08,18,13.987,0,0,False,,,,64,101,4,20,0.2974273562431335,178,77.157,,39.1424099,,-76.7304826,False,0.0432537590004358,83.704,,39.1424114,,-76.7304798,6.071,,39.1424114,,-76.7304798,6.435909748077393,6.674529075622559,-23.256837844848636,unknown,POSCTL,,,,39,,ACTIVE,1732729679.1587791,-0.14,-0.27,-1.76,12,1,15,2,17760768,0,13
1732729758.7017756,0.0,True,lidar_spoofer,0.0069294665008783,0.004310393705964,3.1184747219085693,25.08,18,13.987,0,0,False,,,,64,101,4,20,0.2974273562431335,178,77.157,,39.1424099,,-76.7304826,False,0.1525243890000638,83.831,,39.1424114,,-76.7304796,6.198,,39.1424114,,-76.7304796,6.240269660949707,6.6918463706970215,-23.260089874267575,unknown,POSCTL,,,,191,,ACTIVE,79.54299640655518,-0.14,-0.28,-1.79,12,1,15,2,17760768,0,13
1732729758.8019702,0.0,True,lidar_spoofer,0.0060342215001583,0.0063349246047437,3.118770837783813,25.08,18,13.987,0,0,False,,,,64,101,4,20,0.2974273562431335,178,77.157,,39.1424099,,-76.7304826,False,0.2421455550002065,84.07,,39.1424113,,-76.7304794,6.437,,39.1424113,,-76.7304794,6.039910316467285,6.713290691375732,-23.26308822631836,unknown,POSCTL,,,,281,,ACTIVE,1732729679.2589738,-0.14,-0.31,-1.85,12,1,15,2,17760768,0,13
1732729758.9024982,0.0,True,lidar_spoofer,0.0078758522868156,0.0088303163647651,3.119224786758423,26.23,17,13.948,0,0,False,,,,64,101,4,20,0.3583990931510925,178,77.157,,39.1424099,,-76.7304826,False,0.3431252959999256,84.191,,39.1424113,,-76.7304793,6.558,,39.1424113,,-76.7304793,5.830146312713623,6.72660493850708,-23.268272399902344,unknown,POSCTL,,,,111,,ACTIVE,79.64352440834045,-0.15,-0.31,-1.88,12,1,15,2,17760768,0,13
1732729759.0022333,0.0,True,lidar_spoofer,0.0089646968990564,0.008052447810769,3.1204307079315186,26.23,17,13.948,0,0,False,,,,64,101,4,20,0.3583990931510925,178,77.157,,39.1424099,,-76.7304826,False,0.4470828140001686,84.447,,39.1424113,,-76.7304791,6.813,,39.1424113,,-76.7304791,5.601797103881836,6.739721775054932,-23.27256393432617,unknown,POSCTL,,,,269,,ACTIVE,1732729679.3587089,-0.15,-0.35,-1.96,12,1,15,2,17760768,0,13
1732729759.102384,0.0,True,lidar_spoofer,0.0107659036293625,0.0039083212614059,3.1213526725769043,26.23,17,13.948,0,0,False,,,,64,101,4,20,0.3583990931510925,178,77.157,,39.1424099,,-76.7304826,False,0.5492872770000758,84.598,,39.1424112,,-76.730479,6.965,,39.1424112,,-76.730479,5.399694442749023,6.751296520233154,-23.276439666748047,unknown,POSCTL,,,,191,,ACTIVE,79.7436752319336,-0.14,-0.36,-2.01,12,1,15,2,17760768,0,13
1732729759.202668,0.0,True,lidar_spoofer,0.0109830871224403,0.0015851929783821,3.1225907802581787,26.23,17,13.948,0,0,False,,,,64,101,4,20,0.3583990931510925,178,77.157,,39.1424099,,-76.7304826,False,0.6551014990000112,84.866,,39.1424111,,-76.7304789,7.233,,39.1424111,,-76.7304789,5.15631628036499,6.7542338371276855,-23.285144805908203,unknown,POSCTL,,,,44,,ACTIVE,1732729679.4589927,-0.15,-0.38,-2.1,12,1,15,2,17760768,0,13
1732729759.3026912,0.0,True,lidar_spoofer,0.0126161873340606,0.0029144221916794,3.123460292816162,26.23,17,13.948,0,0,False,,,,64,101,4,20,0.4191245436668396,178,77.157,,39.1424099,,-76.7304826,False,0.7540034620005827,85.015,,39.1424111,,-76.7304789,7.381,,39.1424111,,-76.7304789,4.927639484405518,6.765124320983887,-23.29255485534668,unknown,POSCTL,,,,512,,ACTIVE,79.84369850158691,-0.14,-0.39,-2.14,12,1,15,2,17760768,0,13
1732729759.4030714,0.0,True,lidar_spoofer,0.0122176306322216,0.003352649975568,3.124363660812378,26.23,17,13.948,0,0,False,,,,64,100,4,20,0.4191245436668396,178,77.157,,39.1424099,,-76.7304826,False,0.8557510919999913,85.303,,39.142411,,-76.7304787,7.669,,39.142411,,-76.7304787,4.927639484405518,6.765124320983887,-23.29255485534668,unknown,POSCTL,,,,450,,ACTIVE,1732729679.559373,-0.14,-0.4,-2.23,12,1,15,2,17760768,0,13
1732729759.5032425,0.0,True,lidar_spoofer,0.0123670576140284,0.0032565193250775,3.1261627674102783,26.23,17,13.948,0,0,False,,,,64,100,4,20,0.4191245436668396,178,77.157,,39.1424099,,-76.7304826,False,0.9481714250005098,85.453,,39.142411,,-76.7304787,7.82,,39.142411,,-76.7304787,4.678543567657471,6.771431922912598,-23.298402786254883,unknown,POSCTL,,,,336,,ACTIVE,79.94386959075928,-0.13,-0.4,-2.26,12,1,15,2,17760768,0,13
1732729759.6035202,0.0,True,lidar_spoofer,0.0123402588069438,0.0009934173431247,3.128173351287842,27.39,16,13.878,0,0,False,,,,64,100,4,20,0.4475146830081939,179,77.157,,39.1424099,,-76.7304826,False,0.0304241109997747,85.758,,39.142411,,-76.7304785,8.124,,39.142411,,-76.7304785,4.409462928771973,6.779937267303467,-23.29983901977539,unknown,POSCTL,,,,510,,ACTIVE,1732729679.6596506,-0.13,-0.42,-2.35,12,1,15,2,17760768,0,13
1732729759.703498,0.0,True,lidar_spoofer,0.01137375831604,0.001601233612746,3.129559278488159,27.39,16,13.878,0,0,False,,,,64,100,4,19,0.4475146830081939,179,77.633,,39.1424099,,-76.7304848,False,0.1248519820001092,85.918,,39.142411,,-76.7304785,8.284,,39.142411,,-76.7304785,4.164370059967041,6.791244983673096,-23.30348014831543,unknown,POSCTL,,,,301,,ACTIVE,80.04384756088257,-0.13,-0.43,-2.41,12,1,15,2,17760768,0,13
1732729759.8035686,0.0,True,lidar_spoofer,0.0123699018731713,-0.000968532229308,3.131274461746216,27.39,16,13.878,0,0,False,,,,68,109,4,19,0.4475146830081939,179,77.633,,39.1424099,,-76.7304848,False,0.2317980190000526,86.233,,39.1424109,,-76.7304785,8.6,,39.1424109,,-76.7304785,3.884179830551148,6.794441223144531,-23.306236267089844,unknown,POSCTL,,,,154,,ACTIVE,1732729679.759721,-0.12,-0.44,-2.49,12,1,15,2,17760768,0,13
1732729759.904761,0.0,True,lidar_spoofer,0.0113098658621311,-0.0006060794694349,3.131898641586304,27.39,16,13.878,0,0,False,,,,68,109,4,20,0.4475146830081939,179,77.633,,39.1424099,,-76.7304848,False,0.3354292219992203,86.402,,39.1424109,,-76.7304783,8.769,,39.1424109,,-76.7304783,3.603964328765869,6.805963516235352,-23.307336807250977,unknown,POSCTL,,,,665,,ACTIVE,80.1450400352478,-0.11,-0.44,-2.54,12,1,15,2,17760768,0,13
1732729760.0041578,0.0,True,lidar_spoofer,0.0088933445513248,0.0021238040644675,3.133641242980957,27.39,16,13.878,0,0,False,,,,68,109,4,20,0.4589797258377075,179,77.633,,39.1424099,,-76.7304848,False,0.4318243519992393,86.568,,39.1424109,,-76.7304784,8.935,,39.1424109,,-76.7304784,3.315742492675781,6.808552265167236,-23.30809593200684,unknown,POSCTL,,,,771,,ACTIVE,1732729679.8591175,-0.11,-0.44,-2.61,12,1,15,2,17760768,0,13
1732729760.104182,0.0,True,lidar_spoofer,0.009762686677277,0.002037817146629,3.1345784664154053,27.39,16,13.878,0,0,False,,,,64,100,4,20,0.4589797258377075,179,77.633,,39.1424099,,-76.7304848,False,0.5264505369996186,86.933,,39.1424109,,-76.7304782,9.3,,39.1424109,,-76.7304782,3.0384249687194824,6.819499492645264,-23.30812644958496,unknown,POSCTL,,,,712,,ACTIVE,80.24506425857544,-0.11,-0.45,-2.71,12,1,15,2,17760768,0,13
1732729760.2043226,0.0,True,lidar_spoofer,0.0093023553490638,-0.0003416005638428,3.135805368423462,27.39,16,13.878,0,0,False,,,,64,100,4,21,0.4589797258377075,179,77.633,,39.1424099,,-76.7304848,False,0.6226021849997778,87.111,,39.1424109,,-76.7304781,9.478,,39.1424109,,-76.7304781,3.0384249687194824,6.819499492645264,-23.30812644958496,unknown,POSCTL,,,,809,,ACTIVE,1732729679.9592583,-0.11,-0.46,-2.72,12,1,15,2,17760768,0,13
1732729760.3045466,0.0,True,lidar_spoofer,0.0077263666316866,-0.0005565243773162,3.1376335620880127,27.22,16,13.886,0,0,False,,,,62,94,4,22,0.4846377670764923,179,77.633,,39.1424099,,-76.7304848,False,0.7248042589999386,87.466,,39.1424109,,-76.7304782,9.833,,39.1424109,,-76.7304782,2.7251925468444824,6.821019649505615,-23.311891555786133,unknown,POSCTL,,,,434,,ACTIVE,80.34528827667236,-0.11,-0.47,-2.68,12,1,15,2,17760768,0,13
1732729760.404663,0.0,True,lidar_spoofer,0.0064692636951804,0.0009780856780707,3.139556169509888,27.22,16,13.886,0,0,False,,,,59,89,4,22,0.4846377670764923,179,77.633,,39.1424099,,-76.7304848,False,0.8288163329998497,87.646,,39.1424109,,-76.7304781,10.013,,39.1424109,,-76.7304781,2.42044448852539,6.823117256164551,-23.31334686279297,unknown,POSCTL,,,,335,,ACTIVE,1732729680.059375,-0.11,-0.47,-2.66,12,1,15,2,17760768,0,13
1732729760.5056448,0.0,True,lidar_spoofer,0.0069662011228501,0.005303306505084,3.1414895057678223,27.22,16,13.886,0,0,False,,,,59,89,4,22,0.4846377670764923,179,77.633,,39.1424099,,-76.7304848,False,0.9361945179998656,87.995,,39.1424109,,-76.730478,10.362,,39.1424109,,-76.730478,2.135279893875122,6.834690093994141,-23.31378936767578,unknown,POSCTL,,,,282,,ACTIVE,80.44626975059509,-0.11,-0.47,-2.65,12,1,15,2,17760768,0,13
1732729760.6049592,0.0,True,lidar_spoofer,0.007654552347958,0.0072801145724952,-3.140736818313598,27.22,16,13.886,0,0,False,,,,59,89,4,22,0.5030059814453125,180,77.633,,39.1424099,,-76.7304848,False,0.0567725370001426,88.188,,39.1424109,,-76.730478,10.555,,39.1424109,,-76.730478,1.8478142023086548,6.838263511657715,-23.31692314147949,unknown,POSCTL,,,,676,,ACTIVE,1732729680.1586895,-0.11,-0.48,-2.66,12,1,15,2,17760768,0,13
1732729760.7050192,0.0,True,lidar_spoofer,0.0091552250087261,0.0044358619488775,-3.139747381210327,27.22,16,13.886,0,0,False,,,,62,93,4,21,0.5030059814453125,180,77.633,,39.1424099,,-76.7304848,False,0.1544336659999317,88.53,,39.1424108,,-76.7304778,10.897,,39.1424108,,-76.7304778,1.5298150777816772,6.851900577545166,-23.320526123046875,unknown,POSCTL,,,,389,,ACTIVE,80.5463297367096,-0.1,-0.49,-2.68,12,1,15,2,17760768,0,13
1732729760.8052042,0.0,True,lidar_spoofer,0.0085864933207631,0.0022177500650286,-3.1377530097961426,27.22,16,13.886,0,0,False,,,,62,93,4,22,0.5030059814453125,180,77.633,,39.1424099,,-76.7304848,False,0.2603935370007093,88.722,,39.1424108,,-76.7304777,11.088,,39.1424108,,-76.7304777,1.221078872680664,6.864203929901123,-23.32297134399414,unknown,POSCTL,,,,470,,ACTIVE,1732729680.2588744,-0.1,-0.49,-2.68,12,1,15,2,17760768,0,13
1732729760.9061272,0.0,True,lidar_spoofer,0.0061553725972771,0.0051464023999869,-3.1361563205718994,27.22,16,13.886,0,0,False,,,,59,89,4,22,0.5030059814453125,180,77.633,,39.1424099,,-76.7304848,False,0.3625218880006287,88.907,,39.1424108,,-76.7304775,11.274,,39.1424108,,-76.7304775,1.221078872680664,6.864203929901123,-23.32297134399414,unknown,POSCTL,,,,720,,ACTIVE,80.64725279808044,-0.1,-0.5,-2.68,12,1,15,2,17760768,0,13
1732729761.0061634,0.0,True,lidar_spoofer,0.0100932167842984,0.0056668245233595,-3.1349685192108154,26.99,15,13.876,0,0,False,,,,59,89,4,22,0.5309509038925171,180,77.633,,39.1424099,,-76.7304848,False,0.4598308880003969,89.248,,39.1424107,,-76.7304775,11.615,,39.1424107,,-76.7304775,0.927150547504425,6.874319553375244,-23.32830810546875,unknown,POSCTL,,,,345,,ACTIVE,1732729680.3589106,-0.12,-0.51,-2.69,12,1,15,2,17760768,0,13
1732729761.106323,0.0,True,lidar_spoofer,0.0124728484079241,0.005761076696217,-3.1333398818969727,26.99,15,13.876,0,0,False,,,,59,89,4,22,0.5309509038925171,180,77.633,,39.1424099,,-76.7304848,False,0.5583125550001569,89.417,,39.1424107,,-76.7304775,11.784,,39.1424107,,-76.7304775,0.6459285020828247,6.881945610046387,-23.335786819458008,unknown,POSCTL,,,,970,,ACTIVE,80.74741244316101,-0.11,-0.52,-2.68,12,1,15,2,17760768,0,13
1732729761.2064266,0.0,True,lidar_spoofer,0.0117577724158763,0.0017950001638382,-3.131657123565674,26.99,15,13.876,0,0,False,,,,59,89,4,22,0.5309509038925171,180,77.633,,39.1424099,,-76.7304848,False,0.6558827030003158,89.75,,39.1424106,,-76.7304776,12.117,,39.1424106,,-76.7304776,0.3531587719917297,6.877457618713379,-23.344728469848636,unknown,POSCTL,,,,1148,,ACTIVE,1732729680.4590142,-0.11,-0.54,-2.55,12,1,15,2,17760768,0,13
1732729761.306779,0.0,True,lidar_spoofer,0.0134652210399508,0.0040592011064291,-3.128849029541016,26.99,15,13.876,0,0,False,,,,59,89,4,22,0.5457873344421387,180,77.633,,39.1424099,,-76.7304848,False,0.756955814000321,89.922,,39.1424105,,-76.7304775,12.289,,39.1424105,,-76.7304775,0.0928369462490081,6.87792444229126,-23.351694107055664,unknown,POSCTL,,,,419,,ACTIVE,80.84776473045349,-0.11,-0.53,-2.41,12,1,15,2,17760768,0,13
1732729761.406808,0.0,True,lidar_spoofer,0.0146193681284785,0.0058527626097202,-3.125099897384644,26.99,15,13.876,0,0,False,,,,59,89,4,22,0.5457873344421387,180,77.633,,39.1424099,,-76.7304848,False,0.8627897950000261,90.209,,39.1424105,,-76.7304774,12.576,,39.1424105,,-76.7304774,-0.1524475663900375,6.884339809417725,-23.360336303710938,unknown,POSCTL,,,,668,,ACTIVE,1732729680.5590434,-0.1,-0.52,-2.03,12,1,15,2,17760768,0,13
1732729761.5076702,0.0,True,lidar_spoofer,0.0145638035610318,0.0053854095749557,-3.1191670894622803,26.99,15,13.876,0,0,False,,,,59,89,4,22,0.5457873344421387,180,77.633,,39.1424099,,-76.7304848,False,0.9651277210004992,90.332,,39.1424104,,-76.7304774,12.699,,39.1424104,,-76.7304774,-0.3492927253246307,6.88836669921875,-23.367921829223636,unknown,POSCTL,,,,979,,ACTIVE,80.94862675666809,-0.09,-0.53,-1.8,12,1,15,2,17760768,0,13
1732729761.6070328,0.0,True,lidar_spoofer,0.0141237126663327,0.0054573016241192,-3.1140103340148926,26.99,15,13.876,0,0,False,,,,59,89,4,22,0.5457873344421387,180,77.633,,39.1424099,,-76.7304848,False,0.0579695189999256,90.433,,39.1424104,,-76.7304773,12.8,,39.1424104,,-76.7304773,-0.3492927253246307,6.88836669921875,-23.367921829223636,unknown,POSCTL,,,,1173,,ACTIVE,1732729680.658406,-0.09,-0.52,-1.58,12,1,15,2,17760768,0,13
1732729761.7073002,0.0,True,lidar_spoofer,0.0151892080903053,0.0088589992374181,-3.1082351207733154,19.72,15,14.017,0,0,False,,,,59,89,4,22,0.5207380056381226,181,77.633,,39.1424099,,-76.7304848,False,0.1299794630003816,90.604,,39.1424103,,-76.7304771,12.97,,39.1424103,,-76.7304771,-0.5081499218940735,6.908730506896973,-23.37240982055664,unknown,POSCTL,,,,934,,ACTIVE,81.04889416694641,-0.07,-0.51,-1.28,12,1,15,2,17760768,0,13
1732729761.8073318,0.0,True,lidar_spoofer,0.0153445387259125,0.0113619361072778,-3.10573410987854,19.72,15,14.017,0,0,False,,,,59,89,4,22,0.5207380056381226,181,77.633,,39.1424099,,-76.7304848,False,0.2593406670002878,90.765,,39.1424103,,-76.7304771,13.132,,39.1424103,,-76.7304771,-0.6413549780845642,6.917985916137695,-23.378320693969727,unknown,POSCTL,,,,1210,,ACTIVE,1732729680.7584376,-0.05,-0.53,-1.21,12,1,15,2,17760768,0,13
1732729761.9075215,0.0,True,lidar_spoofer,0.0165471360087394,0.0085652908310294,-3.104851245880127,19.72,15,14.017,0,0,False,,,,59,89,4,22,0.5207380056381226,181,77.633,,39.1424099,,-76.7304848,False,0.3441338150005322,90.835,,39.1424102,,-76.7304771,13.201,,39.1424102,,-76.7304771,-0.7637474536895752,6.913318157196045,-23.384536743164062,unknown,POSCTL,,,,1235,,ACTIVE,81.14908409118652,-0.05,-0.54,-1.25,12,1,15,2,17760768,0,13
1732729762.007634,0.0,True,lidar_spoofer,0.0148516492918133,0.0040702652186155,-3.106168508529663,19.72,15,14.017,0,0,False,,,,59,89,4,22,0.5514273047447205,182,77.633,,39.1424099,,-76.7304848,False,0.4597937409998849,90.995,,39.1424102,,-76.7304771,13.362,,39.1424102,,-76.7304771,-0.8978610634803772,6.911466121673584,-23.38877296447754,unknown,POSCTL,,,,769,,ACTIVE,1732729680.8585498,-0.03,-0.55,-1.35,12,1,15,2,17760768,0,13
1732729762.1086576,0.0,True,lidar_spoofer,0.0122307213023304,0.0093343304470181,-3.1086697578430176,19.72,15,14.017,0,0,False,,,,59,89,4,22,0.5514273047447205,182,77.633,,39.1424099,,-76.7304848,False,0.5617274440000983,91.083,,39.1424102,,-76.7304772,13.45,,39.1424102,,-76.7304772,-1.0368883609771729,6.90338945388794,-23.39352226257324,unknown,POSCTL,,,,355,,ACTIVE,81.25010776519775,-0.03,-0.57,-1.38,12,1,15,2,17760768,0,13
1732729762.2088275,0.0,True,lidar_spoofer,0.0132079636678099,0.0065746260806918,-3.110304117202759,19.72,15,14.017,0,0,False,,,,59,89,4,22,0.5514273047447205,182,77.633,,39.1424099,,-76.7304848,False,0.6623457410005358,91.154,,39.1424101,,-76.7304772,13.521,,39.1424101,,-76.7304772,-1.167197823524475,6.895979881286621,-23.398252487182617,unknown,POSCTL,,,,156,,ACTIVE,1732729680.9587195,-0.03,-0.56,-1.35,12,1,15,2,17760768,0,13
1732729762.3093514,0.0,True,lidar_spoofer,0.0152247920632362,0.0056786444038152,-3.1109402179718018,20.73,15,13.994,0,0,False,,,,59,89,4,22,0.5514273047447205,182,77.633,,39.1424099,,-76.7304848,False,0.76206822200038,91.306,,39.1424101,,-76.7304773,13.673,,39.1424101,,-76.7304773,-1.167197823524475,6.895979881286621,-23.398252487182617,unknown,POSCTL,,,,1191,,ACTIVE,81.35063171386719,-0.02,-0.57,-1.13,12,1,15,2,17760768,0,13
1732729762.4082325,0.0,True,lidar_spoofer,0.0116047775372862,0.0003473545075394,-3.10844349861145,20.73,15,13.994,0,0,False,,,,59,89,4,22,0.5759307742118835,181,77.633,,39.1424099,,-76.7304848,False,0.8540935370001534,91.361,,39.1424101,,-76.7304772,13.728,,39.1424101,,-76.7304772,-1.3671228885650637,6.892541408538818,-23.400922775268555,unknown,POSCTL,,,,381,,ACTIVE,1732729681.0576007,-0.01,-0.57,-0.98,12,1,15,2,17760768,0,13
1732729762.5083413,0.0,True,lidar_spoofer,0.0088518606498837,-0.0019990145228803,-3.107342004776001,20.73,15,13.994,0,0,False,,,,59,89,4,22,0.5759307742118835,181,77.633,,39.1424099,,-76.7304848,False,0.9603144630000316,91.455,,39.1424101,,-76.7304774,13.822,,39.1424101,,-76.7304774,-1.3671228885650637,6.892541408538818,-23.400922775268555,unknown,POSCTL,,,,301,,ACTIVE,81.4507405757904,-0.01,-0.57,-0.86,12,1,15,2,17760768,0,13
1732729762.6085591,0.0,True,lidar_spoofer,0.0127936750650405,-0.0029769521206617,-3.109308958053589,20.73,15,13.994,0,0,False,,,,59,89,4,22,0.5759307742118835,181,77.633,,39.1424099,,-76.7304848,False,0.0607042219999129,91.504,,39.1424101,,-76.7304775,13.871,,39.1424101,,-76.7304775,-1.4399369955062866,6.881514072418213,-23.405044555664062,unknown,POSCTL,,,,732,,ACTIVE,1732729681.1578186,-0.01,-0.57,-0.89,12,1,15,2,17760768,0,13
1732729762.7086785,0.0,True,lidar_spoofer,0.0116579104214906,-0.0046961726620793,-3.111424446105957,20.73,15,13.994,0,0,False,,,,59,89,4,22,0.5749253034591675,181,77.633,,39.1424099,,-76.7304848,False,0.149072389000139,91.597,,39.14241,,-76.7304776,13.964,,39.14241,,-76.7304776,-1.5192975997924805,6.874167442321777,-23.40632438659668,unknown,POSCTL,,,,1208,,ACTIVE,81.5508599281311,0.0,-0.57,-0.98,12,1,15,2,17760768,0,13
1732729762.8088572,0.0,True,lidar_spoofer,0.0090329628437757,-0.0031424185726791,-3.115079164505005,20.73,15,13.994,0,0,False,,,,59,89,4,22,0.5749253034591675,181,77.633,,39.1424099,,-76.7304848,False,0.2631839630003014,91.645,,39.14241,,-76.7304776,14.012,,39.14241,,-76.7304776,-1.6003907918930054,6.872143268585205,-23.40785217285156,unknown,POSCTL,,,,1293,,ACTIVE,1732729681.2579973,-0.01,-0.56,-1.0,12,1,15,2,17760768,0,13
1732729762.909313,0.0,True,lidar_spoofer,0.0101542714983224,-3.674330218927935e-05,-3.1172096729278564,20.73,15,13.994,0,0,False,,,,59,89,4,22,0.5749253034591675,181,77.633,,39.1424099,,-76.7304848,False,0.3613808509999217,91.755,,39.14241,,-76.7304778,14.121,,39.14241,,-76.7304778,-1.6928584575653076,6.857086181640625,-23.409818649291992,unknown,POSCTL,,,,1093,,ACTIVE,81.65131568908691,0.0,-0.57,-1.03,12,1,15,2,17760768,0,13
1732729763.0099764,0.0,True,lidar_spoofer,0.0084426794201135,-0.00319245737046,-3.1192522048950195,23.13,16,13.962,0,0,False,,,,59,89,4,22,0.5688976645469666,181,77.633,,39.1424099,,-76.7304848,False,0.4655362960002094,91.81,,39.14241,,-76.7304779,14.177,,39.14241,,-76.7304779,-1.78504478931427,6.846487998962402,-23.41122055053711,unknown,POSCTL,,,,333,,ACTIVE,1732729681.3586607,-0.01,-0.56,-1.02,12,1,15,2,17760768,0,13
1732729763.109104,0.0,True,lidar_spoofer,0.0090583283454179,-0.006156550720334,-3.1196506023406982,23.13,16,13.962,0,0,False,,,,59,89,4,22,0.5688976645469666,181,77.633,,39.1424099,,-76.7304848,False,0.5593140370001493,91.908,,39.14241,,-76.730478,14.274,,39.14241,,-76.730478,-1.8668073415756223,6.834538459777832,-23.41261863708496,unknown,POSCTL,,,,595,,ACTIVE,81.75044322013855,-0.01,-0.56,-0.84,12,1,15,2,17760768,0,13
1732729763.2093742,0.0,True,lidar_spoofer,0.0121941966935992,-0.0056176767684519,-3.1181905269622803,23.13,16,13.962,0,0,False,,,,59,89,4,22,0.5688976645469666,181,77.633,,39.1424099,,-76.7304848,False,0.6544348699999318,91.947,,39.14241,,-76.7304781,14.314,,39.14241,,-76.7304781,-1.9330650568008425,6.816113471984863,-23.41391944885254,unknown,POSCTL,,,,1221,,ACTIVE,1732729681.458931,-0.01,-0.55,-0.78,12,1,15,2,17760768,0,13
1732729763.3095613,0.0,True,lidar_spoofer,0.0122307380661368,-0.0047554289922118,-3.117637634277344,23.13,16,13.962,0,0,False,,,,59,89,4,22,0.5688976645469666,181,77.633,,39.1424099,,-76.7304848,False,0.7632890730001236,91.985,,39.14241,,-76.7304782,14.352,,39.14241,,-76.7304782,-1.9330650568008425,6.816113471984863,-23.41391944885254,unknown,POSCTL,,,,321,,ACTIVE,81.85063028335571,-0.01,-0.56,-0.75,12,1,15,2,17760768,0,13
1732729763.4095216,0.0,True,lidar_spoofer,0.0123080173507332,-0.008920251391828,-3.116608142852783,23.13,16,13.962,0,0,False,,,,59,89,4,22,0.5671136379241943,181,77.633,,39.1424099,,-76.7304848,False,0.8479129810002632,92.068,,39.14241,,-76.7304785,14.435,,39.14241,,-76.7304785,-1.9978530406951904,6.798758506774902,-23.413515090942383,unknown,POSCTL,,,,522,,ACTIVE,1732729681.5588913,0.0,-0.56,-0.78,12,1,15,2,17760768,0,13
