timestamp,airspeed,armed,attack_type,attitude.pitch,attitude.roll,attitude.yaw,battery.current,battery.level,battery.voltage,commands.count,commands.next,ekf_ok,gimbal.pitch,gimbal.roll,gimbal.yaw,gps_0.eph,gps_0.epv,gps_0.fix_type,gps_0.satellites_visible,groundspeed,heading,home_location.alt,home_location.global_frame,home_location.lat,home_location.local_frame,home_location.lon,is_armable,last_heartbeat,location.global_frame.alt,location.global_frame.global_frame,location.global_frame.lat,location.global_frame.local_frame,location.global_frame.lon,location.global_relative_frame.alt,location.global_relative_frame.global_frame,location.global_relative_frame.lat,location.global_relative_frame.local_frame,location.global_relative_frame.lon,location.local_frame.down,location.local_frame.east,location.local_frame.north,ml_verdict,mode.name,mount_status[0],mount_status[1],mount_status[2],rangefinder.distance,rangefinder.voltage,system_status.state,timedelta,velocity[0],velocity[1],velocity[2],version.autopilot_type,version.major,version.minor,version.patch,version.raw_version,version.release,version.vehicle_type
1733424146.2645533,0.0,True,benign,0.006936431862413883,0.0020337626338005066,0.1604582518339157,-1.0,100,16.193,0,0,False,,,,0,0,3,10,0.017507191747426987,9,28.503,,39.9526381,,-113.4759758,False,0.019407833999139257,28.507,,39.9526379,,-113.475976,0.001,,39.9526379,,-113.475976,-0.004549730569124222,0.003871321678161621,-0.002538584638386965,-1,MISSION,,,,,,ACTIVE,25.336702823638916,0.0,-0.01,0.0,12,1,15,0,17760384,128,2
1733424146.3494837,0.0,True,benign,0.006849764846265316,0.002165504265576601,0.1603868454694748,-1.0,100,16.193,0,0,False,,,,0,0,3,10,0.017507191747426987,9,28.503,,39.9526381,,-113.4759758,False,0.1020377699896926,28.507,,39.9526379,,-113.475976,0.001,,39.9526379,,-113.475976,-0.004828307777643204,0.0037320656701922417,-0.0029621897265315056,-1,MISSION,,,,,,ACTIVE,1733424121.012781,0.0,-0.01,0.0,12,1,15,0,17760384,128,2
1733424146.4545927,0.0,True,benign,0.006724164355546236,0.00216014520265162,0.16050729155540466,-1.0,100,16.19,0,0,False,,,,0,0,3,10,0.017388762906193733,9,28.503,,39.9526381,,-113.4759758,False,0.08467545699386392,28.508,,39.9526379,,-113.475976,0.002,,39.9526379,,-113.475976,-0.0052460976876318455,0.003587410319596529,-0.003613444045186043,-1,MISSION,,,,,,ACTIVE,25.44181180000305,0.0,-0.01,0.0,12,1,15,0,17760384,128,2
1733424146.557842,0.0,True,benign,0.007053193170577288,0.0024269430432468653,0.16041341423988342,-1.0,100,16.19,0,0,False,,,,0,0,3,10,0.01640736684203148,9,28.503,,39.9526381,,-113.4759758,False,0.18722870999772567,28.508,,39.9526379,,-113.475976,0.002,,39.9526379,,-113.475976,-0.005744129419326782,0.003650295315310359,-0.003995249047875404,-1,MISSION,,,,,,ACTIVE,1733424121.1160302,0.0,-0.01,0.0,12,1,15,0,17760384,128,2
1733424146.6549659,0.0,True,benign,0.00710660545155406,0.002302199834957719,0.16061830520629883,-1.0,100,16.184,0,0,False,,,,0,0,3,10,0.016646400094032288,9,28.503,,39.9526381,,-113.4759758,False,0.2840255640039686,28.509,,39.9526379,,-113.475976,0.003,,39.9526379,,-113.475976,-0.006174859125167131,0.00366959348320961,-0.004007456358522177,-1,MISSION,,,,,,ACTIVE,25.538935661315918,0.0,-0.01,0.0,12,1,15,0,17760384,128,2
1733424146.7579715,0.0,True,benign,0.007193754427134991,0.0022153740283101797,0.16040562093257904,-1.0,100,16.184,0,0,False,,,,0,0,3,10,0.01685028336942196,9,28.503,,39.9526381,,-113.4759758,False,0.3865306959924055,28.509,,39.9526379,,-113.475976,0.003,,39.9526379,,-113.475976,-0.006809554062783718,0.003980677574872971,-0.004016755614429712,-1,MISSION,,,,,,ACTIVE,1733424121.2190359,0.0,-0.01,0.0,12,1,15,0,17760384,128,2
1733424146.8591013,0.0,True,benign,0.007269435562193394,0.0023782975040376186,0.1604851633310318,-1.0,100,16.178,0,0,False,,,,0,0,3,10,0.017762741073966026,9,28.503,,39.9526381,,-113.4759758,False,0.4881276789965341,28.51,,39.9526379,,-113.475976,0.004,,39.9526379,,-113.475976,-0.007402713410556316,0.004099027719348669,-0.003941978327929974,-1,MISSION,,,,,,ACTIVE,25.64006543159485,0.0,-0.01,0.0,12,1,15,0,17760384,128,2
1733424146.959061,0.0,True,benign,0.007479912135750055,0.002570871962234378,0.16020089387893677,-1.0,100,16.178,0,0,False,,,,0,0,3,10,0.017974242568016052,9,28.503,,39.9526381,,-113.4759758,False,0.5860726880055154,28.51,,39.9526379,,-113.475976,0.004,,39.9526379,,-113.475976,-0.007872946560382843,0.004135699011385441,-0.00390509981662035,-1,MISSION,,,,,,ACTIVE,1733424121.3189955,0.0,-0.01,0.0,12,1,15,0,17760384,128,2
1733424147.0594563,0.0,True,benign,0.007504267618060112,0.0023889343719929457,0.15986576676368713,-1.0,100,16.178,0,0,False,,,,0,0,3,10,0.018028682097792625,9,28.503,,39.9526381,,-113.4759758,False,0.6894243300048402,28.511,,39.9526379,,-113.475976,0.005,,39.9526379,,-113.475976,-0.008310888893902302,0.004219034221023321,-0.004065921530127525,-1,MISSION,,,,,,ACTIVE,25.740460872650146,0.0,-0.01,0.0,12,1,15,0,17760384,128,2
1733424147.1615708,0.0,True,benign,0.00764228031039238,0.0022972847800701857,0.15981866419315338,-1.0,100,16.172,0,0,False,,,,0,0,3,10,0.017609383910894394,9,28.505,,39.9526379,,-113.475976,False,0.7917739639960928,28.511,,39.9526379,,-113.475976,0.005,,39.9526379,,-113.475976,-0.008586758747696877,0.004305455833673477,-0.004185284487903118,-1,MISSION,,,,,,ACTIVE,1733424121.42111,0.0,-0.01,0.0,12,1,15,0,17760384,128,2
1733424147.2662506,0.0,True,benign,0.007737976964563131,0.002312885830178857,0.1596510410308838,-1.0,100,16.172,0,0,False,,,,0,0,3,10,0.01689489558339119,9,28.505,,39.9526379,,-113.475976,False,0.8971347990009235,28.511,,39.9526379,,-113.475976,0.006,,39.9526379,,-113.475976,-0.009141369722783566,0.004692418966442347,-0.004277363419532776,-1,MISSION,,,,,,ACTIVE,25.8451406955719,0.0,-0.01,0.0,12,1,15,0,17760384,128,2
1733424147.3704662,0.0,True,benign,0.007907331921160221,0.002546679461374879,0.159534752368927,-1.0,100,16.172,0,0,False,,,,0,0,3,10,0.01689489558339119,9,28.505,,39.9526379,,-113.475976,False,1.001039780996507,28.512,,39.9526379,,-113.475976,0.006,,39.9526379,,-113.475976,-0.00952966883778572,0.005115187726914883,-0.004364348948001862,-1,MISSION,,,,,,ACTIVE,1733424121.5253255,0.0,-0.01,0.0,12,1,15,0,17760384,128,2
1733424147.4697378,0.0,True,benign,0.008034085854887962,0.0029099141247570515,0.15970131754875183,-1.0,100,16.166,0,0,False,,,,0,0,3,10,0.01649530790746212,9,28.505,,39.9526379,,-113.475976,False,1.0990215240017278,28.512,,39.9526379,,-113.475976,0.006,,39.9526379,,-113.475976,-0.009906702674925327,0.005473146680742502,-0.0044816103763878345,-1,MISSION,,,,,,ACTIVE,25.944412231445312,0.0,-0.01,0.0,12,1,15,0,17760384,128,2
1733424147.5692348,0.0,True,benign,0.00785650685429573,0.0033413167111575603,0.15983706712722778,-1.0,100,16.163,0,0,False,,,,0,0,3,10,0.01709621772170067,9,28.505,,39.9526379,,-113.475976,False,0.041866839994327165,28.513,,39.9526379,,-113.475976,0.007,,39.9526379,,-113.475976,-0.010190201923251152,0.005588117986917496,-0.004721181932836771,-1,MISSION,,,,,,ACTIVE,1733424121.6248226,0.0,-0.01,0.0,12,1,15,0,17760384,128,2
1733424147.6812208,0.0,True,benign,0.007904110476374626,0.0033242404460906982,0.15961579978466034,-1.0,100,16.16,0,0,False,,,,0,0,3,10,0.016094550490379333,9,28.505,,39.9526379,,-113.475976,False,0.014815296002780087,28.513,,39.9526379,,-113.475976,0.007,,39.9526379,,-113.475976,-0.01054817158728838,0.005677360109984875,-0.005040123127400875,-1,MISSION,,,,,,ACTIVE,26.056398153305054,0.0,-0.01,0.0,12,1,15,0,17760384,128,2
1733424147.771297,0.0,True,benign,0.007995987311005592,0.0034313516225665808,0.15972274541854858,-1.0,100,16.16,0,0,False,,,,0,0,3,10,0.016094550490379333,9,28.505,,39.9526379,,-113.475976,False,0.10312404300202616,28.513,,39.9526379,,-113.475976,0.007,,39.9526379,,-113.475976,-0.01072049979120493,0.005826745182275772,-0.005258244927972555,-1,MISSION,,,,,,ACTIVE,1733424121.7148988,0.0,-0.01,0.0,12,1,15,0,17760384,128,2
1733424147.8727257,0.0,True,benign,0.007723637390881777,0.0035540068056434393,0.15967993438243866,-1.0,100,16.16,0,0,False,,,,0,0,3,10,0.01237152237445116,9,28.505,,39.9526379,,-113.475976,False,0.20076500000141095,28.513,,39.9526379,,-113.475976,0.007,,39.9526379,,-113.475976,-0.010637223720550537,0.006318025756627321,-0.005429457873106003,-1,MISSION,,,,,,ACTIVE,26.157826900482178,0.0,0.0,0.0,12,1,15,0,17760384,128,2
1733424147.9758716,0.0,True,benign,0.007592708803713322,0.0032919554505497217,0.15998591482639313,-1.0,99,16.154,0,0,False,,,,0,0,3,10,0.01137616578489542,9,28.505,,39.9526379,,-113.475976,False,0.30958902099519037,28.513,,39.9526379,,-113.475976,0.007,,39.9526379,,-113.475976,-0.01012423262000084,0.007249816320836544,-0.005448433104902506,-1,MISSION,,,,,,ACTIVE,1733424121.8180447,0.0,0.0,0.0,12,1,15,0,17760384,128,2
1733424148.0751028,0.0,True,benign,0.007773257326334715,0.0033465924207121134,0.16005484759807587,-1.0,99,16.154,0,0,False,,,,0,0,3,10,0.011002955958247185,9,28.505,,39.9526379,,-113.475976,False,0.4045761719899019,28.512,,39.9526379,,-113.475976,0.006,,39.9526379,,-113.475976,-0.00967481080442667,0.00800604373216629,-0.005403139162808657,-1,MISSION,,,,,,ACTIVE,26.257058143615723,0.0,0.0,0.0,12,1,15,0,17760384,128,2
1733424148.1749263,0.0,True,benign,0.007814721204340458,0.0033567589707672596,0.15997004508972168,-1.0,99,16.148,0,0,False,,,,0,0,3,10,0.00926252081990242,9,28.505,,39.9526379,,-113.475976,False,0.5074929029942723,28.511,,39.9526379,,-113.4759759,0.006,,39.9526379,,-113.4759759,-0.009193306788802147,0.00883046817034483,-0.005389073863625526,-1,MISSION,,,,,,ACTIVE,1733424121.9178681,0.0,0.0,0.0,12,1,15,0,17760384,128,2
1733424148.2804744,0.0,True,benign,0.007731859106570482,0.0034944997169077396,0.16011163592338562,-1.0,99,16.148,0,0,False,,,,0,0,3,10,0.010284742340445518,9,28.505,,39.9526379,,-113.475976,False,0.6113661749986932,28.511,,39.9526379,,-113.4759759,0.0,,39.9526379,,-113.4759759,-0.008636570535600185,0.009422252885997295,-0.005693512968719006,-1,MISSION,,,,,,ACTIVE,26.362606287002563,0.0,0.0,0.0,12,1,15,0,17760384,128,2
1733424148.3832195,0.0,True,benign,0.007667965721338987,0.0035115366335958242,0.15992961823940277,-1.0,99,16.142,0,0,False,,,,0,0,3,10,0.00954767968505621,9,28.505,,39.9526379,,-113.475976,False,0.7171383849927224,28.511,,39.9526379,,-113.4759759,0.0,,39.9526379,,-113.4759759,-0.008222462609410286,0.009703312069177628,-0.006025332026183605,-1,MISSION,,,,,,ACTIVE,1733424122.0206132,0.0,0.0,0.0,12,1,15,0,17760384,128,2
1733424148.4892964,0.0,True,benign,0.007687738630920649,0.0034415628761053085,0.1599513292312622,-1.0,99,16.142,0,0,False,,,,0,0,3,10,0.009830192662775517,9,28.505,,39.9526379,,-113.475976,False,0.8230488379922463,28.51,,39.9526379,,-113.4759759,-0.001,,39.9526379,,-113.4759759,-0.007500564679503441,0.0100037707015872,-0.006517539266496897,-1,MISSION,,,,,,ACTIVE,26.46868324279785,0.0,0.0,0.0,12,1,15,0,17760384,128,2
1733424148.5819466,0.0,True,benign,0.007828712463378906,0.003554359544068575,0.16019344329833984,-1.0,99,16.142,0,0,False,,,,0,0,3,10,0.009830192662775517,9,28.505,,39.9526379,,-113.475976,False,0.915860099994461,28.509,,39.9526379,,-113.4759759,-0.001,,39.9526379,,-113.4759759,-0.006983389612287283,0.010173255577683449,-0.006744484882801771,-1,MISSION,,,,,,ACTIVE,1733424122.1132634,-0.01,0.0,0.0,12,1,15,0,17760384,128,2
1733424148.6810427,0.0,True,benign,0.007608138024806976,0.003237687051296234,0.15980412065982819,-1.0,98,16.136,0,0,False,,,,0,0,3,10,0.01020810753107071,9,28.505,,39.9526379,,-113.475976,False,1.0131486949976534,28.509,,39.9526379,,-113.4759759,-0.002,,39.9526379,,-113.4759759,-0.0063385083340108395,0.010309265926480293,-0.00687880115583539,-1,MISSION,,,,,,ACTIVE,26.567779302597046,0.0,0.0,0.0,12,1,15,0,17760384,128,2
1733424148.78203,0.0,True,benign,0.007591546513140202,0.0037639073561877012,0.15946775674819946,-1.0,98,16.133,0,0,False,,,,0,0,3,10,0.009204993024468422,9,28.505,,39.9526379,,-113.475976,False,0.04435292999551166,28.508,,39.9526379,,-113.4759759,-0.003,,39.9526379,,-113.4759759,-0.005378280766308308,0.01029005367308855,-0.007073082495480776,-1,MISSION,,,,,,ACTIVE,1733424122.2142508,0.0,0.0,0.0,12,1,15,0,17760384,128,2
1733424148.8845756,0.0,True,benign,0.007489128969609737,0.003951092716306448,0.1596197485923767,-1.0,98,16.13,0,0,False,,,,0,0,3,10,0.009455188177525997,9,28.505,,39.9526379,,-113.475976,False,0.044390408002072945,28.507,,39.9526379,,-113.4759759,-0.004,,39.9526379,,-113.4759759,-0.004500584676861763,0.010391163639724255,-0.007095867767930031,-1,MISSION,,,,,,ACTIVE,26.67032480239868,-0.01,0.0,0.0,12,1,15,0,17760384,128,2
1733424148.9844968,0.0,True,benign,0.007545435801148415,0.0038009691052138805,0.1596897691488266,-1.0,98,16.13,0,0,False,,,,0,0,3,10,0.01049820240586996,9,28.505,,39.9526379,,-113.475976,False,0.14221914501104038,28.506,,39.9526379,,-113.4759759,-0.005,,39.9526379,,-113.4759759,-0.0038400362245738506,0.010526679456233978,-0.007086124736815691,-1,MISSION,,,,,,ACTIVE,1733424122.314172,-0.01,0.0,0.0,12,1,15,0,17760384,128,2
1733424149.0873785,0.0,True,benign,0.007339336443692446,0.003846969688311219,0.15958167612552643,-1.0,98,16.124,0,0,False,,,,0,0,3,10,0.011145695112645626,9,28.505,,39.9526379,,-113.475976,False,0.2433610360021703,28.505,,39.9526379,,-113.4759759,-0.005,,39.9526379,,-113.4759759,-0.0031315272208303213,0.010538825765252113,-0.007088052108883858,-1,MISSION,,,,,,ACTIVE,26.77320647239685,-0.01,0.0,0.0,12,1,15,0,17760384,128,2
1733424149.1883736,0.0,True,benign,0.007405736017972231,0.0038289749063551426,0.15962578356266022,-1.0,98,16.124,0,0,False,,,,0,0,3,10,0.011650890111923218,9,28.505,,39.9526379,,-113.475976,False,0.34707107199938037,28.505,,39.9526379,,-113.4759759,-0.006,,39.9526379,,-113.4759759,-0.0025330684147775173,0.010603245347738266,-0.0072883423417806625,-1,MISSION,,,,,,ACTIVE,1733424122.415167,-0.01,0.0,0.0,12,1,15,0,17760384,128,2
1733424149.294007,0.0,True,benign,0.007082901429384947,0.003694607876241207,0.1596084088087082,-1.0,98,16.118,0,0,False,,,,0,0,3,10,0.011502232402563095,9,28.505,,39.9526379,,-113.475976,False,0.45305925801221747,28.504,,39.9526379,,-113.4759759,-0.006,,39.9526379,,-113.4759759,-0.002069135894998908,0.010655311867594719,-0.0076593197882175446,-1,MISSION,,,,,,ACTIVE,26.87883996963501,-0.01,0.0,0.0,12,1,15,0,17760384,128,2
1733424149.3965957,0.0,True,benign,0.007305585779249668,0.0036108270287513733,0.15961791574954987,-1.0,98,16.118,0,0,False,,,,0,0,3,10,0.01152875367552042,9,28.505,,39.9526379,,-113.475976,False,0.555735325004207,28.504,,39.9526379,,-113.4759759,-0.007,,39.9526379,,-113.4759759,-0.0016415780410170555,0.010857047513127327,-0.008309059776365757,-1,MISSION,,,,,,ACTIVE,1733424122.5177557,-0.01,0.0,0.0,12,1,15,0,17760384,128,2
1733424149.4988687,0.0,True,benign,0.007268568035215139,0.0036526115145534277,0.159341961145401,-1.0,98,16.118,0,0,False,,,,0,0,3,10,0.0132035156711936,9,28.511,,39.9526379,,-113.4759759,False,0.658021176001057,28.503,,39.9526379,,-113.4759759,-0.007,,39.9526379,,-113.4759759,-0.0012374732177704573,0.011296411044895649,-0.008973836898803711,-1,MISSION,,,,,,ACTIVE,26.981112957000732,-0.01,0.0,0.0,12,1,15,0,17760384,128,2
1733424149.597493,0.0,True,benign,0.007441813126206398,0.003093619830906391,0.159202441573143,-1.0,97,16.112,0,0,False,,,,0,0,3,10,0.01431326474994421,9,28.511,,39.9526379,,-113.4759759,False,0.7549555700097699,28.503,,39.9526379,,-113.4759759,-0.008,,39.9526379,,-113.4759759,-0.0005871272296644747,0.012261183932423592,-0.009858102537691593,-1,MISSION,,,,,,ACTIVE,1733424122.61638,-0.01,0.0,0.0,12,1,15,0,17760384,128,2
1733424149.7023673,0.0,True,benign,0.007510523311793804,0.0031665179412811995,0.15930446982383728,-1.0,97,16.112,0,0,False,,,,0,0,3,10,0.014989841729402542,9,28.511,,39.9526379,,-113.4759759,False,0.8621801030094502,28.502,,39.9526379,,-113.4759759,-0.009,,39.9526379,,-113.4759759,9.192313882522285e-05,0.013463927432894707,-0.010941826738417149,-1,MISSION,,,,,,ACTIVE,27.085987329483032,-0.01,0.0,0.0,12,1,15,0,17760384,128,2
1733424149.7988713,0.0,True,benign,0.007481032516807318,0.003129200777038932,0.15914878249168396,-1.0,97,16.106,0,0,False,,,,0,0,3,10,0.016403235495090485,9,28.511,,39.9526379,,-113.4759759,False,0.955143223007326,28.502,,39.9526378,,-113.4759759,-0.009,,39.9526378,,-113.4759759,0.0007191195618361235,0.014621743001043797,-0.01202243473380804,-1,MISSION,,,,,,ACTIVE,1733424122.712884,-0.01,0.0,0.0,12,1,15,0,17760384,128,2
1733424149.8986483,0.0,True,benign,0.007394750136882067,0.0032354837749153376,0.15905022621154785,-1.0,97,16.103,0,0,False,,,,0,0,3,10,0.018245039507746696,9,28.511,,39.9526379,,-113.4759759,False,0.040644667999004014,28.501,,39.9526378,,-113.4759759,-0.01,,39.9526378,,-113.4759759,0.0013712466461583972,0.015981091186404228,-0.013095559552311897,-1,MISSION,,,,,,ACTIVE,27.18576431274414,-0.01,0.0,0.0,12,1,15,0,17760384,128,2
1733424150.0013146,0.0,True,benign,0.007583246566355228,0.0032495963387191296,0.15899577736854553,-1.0,97,16.1,0,0,False,,,,0,0,3,10,0.02002977393567562,9,28.511,,39.9526379,,-113.4759759,False,0.03814826000598259,28.5,,39.9526378,,-113.4759758,-0.01,,39.9526378,,-113.4759758,0.002178116934373975,0.017643865197896957,-0.014331803657114506,-1,MISSION,,,,,,ACTIVE,1733424122.8155503,-0.01,0.0,0.0,12,1,15,0,17760384,128,2
1733424150.1022024,0.0,True,benign,0.007361224386841059,0.003417861182242632,0.15894348919391632,-1.0,97,16.1,0,0,False,,,,0,0,3,10,0.021938525140285492,9,28.511,,39.9526379,,-113.4759759,False,0.13930977899872232,28.499,,39.9526378,,-113.4759758,-0.011,,39.9526378,,-113.4759758,0.002855079248547554,0.019097737967967987,-0.015302659012377262,-1,MISSION,,,,,,ACTIVE,27.286652088165283,-0.01,0.01,0.0,12,1,15,0,17760384,128,2
1733424150.2052426,0.0,True,benign,0.007171985227614641,0.003515299642458558,0.15871736407279968,-1.0,96,16.094,0,0,False,,,,0,0,3,10,0.02246629260480404,9,28.511,,39.9526379,,-113.4759759,False,0.24135518800176214,28.499,,39.9526378,,-113.4759758,-0.012,,39.9526378,,-113.4759758,0.00345647893846035,0.02039146050810814,-0.016134746372699738,-1,MISSION,,,,,,ACTIVE,1733424122.9185905,-0.01,0.01,0.0,12,1,15,0,17760384,128,2
1733424150.3066783,0.0,True,benign,0.007371529471129179,0.0032486403360962868,0.15846018493175507,-1.0,96,16.094,0,0,False,,,,0,0,3,10,0.022547049447894096,9,28.511,,39.9526379,,-113.4759759,False,0.3444233170012012,28.498,,39.9526378,,-113.4759758,-0.013,,39.9526378,,-113.4759758,0.004169700667262077,0.022013956680893898,-0.01704324781894684,-1,MISSION,,,,,,ACTIVE,27.3880877494812,-0.01,0.01,0.0,12,1,15,0,17760384,128,2
1733424150.408315,0.0,True,benign,0.003978313412517309,0.0018006600439548492,0.15844114124774933,-1.0,96,16.088,0,0,False,,,,0,0,3,10,0.022025728598237038,9,28.511,,39.9526379,,-113.4759759,False,0.44487587199546397,28.498,,39.9526378,,-113.4759758,-0.013,,39.9526378,,-113.4759758,0.004598991014063358,0.023364676162600517,-0.017378250136971474,-1,MISSION,,,,,,ACTIVE,1733424123.0202272,-0.01,0.01,0.0,12,1,15,0,17760384,128,2
1733424150.5078413,0.0,True,benign,-0.012575472705066204,-0.010387605987489223,0.15827533602714539,-1.0,96,16.088,0,0,False,,,,0,0,3,10,0.021048303693532944,9,28.511,,39.9526379,,-113.4759759,False,0.5441026920016157,28.498,,39.9526378,,-113.4759758,-0.012,,39.9526378,,-113.4759758,0.00403244886547327,0.02427433244884014,-0.017057176679372787,-1,MISSION,,,,,,ACTIVE,27.487614154815674,0.0,0.01,-0.01,12,1,15,0,17760384,128,2
1733424150.6092932,0.0,True,benign,-0.01827382855117321,-0.016174886375665665,0.1586543768644333,-1.0,96,16.088,0,0,False,,,,0,0,3,10,0.008022159337997437,9,28.511,,39.9526379,,-113.4759759,False,0.6464374450006289,28.502,,39.9526378,,-113.4759758,-0.009,,39.9526378,,-113.4759758,0.0010966885602101684,0.024240149185061455,-0.015527936629951,-1,MISSION,,,,,,ACTIVE,1733424123.121679,0.02,0.0,-0.05,12,1,15,0,17760384,128,2
1733424150.7099795,0.0,True,benign,-0.015430964529514313,-0.015247353352606297,0.1588330715894699,-1.0,96,16.082,0,0,False,,,,0,0,3,10,0.044659893959760666,9,28.511,,39.9526379,,-113.4759759,False,0.7477863420062931,28.509,,39.9526378,,-113.4759758,-0.002,,39.9526378,,-113.4759758,-0.007376635447144508,0.022598402574658394,-0.011158997192978859,-1,MISSION,,,,,,ACTIVE,27.588300466537476,0.04,-0.01,-0.1,12,1,15,0,17760384,128,2
1733424150.8099778,0.0,True,benign,-0.009588722139596939,-0.01074324268847704,0.1589287519454956,-1.0,96,16.082,0,0,False,,,,0,0,3,10,0.05607431381940842,9,28.511,,39.9526379,,-113.4759759,False,0.8472119210055098,28.523,,39.9526379,,-113.4759758,0.012,,39.9526379,,-113.4759758,-0.018252721056342125,0.020219117403030396,-0.006225781049579382,-1,MISSION,,,,,,ACTIVE,1733424123.2216773,0.06,-0.02,-0.19,12,1,15,0,17760384,128,2
1733424150.910461,0.0,True,benign,-0.003590116510167718,-0.005626763217151165,0.15939143300056458,-1.0,95,16.076,0,0,False,,,,0,0,3,10,0.08032156527042389,9,28.511,,39.9526379,,-113.4759759,False,0.9477973949979059,28.542,,39.952638,,-113.4759759,0.03,,39.952638,,-113.4759759,-0.03941880539059639,0.016444720327854156,0.0008619269356131554,-1,MISSION,,,,,,ACTIVE,27.688783645629883,0.07,-0.03,-0.28,12,1,15,0,17760384,128,2
1733424151.013762,0.0,True,benign,0.001318814349360764,-0.001370152342133224,0.15924738347530365,-1.0,95,16.073,0,0,False,,,,0,0,3,10,0.09569691866636276,9,28.511,,39.9526379,,-113.4759759,False,0.04576238899608143,28.572,,39.952638,,-113.4759759,0.06,,39.952638,,-113.4759759,-0.07280369102954865,0.011811744421720505,0.009242253378033638,-1,MISSION,,,,,,ACTIVE,1733424123.3249784,0.08,-0.04,-0.38,12,1,15,0,17760384,128,2
1733424151.1131222,0.0,True,benign,0.005309503525495529,0.0014291444094851613,0.15887708961963654,-1.0,95,16.07,0,0,False,,,,0,0,3,10,0.1018063873052597,9,28.511,,39.9526379,,-113.4759759,False,0.04132829498848878,28.604,,39.9526381,,-113.475976,0.092,,39.9526381,,-113.475976,-0.10504918545484543,0.007869122549891472,0.01601896435022354,-1,MISSION,,,,,,ACTIVE,27.78814387321472,0.09,-0.04,-0.45,12,1,15,0,17760384,128,2
1733424151.2141008,0.0,True,benign,0.008193492889404297,0.002951105125248432,0.1584078073501587,-1.0,95,16.07,0,0,False,,,,0,0,3,10,0.10342491418123245,9,28.511,,39.9526379,,-113.4759759,False,0.14249292699969374,28.641,,39.9526382,,-113.475976,0.129,,39.9526382,,-113.475976,-0.14254534244537354,0.0036249198019504547,0.022954056039452553,-1,MISSION,,,,,,ACTIVE,1733424123.425957,0.09,-0.04,-0.52,12,1,15,0,17760384,128,2
1733424151.3155162,0.0,True,static_gps_spoofer,0.010412154719233513,0.004805557429790497,0.1576491743326187,-1.0,95,16.064,0,0,False,,,,0,0,3,10,0.10128581523895264,9,28.511,,39.9526379,,-113.4759759,False,0.24218709499109536,28.697,,38.8978050436632,,-77.03645226058845,0.185,,39.9526382,,-113.4759761,-0.19418936967849731,-0.0022808550857007504,0.031101582571864128,-1,MISSION,,,,,,ACTIVE,27.889559268951416,0.08,-0.04,-0.6,12,1,15,0,17760384,128,2
1733424151.4152222,0.0,True,static_gps_spoofer,0.012015166692435741,0.006701070815324783,0.15717759728431702,-1.0,95,16.064,0,0,False,,,,0,0,3,10,0.10128581523895264,9,28.511,,39.9526379,,-113.4759759,False,0.34341098499135114,28.745,,38.89808582662077,,-77.03651816514426,0.233,,39.9526383,,-113.4759761,-0.24260729551315308,-0.007424158975481987,0.037676241248846054,-1,MISSION,,,,,,ACTIVE,1733424123.525663,0.08,-0.04,-0.67,12,1,15,0,17760384,128,2
1733424151.5215561,0.0,True,static_gps_spoofer,0.013188791461288929,0.007750918623059988,0.15631462633609772,-1.0,95,16.064,0,0,False,,,,0,0,3,10,0.09416800737380981,9,28.511,,39.9526379,,-113.4759759,False,0.45090355299180374,28.798,,38.89795863985545,,-77.03655422717063,0.286,,39.9526383,,-113.4759762,-0.295872300863266,-0.012640192173421383,0.043886758387088776,-1,MISSION,,,,,,ACTIVE,27.995893239974976,0.07,-0.04,-0.73,12,1,15,0,17760384,128,2
1733424151.6161945,0.0,True,static_gps_spoofer,0.014025638811290264,0.008750902488827705,0.15534894168376923,-1.0,94,16.058,0,0,False,,,,0,0,3,10,0.08555977046489716,8,28.511,,39.9526379,,-113.4759759,False,0.5443718049937161,28.856,,38.89781184301447,,-77.03655287573473,0.344,,39.9526384,,-113.4759763,-0.3536004424095154,-0.01806400902569294,0.04978685826063156,-1,MISSION,,,,,,ACTIVE,1733424123.6203012,0.07,-0.04,-0.79,12,1,15,0,17760384,128,2
1733424151.717679,0.0,True,static_gps_spoofer,0.014874727465212345,0.009801756590604782,0.15465709567070007,-1.0,94,16.058,0,0,False,,,,0,0,3,10,0.07813315838575363,8,28.511,,39.9526379,,-113.4759759,False,0.6470361099927686,28.918,,38.89802883322511,,-77.03683776415039,0.406,,39.9526384,,-113.4759763,-0.41582027077674866,-0.023327050730586052,0.05546589195728302,-1,MISSION,,,,,,ACTIVE,28.09737777709961,0.06,-0.03,-0.84,12,1,15,0,17760384,128,2
1733424151.8163755,0.0,True,static_gps_spoofer,0.0155950291082263,0.010762079618871212,0.15401844680309296,-1.0,94,16.052,0,0,False,,,,0,0,3,10,0.06799951195716858,8,28.511,,39.9526379,,-113.4759759,False,0.7447537999978522,28.985,,38.89793387741529,,-77.0365718458301,0.473,,39.9526385,,-113.4759764,-0.4823206961154938,-0.02846287004649639,0.060895152390003204,-1,MISSION,,,,,,ACTIVE,1733424123.7189977,0.05,-0.03,-0.9,12,1,15,0,17760384,128,2
1733424151.9167209,0.0,True,static_gps_spoofer,0.01587720587849617,0.01175769418478012,0.15352913737297058,-1.0,94,16.052,0,0,False,,,,0,0,3,10,0.06066269055008888,8,28.511,,39.9526379,,-113.4759759,False,0.8419489299994893,29.056,,38.89798332194206,,-77.03648897530039,0.544,,39.9526385,,-113.4759764,-0.5535343885421753,-0.03337093070149422,0.06595555692911148,-1,MISSION,,,,,,ACTIVE,28.197723150253296,0.04,-0.03,-0.96,12,1,15,0,17760384,128,2
1733424152.0165977,0.0,True,static_gps_spoofer,0.016032667830586433,0.012409145012497902,0.15300574898719788,-1.0,94,16.052,0,0,False,,,,0,0,3,10,0.056415803730487823,8,28.511,,39.9526379,,-113.4759759,False,0.9428784939955221,29.132,,38.89786127005986,,-77.0364126286119,0.62,,39.9526386,,-113.4759765,-0.6138854026794434,-0.037204559892416,0.06968720257282257,-1,MISSION,,,,,,ACTIVE,1733424123.8188746,0.04,-0.02,-1.01,12,1,15,0,17760384,128,2
1733424152.1172202,0.0,True,static_gps_spoofer,0.016243871301412582,0.013132795691490173,0.15244761109352112,-1.0,94,16.046,0,0,False,,,,0,0,3,10,0.04568435996770859,8,28.511,,39.9526379,,-113.4759759,False,1.0449462149990723,29.212,,38.89783979779261,,-77.03667898302851,0.7,,39.9526386,,-113.4759765,-0.7098449468612671,-0.042587097734212875,0.07484186440706253,-1,MISSION,,,,,,ACTIVE,28.2983455657959,0.03,-0.02,-1.07,12,1,15,0,17760384,128,2
1733424152.2204394,0.0,True,static_gps_spoofer,0.016494963318109512,0.013395657762885094,0.15211042761802673,-1.0,93,16.043,0,0,False,,,,0,0,3,10,0.03244296833872795,8,28.511,,39.9526379,,-113.4759759,False,0.03429216299264226,29.297,,38.8979280351326,,-77.03644829406109,0.785,,39.9526387,,-113.4759766,-0.8033357262611389,-0.047009292989969254,0.07888534665107727,-1,MISSION,,,,,,ACTIVE,1733424123.9220939,0.02,-0.01,-1.12,12,1,15,0,17760384,128,2
1733424152.3231764,0.0,True,static_gps_spoofer,0.016563978046178818,0.013269854709506035,0.15177661180496216,-1.0,93,16.04,0,0,False,,,,0,0,3,10,0.02224954217672348,8,28.511,,39.9526379,,-113.4759759,False,0.04239088900794741,29.404,,38.897929192978005,,-77.03650259012814,0.893,,39.9526387,,-113.4759766,-0.9205541014671326,-0.05164020508527756,0.08269565552473068,-1,MISSION,,,,,,ACTIVE,28.401082515716553,0.01,-0.01,-1.18,12,1,15,0,17760384,128,2
1733424152.4227376,0.0,True,static_gps_spoofer,0.016283946111798286,0.01310096774250269,0.15169137716293335,-1.0,93,16.04,0,0,False,,,,0,0,3,10,0.008051632903516293,8,28.511,,39.9526379,,-113.4759759,False,0.1427459520054981,29.527,,38.89785997119369,,-77.03666328431875,1.016,,39.9526387,,-113.4759767,-1.025081992149353,-0.05469148978590965,0.08531121909618378,-1,MISSION,,,,,,ACTIVE,1733424124.021655,0.0,0.0,-1.25,12,1,15,0,17760384,128,2
1733424152.522593,0.0,True,static_gps_spoofer,0.01568012870848179,0.012670104391872883,0.1517535150051117,-1.0,93,16.034,0,0,False,,,,0,0,3,10,0.004440099000930786,8,28.511,,39.9526379,,-113.4759759,False,0.2425096700026188,29.627,,38.898142751882006,,-77.03660557252363,1.115,,39.9526387,,-113.4759767,-1.1241726875305176,-0.05682362988591194,0.08709843456745148,-1,MISSION,,,,,,ACTIVE,28.500937938690186,0.0,0.0,-1.29,12,1,15,0,17760384,128,2
1733424152.6227953,0.0,True,static_gps_spoofer,0.015261765569448471,0.01244781818240881,0.15171833336353302,-1.0,93,16.034,0,0,False,,,,0,0,3,10,0.015303591266274452,8,28.511,,39.9526379,,-113.4759759,False,0.34273729599954095,29.748,,38.89781299891639,,-77.03653290530391,1.236,,39.9526387,,-113.4759767,-1.255737543106079,-0.05882904678583145,0.08876290172338486,-1,MISSION,,,,,,ACTIVE,1733424124.1218574,-0.01,0.0,-1.3,12,1,15,0,17760384,128,2
1733424152.723227,0.0,True,static_gps_spoofer,0.014686774462461472,0.012066876515746117,0.15174663066864014,-1.0,93,16.034,0,0,False,,,,0,0,3,10,0.015303591266274452,8,28.511,,39.9526379,,-113.4759759,False,0.4407417900074506,29.85,,38.897931183957695,,-77.03654519121181,1.338,,39.9526388,,-113.4759768,-1.3576056957244873,-0.059832509607076645,0.08964047580957413,-1,MISSION,,,,,,ACTIVE,28.601369619369507,-0.01,0.01,-1.31,12,1,15,0,17760384,128,2
1733424152.8240998,0.0,True,static_gps_spoofer,0.01436673291027546,0.01200447604060173,0.15134912729263306,-1.0,93,16.028,0,0,False,,,,0,0,3,10,0.025405067950487137,8,28.511,,39.9526379,,-113.4759759,False,0.5441092170076445,29.952,,38.897913441545505,,-77.03638181892025,1.441,,39.9526388,,-113.4759768,-1.4602783918380737,-0.0603751465678215,0.09024100750684738,-1,MISSION,,,,,,ACTIVE,1733424124.2227302,-0.02,0.01,-1.32,12,1,15,0,17760384,128,2
1733424152.927656,0.0,True,static_gps_spoofer,0.013784321025013924,0.011662790551781654,0.15092207491397858,-1.0,93,16.028,0,0,False,,,,0,0,3,10,0.0355658233165741,8,28.511,,39.9526379,,-113.4759759,False,0.6459128690039506,30.087,,38.89792206105568,,-77.03670905805546,1.575,,39.9526388,,-113.4759768,-1.5846842527389526,-0.060525279492139816,0.09048756211996078,-1,MISSION,,,,,,ACTIVE,28.704925775527954,-0.03,0.02,-1.33,12,1,15,0,17760384,128,2
1733424153.0274851,0.0,True,static_gps_spoofer,0.01323588564991951,0.010843438096344471,0.15042366087436676,-1.0,92,16.022,0,0,False,,,,0,0,3,10,0.046812642365694046,8,28.511,,39.9526379,,-113.4759759,False,0.746796607010765,30.192,,38.898028324938714,,-77.03654567290049,1.68,,39.9526388,,-113.4759768,-1.6893619298934937,-0.0601515993475914,0.09032095223665237,-1,MISSION,,,,,,ACTIVE,1733424124.3225594,-0.03,0.02,-1.34,12,1,15,0,17760384,128,2
1733424153.1293342,0.0,True,static_gps_spoofer,0.012836175039410591,0.010384177789092064,0.15922048687934875,-1.0,92,16.022,0,0,False,,,,0,0,3,10,0.04920458793640137,9,28.511,,39.9526379,,-113.4759759,False,0.8495012229977874,30.319,,38.89799161221862,,-77.03653940831366,1.807,,39.9526388,,-113.4759767,-1.8269152641296387,-0.05901418253779411,0.08971597999334335,-1,MISSION,,,,,,ACTIVE,28.806774854660034,-0.04,0.03,-1.35,12,1,15,0,17760384,128,2
1733424153.2314117,0.0,True,static_gps_spoofer,0.012191875837743282,0.009605043567717075,0.15998797118663788,-1.0,92,16.016,0,0,False,,,,0,0,3,10,0.05765180289745331,9,28.511,,39.9526379,,-113.4759759,False,0.952247567998711,30.458,,38.898215487989575,,-77.03665076238663,1.946,,39.9526387,,-113.4759767,-1.9444326162338257,-0.0572817288339138,0.08900757879018784,-1,MISSION,,,,,,ACTIVE,1733424124.4246368,-0.04,0.03,-1.35,12,1,15,0,17760384,128,2
1733424153.3295188,0.0,True,static_gps_spoofer,0.011899428442120552,0.008295872248709202,0.16058093309402466,-1.0,92,16.013,0,0,False,,,,0,0,3,10,0.06636928766965866,9,28.511,,39.9526379,,-113.4759759,False,0.026762009991216473,30.565,,38.89783320375212,,-77.03655814114973,2.054,,39.9526387,,-113.4759767,-2.063093900680542,-0.054983049631118774,0.08789142221212387,-1,MISSION,,,,,,ACTIVE,28.904881954193115,-0.05,0.04,-1.36,12,1,15,0,17760384,128,2
1733424153.431177,0.0,True,static_gps_spoofer,0.011261451058089733,0.007148137781769037,0.16071833670139313,-1.0,92,16.01,0,0,False,,,,0,0,3,10,0.06999236345291138,9,28.511,,39.9526379,,-113.4759759,False,0.027982018000329845,30.696,,38.89803146200784,,-77.03660931277246,2.184,,39.9526387,,-113.4759767,-2.171830654144287,-0.052540216594934464,0.08670395612716675,-1,MISSION,,,,,,ACTIVE,1733424124.526295,-0.05,0.04,-1.37,12,1,15,0,17760384,128,2
1733424153.5346756,0.0,True,static_gps_spoofer,0.011082283221185207,0.00645406823605299,0.15958251059055328,-1.0,92,16.01,0,0,False,,,,0,0,3,10,0.07538950443267822,9,28.511,,39.9526379,,-113.4759759,False,0.12905118500930257,30.806,,38.89801112275394,,-77.0364769878016,2.294,,39.9526387,,-113.4759766,-2.3143444061279297,-0.04851933568716049,0.08470602333545685,-1,MISSION,,,,,,ACTIVE,29.008380651474,-0.05,0.04,-1.38,12,1,15,0,17760384,128,2
1733424153.6371088,0.0,True,static_gps_spoofer,0.010640519671142101,0.005215516779571772,0.15751589834690094,-1.0,91,16.004,0,0,False,,,,0,0,3,10,0.0794094130396843,9,28.511,,39.9526379,,-113.4759759,False,0.23376369501056615,30.949,,38.89793033817301,,-77.03660094106952,2.437,,39.9526387,,-113.4759766,-2.4469234943389893,-0.04401934891939163,0.08222723007202148,-1,MISSION,,,,,,ACTIVE,1733424124.6287282,-0.06,0.05,-1.38,12,1,15,0,17760384,128,2
1733424153.7351213,0.0,True,static_gps_spoofer,0.010095953941345215,0.0043337903916835785,0.15627974271774292,-1.0,91,16.004,0,0,False,,,,0,0,3,10,0.0794094130396843,9,28.511,,39.9526379,,-113.4759759,False,0.3302195180003764,31.06,,38.89783180016641,,-77.03662704676893,2.549,,39.9526387,,-113.4759765,-2.55802583694458,-0.03997427225112915,0.07958608865737915,-1,MISSION,,,,,,ACTIVE,29.106393098831177,-0.06,0.05,-1.39,12,1,15,0,17760384,128,2
1733424153.8393245,0.0,True,static_gps_spoofer,0.009370716288685799,0.0032788387034088373,0.15545466542243958,-1.0,91,16.004,0,0,False,,,,0,0,3,10,0.08319650590419769,8,28.511,,39.9526379,,-113.4759759,False,0.4360647209978197,31.194,,38.89804793061285,,-77.0365764591422,2.683,,39.9526386,,-113.4759765,-2.703364849090576,-0.03456535190343857,0.07594598084688187,-1,MISSION,,,,,,ACTIVE,1733424124.7329314,-0.06,0.05,-1.4,12,1,15,0,17760384,128,2
1733424153.9360967,0.0,True,static_gps_spoofer,0.009236184880137444,0.002429378917440772,0.15473182499408722,-1.0,91,15.998,0,0,False,,,,0,0,3,10,0.0841333344578743,8,28.511,,39.9526379,,-113.4759759,False,0.5292558799992548,31.307,,38.89789613581637,,-77.03656069645028,2.795,,39.9526386,,-113.4759764,-2.8158578872680664,-0.03027319721877575,0.07302766293287277,-1,MISSION,,,,,,ACTIVE,29.203165292739868,-0.06,0.05,-1.4,12,1,15,0,17760384,128,2
1733424154.043189,0.0,True,static_gps_spoofer,0.008505547419190407,0.0017603178275749087,0.15354055166244507,-1.0,91,15.998,0,0,False,,,,0,0,3,10,0.08432494103908539,8,28.511,,39.9526379,,-113.4759759,False,0.6374360030022217,31.454,,38.89793197566255,,-77.03660840647012,2.942,,39.9526386,,-113.4759763,-2.9516072273254395,-0.024940742179751396,0.06928981095552444,-1,MISSION,,,,,,ACTIVE,1733424124.8400238,-0.06,0.05,-1.41,12,1,15,0,17760384,128,2
1733424154.14528,0.0,True,static_gps_spoofer,0.0076710558496415615,0.0008259816677309573,0.1528383046388626,-1.0,91,15.992,0,0,False,,,,0,0,3,10,0.08611563593149185,8,28.511,,39.9526379,,-113.4759759,False,0.7386086430051364,31.59,,38.89782809901803,,-77.03652808820792,3.079,,39.9526385,,-113.4759763,-3.0653512477874756,-0.020463839173316956,0.06592874974012375,-1,MISSION,,,,,,ACTIVE,29.305256128311157,-0.07,0.05,-1.41,12,1,15,0,17760384,128,2
1733424154.247279,0.0,True,static_gps_spoofer,0.007384149357676506,-0.00014446860586758703,0.1525246798992157,-1.0,91,15.992,0,0,False,,,,0,0,3,10,0.08641251176595688,8,28.511,,39.9526379,,-113.4759759,False,0.8409234330028994,31.705,,38.89795626222079,,-77.03652301969102,3.193,,39.9526385,,-113.4759762,-3.2138853073120117,-0.014582226984202862,0.06121089681982994,-1,MISSION,,,,,,ACTIVE,1733424124.9420228,-0.07,0.04,-1.42,12,1,15,0,17760384,128,2
1733424154.3482184,0.0,True,static_gps_spoofer,0.006538038142025471,-0.0011599266435950994,0.15251649916172028,-1.0,90,15.986,0,0,False,,,,0,0,3,10,0.08525174111127853,8,28.511,,39.9526379,,-113.4759759,False,0.9428571610042127,31.854,,38.89798433861073,,-77.03637949860365,3.343,,39.9526385,,-113.4759762,-3.3519461154937744,-0.009162180125713348,0.05663308501243591,-1,MISSION,,,,,,ACTIVE,29.406195640563965,-0.06,0.04,-1.43,12,1,15,0,17760384,128,2
1733424154.4496856,0.0,True,static_gps_spoofer,0.006374448537826538,-0.0014871889725327492,0.15186449885368347,-1.0,90,15.983,0,0,False,,,,0,0,3,10,0.08199921995401382,8,28.511,,39.9526379,,-113.4759759,False,0.03409479699621443,31.97,,38.898129743617226,,-77.03650609940523,3.458,,39.9526384,,-113.4759761,-3.4792017936706543,-0.004271234385669231,0.052231378853321075,-1,MISSION,,,,,,ACTIVE,1733424125.04349,-0.06,0.04,-1.43,12,1,15,0,17760384,128,2
1733424154.556537,0.0,True,static_gps_spoofer,0.006171037442982197,-0.002220429014414549,0.15085822343826294,-1.0,90,15.98,0,0,False,,,,0,0,3,10,0.07921901345252991,8,28.511,,39.9526379,,-113.4759759,False,0.03995619100169279,32.109,,38.897911543560475,,-77.03661055041083,3.597,,39.9526384,,-113.475976,-3.6185176372528076,0.0010546458652243018,0.04732414335012436,-1,MISSION,,,,,,ACTIVE,29.513046979904175,-0.06,0.04,-1.44,12,1,15,0,17760384,128,2
1733424154.657815,0.0,True,static_gps_spoofer,0.005800799932330847,-0.002684930572286248,0.15024350583553314,-1.0,90,15.98,0,0,False,,,,0,0,3,10,0.07605566084384918,8,28.511,,39.9526379,,-113.4759759,False,0.14206673399894498,32.26,,38.8977895155328,,-77.03661138148195,3.749,,39.9526383,,-113.475976,-3.7348222732543945,0.005587050691246986,0.0432719960808754,-1,MISSION,,,,,,ACTIVE,1733424125.144768,-0.06,0.04,-1.44,12,1,15,0,17760384,128,2
1733424154.756817,0.0,True,static_gps_spoofer,0.005498324055224657,-0.003317600581794977,0.14958986639976501,-1.0,90,15.974,0,0,False,,,,0,0,3,10,0.0720757246017456,8,28.511,,39.9526379,,-113.4759759,False,0.2391384719958296,32.377,,38.89804888404798,,-77.0367599396845,3.865,,39.9526383,,-113.4759759,-3.874671220779419,0.010940486565232277,0.038412317633628845,-1,MISSION,,,,,,ACTIVE,29.612049102783203,-0.06,0.03,-1.44,12,1,15,0,17760384,128,2
1733424154.8606699,0.0,True,static_gps_spoofer,0.005138929467648268,-0.0034363148733973503,0.14965184032917023,-1.0,90,15.974,0,0,False,,,,0,0,3,10,0.06811278313398361,8,28.511,,39.9526379,,-113.4759759,False,0.34380768799746875,32.517,,38.898012144624154,,-77.03650355329648,4.005,,39.9526383,,-113.4759759,-4.014679431915283,0.015968572348356247,0.03357236087322235,-1,MISSION,,,,,,ACTIVE,1733424125.2486207,-0.05,0.03,-1.45,12,1,15,0,17760384,128,2
1733424154.9571238,0.0,True,static_gps_spoofer,0.004536295775324106,-0.004014099948108196,0.14977183938026428,-1.0,90,15.974,0,0,False,,,,0,0,3,10,0.06811278313398361,8,28.511,,39.9526379,,-113.4759759,False,0.4394811399979517,32.634,,38.89796046839731,,-77.0364811754708,4.122,,39.9526382,,-113.4759758,-4.143244743347168,0.020524680614471436,0.028965691104531288,-1,MISSION,,,,,,ACTIVE,29.708503007888794,-0.05,0.03,-1.45,12,1,15,0,17760384,128,2
1733424155.0585504,0.0,True,static_gps_spoofer,0.0040096500888466835,-0.004555219318717718,0.14971895515918732,-1.0,89,15.968,0,0,False,,,,0,0,3,10,0.06567174196243286,8,28.511,,39.9526379,,-113.4759759,False,0.5418272410024656,32.751,,38.89788738978701,,-77.03663651378389,4.239,,39.9526382,,-113.4759758,-4.260399341583252,0.024432221427559853,0.02473326586186886,-1,MISSION,,,,,,ACTIVE,1733424125.3500473,-0.05,0.02,-1.45,12,1,15,0,17760384,128,2
1733424155.1641226,0.0,True,static_gps_spoofer,0.003497491590678692,-0.004819410853087902,0.15001416206359863,-1.0,89,15.968,0,0,False,,,,0,0,3,10,0.06139179691672325,8,28.511,,39.9526379,,-113.4759759,False,0.6459988540009363,32.868,,38.8979853101772,,-77.03651952671096,4.357,,39.9526381,,-113.4759757,-4.377777576446533,0.028005145490169525,0.02070464938879013,-1,MISSION,,,,,,ACTIVE,29.814075231552124,-0.05,0.02,-1.45,12,1,15,0,17760384,128,2
1733424155.2598093,0.0,True,static_gps_spoofer,0.0034565420355647802,-0.005283291917294264,0.1501438319683075,-1.0,89,15.962,0,0,False,,,,0,0,3,10,0.056494537740945816,8,28.511,,39.9526379,,-113.4759759,False,0.7414986090007005,32.962,,38.89799673661675,,-77.03658739972755,4.451,,39.9526381,,-113.4759757,-4.460115432739258,0.030342934653162956,0.017980918288230896,-1,MISSION,,,,,,ACTIVE,1733424125.445734,-0.05,0.02,-1.45,12,1,15,0,17760384,128,2
1733424155.361652,0.0,True,static_gps_spoofer,0.003273626323789358,-0.005095205269753933,0.15071873366832733,-1.0,89,15.962,0,0,False,,,,0,0,3,10,0.05013791099190712,8,28.511,,39.9526379,,-113.4759759,False,0.8440794729976915,33.104,,38.897969491437166,,-77.03636376545893,4.592,,39.9526381,,-113.4759757,-4.6015095710754395,0.03389453887939453,0.013598104007542133,-1,MISSION,,,,,,ACTIVE,29.91591787338257,-0.04,0.01,-1.46,12,1,15,0,17760384,128,2
1733424155.4631264,0.0,True,static_gps_spoofer,0.0031742702703922987,-0.005176266189664602,0.151402086019516,-1.0,89,15.962,0,0,False,,,,0,0,3,10,0.05013791099190712,8,28.511,,39.9526379,,-113.4759759,False,0.9469993579987204,33.222,,38.8980413752483,,-77.03629139766723,4.71,,39.952638,,-113.4759756,-4.731350421905518,0.03677131235599518,0.009618486277759075,-1,MISSION,,,,,,ACTIVE,1733424125.5472085,-0.04,0.01,-1.46,12,1,15,0,17760384,128,2
1733424155.5627332,0.0,True,static_gps_spoofer,0.0027871408965438604,-0.005091268569231033,0.15185880661010742,-1.0,89,15.956,0,0,False,,,,0,0,3,10,0.04604198783636093,8,28.511,,39.9526379,,-113.4759759,False,1.044200328993611,33.34,,38.89800638405812,,-77.03649124690087,4.828,,39.952638,,-113.4759756,-4.849569797515869,0.038823194801807404,0.006158533040434122,-1,MISSION,,,,,,ACTIVE,30.0155246257782,-0.04,0.0,-1.46,12,1,15,0,17760384,128,2
1733424155.6635275,0.0,True,static_gps_spoofer,0.0025012593250721693,-0.004742790944874287,0.1521269530057907,-1.0,88,15.953,0,0,False,,,,0,0,3,10,0.03965898975729942,8,28.511,,39.9526379,,-113.4759759,False,0.0658148320071632,33.494,,38.897956280853684,,-77.03654804693339,4.982,,39.952638,,-113.4759756,-4.967926025390625,0.040383145213127136,0.0029305482748895884,-1,MISSION,,,,,,ACTIVE,1733424125.6480029,-0.03,0.0,-1.47,12,1,15,0,17760384,128,2
1733424155.765731,0.0,True,static_gps_spoofer,0.0025015335995703936,-0.0043332516215741634,0.15260003507137299,-1.0,88,15.95,0,0,False,,,,0,0,3,10,0.035950981080532074,8,28.511,,39.9526379,,-113.4759759,False,0.06146646098932251,33.613,,38.89796474778746,,-77.03674020043582,5.101,,39.9526379,,-113.4759756,-5.110250473022461,0.041787974536418915,-0.0009317855583503842,-1,MISSION,,,,,,ACTIVE,30.117728233337402,-0.03,0.0,-1.47,12,1,15,0,17760384,128,2
1733424155.8681014,0.0,True,static_gps_spoofer,0.0026967227458953857,-0.004158484749495983,0.1531229317188263,-1.0,88,15.95,0,0,False,,,,0,0,3,10,0.03154551610350609,8,28.511,,39.9526379,,-113.4759759,False,0.15727119099756237,33.755,,38.898071811654866,,-77.03658959718392,5.243,,39.9526379,,-113.4759755,-5.241001605987549,0.04269382357597351,-0.004350634757429361,-1,MISSION,,,,,,ACTIVE,1733424125.7503731,-0.03,0.0,-1.47,12,1,15,0,17760384,128,2
1733424155.9665787,0.0,True,static_gps_spoofer,0.002315065823495388,-0.00374873005785048,0.15339739620685577,-1.0,88,15.944,0,0,False,,,,0,0,3,10,0.030350007116794586,8,28.511,,39.9526379,,-113.4759759,False,0.26067483199585695,33.874,,38.8980027808076,,-77.03666435227154,5.363,,39.9526379,,-113.4759755,-5.383918285369873,0.04310193285346031,-0.0077537125907838345,-1,MISSION,,,,,,ACTIVE,30.216205596923828,-0.02,-0.01,-1.47,12,1,15,0,17760384,128,2
1733424156.0684373,0.0,True,static_gps_spoofer,0.001990577206015587,-0.0033804813865572214,0.15357635915279388,-1.0,88,15.944,0,0,False,,,,0,0,3,10,0.03007086180150509,8,28.511,,39.9526379,,-113.4759759,False,0.3617299969919259,33.994,,38.897948839161785,,-77.03652240620234,5.482,,39.9526379,,-113.4759755,-5.503111362457275,0.0432155504822731,-0.010347326286137104,-1,MISSION,,,,,,ACTIVE,1733424125.8522317,-0.02,-0.01,-1.47,12,1,15,0,17760384,128,2
1733424156.1711712,0.0,True,static_gps_spoofer,0.0017154208617284894,-0.002547877375036478,0.1533365547657013,-1.0,88,15.938,0,0,False,,,,0,0,3,10,0.02840268425643444,8,28.511,,39.9526379,,-113.4759759,False,0.4653388149890816,34.149,,38.89793116156252,,-77.03673193423397,5.637,,39.9526378,,-113.4759755,-5.646539688110352,0.043179113417863846,-0.013424624688923359,-1,MISSION,,,,,,ACTIVE,30.318939447402954,-0.02,-0.01,-1.48,12,1,15,0,17760384,128,2
1733424156.2711847,0.0,True,static_gps_spoofer,0.001486782799474895,-0.0021382926497608423,0.1531960517168045,-1.0,88,15.938,0,0,False,,,,0,0,3,10,0.02692677266895771,8,28.511,,39.9526379,,-113.4759759,False,0.5638915149902459,34.269,,38.89798188157275,,-77.03658852680086,5.757,,39.9526378,,-113.4759755,-5.790319919586182,0.04300268739461899,-0.01632816530764103,-1,MISSION,,,,,,ACTIVE,1733424125.9522452,-0.01,-0.01,-1.48,12,1,15,0,17760384,128,2
1733424156.3746428,0.0,True,static_gps_spoofer,0.0015142862685024738,-0.001975894207134843,0.1532115638256073,-1.0,88,15.938,0,0,False,,,,0,0,3,10,0.02692677266895771,8,28.511,,39.9526379,,-113.4759759,False,0.6699186420009937,34.413,,38.8980714032579,,-77.0366420362769,5.901,,39.9526378,,-113.4759755,-5.922172546386719,0.042796749621629715,-0.018850071355700493,-1,MISSION,,,,,,ACTIVE,30.42239761352539,-0.01,-0.02,-1.48,12,1,15,0,17760384,128,2
1733424156.473651,0.0,True,static_gps_spoofer,0.0015412619104608893,-0.0017937961965799332,0.15287646651268005,-1.0,87,15.932,0,0,False,,,,0,0,3,10,0.028684021905064583,8,28.511,,39.9526379,,-113.4759759,False,0.7667271329992218,34.569,,38.89795084598724,,-77.03640282152274,6.057,,39.9526378,,-113.4759756,-6.042182922363281,0.04241036996245384,-0.0211026631295681,-1,MISSION,,,,,,ACTIVE,1733424126.0512533,-0.01,-0.02,-1.48,12,1,15,0,17760384,128,2
1733424156.573577,0.0,True,static_gps_spoofer,0.0009636431932449341,-0.0010864378418773413,0.1528472900390625,-1.0,87,15.932,0,0,False,,,,0,0,3,10,0.028185827657580376,8,28.511,,39.9526379,,-113.4759759,False,0.8683601109951269,34.689,,38.89784487756939,,-77.03668984995365,6.177,,39.9526377,,-113.4759756,-6.186512470245361,0.04156326502561569,-0.023331137374043465,-1,MISSION,,,,,,ACTIVE,30.522323608398438,-0.01,-0.02,-1.48,12,1,15,0,17760384,128,2
1733424156.6736891,0.0,True,static_gps_spoofer,0.001624859170988202,-0.000509964651428163,0.15295672416687012,-1.0,87,15.926,0,0,False,,,,0,0,3,10,0.029087161645293236,8,28.511,,39.9526379,,-113.4759759,False,0.9680416719929781,34.81,,38.89796874865621,,-77.03663690677345,6.298,,39.9526377,,-113.4759756,-6.307175159454346,0.04064498096704483,-0.024689316749572754,-1,MISSION,,,,,,ACTIVE,1733424126.1513655,0.0,-0.02,-1.49,12,1,15,0,17760384,128,2
1733424156.7769115,0.0,True,static_gps_spoofer,0.0017055036732926965,-0.0002672832924872637,0.15294693410396576,-1.0,87,15.923,0,0,False,,,,0,0,3,10,0.029589997604489326,8,28.511,,39.9526379,,-113.4759759,False,0.04979367900523357,34.954,,38.89790972985643,,-77.03666953544177,6.443,,39.9526377,,-113.4759756,-6.46423864364624,0.03935058414936066,-0.026011308655142784,-1,MISSION,,,,,,ACTIVE,30.625545978546143,0.0,-0.02,-1.49,12,1,15,0,17760384,128,2
1733424156.877541,0.0,True,static_gps_spoofer,0.0015321928076446056,-0.00010929702693829313,0.15307539701461792,-1.0,87,15.92,0,0,False,,,,0,0,3,10,0.029082387685775757,8,28.511,,39.9526379,,-113.4759759,False,0.049058520002290606,35.075,,38.898065799058465,,-77.03629554514502,6.564,,39.9526377,,-113.4759756,-6.597318172454834,0.03816303610801697,-0.026929128915071487,-1,MISSION,,,,,,ACTIVE,1733424126.251995,0.0,-0.02,-1.49,12,1,15,0,17760384,128,2
1733424156.9781153,0.0,True,static_gps_spoofer,0.0020106201991438866,-7.114002073649317e-05,0.1533220261335373,-1.0,87,15.92,0,0,False,,,,0,0,3,10,0.02774692326784134,8,28.511,,39.9526379,,-113.4759759,False,0.15252865399816073,35.233,,38.89809029100888,,-77.03669381892331,6.721,,39.9526377,,-113.4759756,-6.730522155761719,0.03678880259394646,-0.027674822136759758,-1,MISSION,,,,,,ACTIVE,30.726120233535767,0.0,-0.02,-1.49,12,1,15,0,17760384,128,2
1733424157.0794005,0.0,True,static_gps_spoofer,0.0022217724472284317,-0.0001010806008707732,0.15313024818897247,-1.0,86,15.914,0,0,False,,,,0,0,3,10,0.0292308758944273,8,28.511,,39.9526379,,-113.4759759,False,0.2491865490010241,35.354,,38.89793416731958,,-77.03654495167125,6.842,,39.9526377,,-113.4759756,-6.851703643798828,0.03525036200881004,-0.028015464544296265,-1,MISSION,,,,,,ACTIVE,1733424126.3532803,0.0,-0.02,-1.49,12,1,15,0,17760384,128,2
1733424157.1795228,0.0,True,static_gps_spoofer,0.002934684045612812,0.0007628109306097031,0.15292523801326752,-1.0,86,15.914,0,0,False,,,,0,0,3,10,0.032126180827617645,8,28.511,,39.9526379,,-113.4759759,False,0.3521608860028209,35.5,,38.89810167932278,,-77.03660396753266,6.988,,39.9526377,,-113.4759757,-7.009737491607666,0.03290916979312897,-0.028044965118169785,-1,MISSION,,,,,,ACTIVE,30.826242446899414,0.0,-0.03,-1.49,12,1,15,0,17760384,128,2
1733424157.2796922,0.0,True,static_gps_spoofer,0.002980876946821809,0.0013254511868581176,0.15298520028591156,-1.0,86,15.908,0,0,False,,,,0,0,3,10,0.032524123787879944,8,28.511,,39.9526379,,-113.4759759,False,0.4535588589933468,35.658,,38.89784380731553,,-77.03658646233956,7.146,,39.9526377,,-113.4759757,-7.143661022186279,0.03084937296807766,-0.027957871556282043,-1,MISSION,,,,,,ACTIVE,1733424126.4534497,0.01,-0.03,-1.49,12,1,15,0,17760384,128,2
1733424157.3798347,0.0,True,static_gps_spoofer,0.003444262081757188,0.001699434476904571,0.15299376845359802,-1.0,86,15.908,0,0,False,,,,0,0,3,10,0.03256949037313461,8,28.511,,39.9526379,,-113.4759759,False,0.5516039499925682,35.78,,38.89803155913772,,-77.03650167719512,7.268,,39.9526377,,-113.4759757,-7.277696132659912,0.02874714694917202,-0.02767185866832733,-1,MISSION,,,,,,ACTIVE,30.926384925842285,0.01,-0.02,-1.49,12,1,15,0,17760384,128,2
1733424157.4799657,0.0,True,static_gps_spoofer,0.0037809344939887524,0.001697626430541277,0.15303562581539154,-1.0,86,15.908,0,0,False,,,,0,0,3,10,0.033635374158620834,8,28.511,,39.9526379,,-113.4759759,False,0.6533895859902259,35.902,,38.89794162557395,,-77.03644792161008,7.39,,39.9526377,,-113.4759757,-7.399513244628906,0.026955049484968185,-0.027205966413021088,-1,MISSION,,,,,,ACTIVE,1733424126.5535808,0.01,-0.02,-1.5,12,1,15,0,17760384,128,2
1733424157.580177,0.0,True,static_gps_spoofer,0.0037458508741110563,0.0021224936936050653,0.1529608964920044,-1.0,86,15.902,0,0,False,,,,0,0,3,10,0.03184889629483223,8,28.511,,39.9526379,,-113.4759759,False,0.7518704399990384,36.048,,38.89803614805117,,-77.0364667176032,7.536,,39.9526377,,-113.4759758,-7.557841777801514,0.02503608912229538,-0.026071300730109215,-1,MISSION,,,,,,ACTIVE,31.026596307754517,0.01,-0.02,-1.5,12,1,15,0,17760384,128,2
1733424157.6809936,0.0,True,static_gps_spoofer,0.0039744870737195015,0.00195903517305851,0.1527901440858841,-1.0,86,15.902,0,0,False,,,,0,0,3,10,0.031041771173477173,8,28.511,,39.9526379,,-113.4759759,False,0.8535340169910342,36.17,,38.89807432606155,,-77.03666337730978,7.658,,39.9526377,,-113.4759758,-7.679534435272217,0.023677220568060875,-0.02495574951171875,-1,MISSION,,,,,,ACTIVE,1733424126.6543972,0.01,-0.02,-1.5,12,1,15,0,17760384,128,2
1733424157.7821422,0.0,True,static_gps_spoofer,0.004338306840509176,0.002414215123280883,0.15248680114746094,-1.0,85,15.896,0,0,False,,,,0,0,3,10,0.031708065420389175,8,28.511,,39.9526379,,-113.4759759,False,0.9561166850035079,36.328,,38.89799113403951,,-77.03657177462051,7.816,,39.9526377,,-113.4759758,-7.825507640838623,0.022120237350463867,-0.023225514218211174,-1,MISSION,,,,,,ACTIVE,31.127744913101196,0.01,-0.02,-1.5,12,1,15,0,17760384,128,2
1733424157.8842018,0.0,True,static_gps_spoofer,0.005134216509759426,0.002723154379054904,0.15247192978858948,-1.0,85,15.893,0,0,False,,,,0,0,3,10,0.03234491124749184,8,28.511,,39.9526379,,-113.4759759,False,0.04058227599307429,36.474,,38.89783823884204,,-77.03655770434301,7.962,,39.9526378,,-113.4759758,-7.959323883056641,0.02090916968882084,-0.021393151953816414,-1,MISSION,,,,,,ACTIVE,1733424126.7564569,0.02,-0.02,-1.5,12,1,15,0,17760384,128,2
1733424157.9846725,0.0,True,static_gps_spoofer,0.005443262401968241,0.002709311433136463,0.15263596177101135,-1.0,85,15.89,0,0,False,,,,0,0,3,10,0.030092880129814148,8,28.511,,39.9526379,,-113.4759759,False,0.03632909301086329,36.596,,38.898079902527044,,-77.0366463464526,8.084,,39.9526378,,-113.4759758,-8.105472564697266,0.019912976771593094,-0.019180288538336754,-1,MISSION,,,,,,ACTIVE,31.22821569442749,0.02,-0.02,-1.5,12,1,15,0,17760384,128,2
1733424158.0831227,0.0,True,static_gps_spoofer,0.006235765293240547,0.002008486771956086,0.1529552936553955,-1.0,85,15.89,0,0,False,,,,0,0,3,10,0.027747515588998795,8,28.511,,39.9526379,,-113.4759759,False,0.13300440700550098,36.717,,38.897847650515075,,-77.036836733439,8.206,,39.9526378,,-113.4759758,-8.227240562438965,0.01928119920194149,-0.017127055674791336,-1,MISSION,,,,,,ACTIVE,1733424126.854907,0.02,-0.01,-1.5,12,1,15,0,17760384,128,2
1733424158.1875365,0.0,True,static_gps_spoofer,0.006665154360234737,0.0018619754118844867,0.15307660400867462,-1.0,85,15.884,0,0,False,,,,0,0,3,10,0.028702259063720703,8,28.511,,39.9526379,,-113.4759759,False,0.24206758799846284,36.876,,38.898044346620615,,-77.03657231158006,8.364,,39.9526378,,-113.4759758,-8.373394012451172,0.018542248755693436,-0.014440452679991722,-1,MISSION,,,,,,ACTIVE,31.332629442214966,0.02,-0.01,-1.5,12,1,15,0,17760384,128,2
1733424158.2875268,0.0,True,static_gps_spoofer,0.007592247799038887,0.0012189712142571807,0.15317824482917786,-1.0,85,15.884,0,0,False,,,,0,0,3,10,0.028702259063720703,8,28.511,,39.9526379,,-113.4759759,False,0.3408162120031193,36.998,,38.89796351367128,,-77.03634175822074,8.486,,39.9526378,,-113.4759758,-8.49520206451416,0.018004246056079865,-0.012153149582445621,-1,MISSION,,,,,,ACTIVE,1733424126.9548974,0.02,-0.01,-1.5,12,1,15,0,17760384,128,2
1733424158.3894112,0.0,True,static_gps_spoofer,0.007969907484948635,0.001493888790719211,0.15295150876045227,-1.0,85,15.884,0,0,False,,,,0,0,3,10,0.028676534071564674,8,28.511,,39.9526379,,-113.4759759,False,0.44388477499887813,37.119,,38.89800315639705,,-77.03636848704843,8.608,,39.9526379,,-113.4759758,-8.6171236038208,0.017412979155778885,-0.009740428067743778,-1,MISSION,,,,,,ACTIVE,31.434513807296753,0.02,-0.01,-1.5,12,1,15,0,17760384,128,2
1733424158.4925375,0.0,True,static_gps_spoofer,0.008449637331068516,0.0015539899468421936,0.15263207256793976,-1.0,84,15.878,0,0,False,,,,0,0,3,10,0.02725016139447689,8,28.511,,39.9526379,,-113.4759759,False,0.5420049680105876,37.266,,38.89806978278524,,-77.03674463711717,8.754,,39.9526379,,-113.4759759,-8.775847434997559,0.016529545187950134,-0.006350844632834196,-1,MISSION,,,,,,ACTIVE,1733424127.0580237,0.02,-0.01,-1.5,12,1,15,0,17760384,128,2
1733424158.5978951,0.0,True,static_gps_spoofer,0.008699563331902027,0.0015367366140708327,0.15275439620018005,-1.0,84,15.878,0,0,False,,,,0,0,3,10,0.025333501398563385,8,28.511,,39.9526379,,-113.4759759,False,0.6501401800051099,37.388,,38.89782723291796,,-77.03654323654325,8.876,,39.9526379,,-113.4759759,-8.898055076599121,0.01564820297062397,-0.0037547932006418705,-1,MISSION,,,,,,ACTIVE,31.53987145423889,0.02,-0.01,-1.5,12,1,15,0,17760384,128,2
1733424158.7006972,0.0,True,static_gps_spoofer,0.008775336667895317,0.0015705680707469583,0.15229791402816772,-1.0,84,15.872,0,0,False,,,,0,0,3,10,0.023478126153349876,8,28.511,,39.9526379,,-113.4759759,False,0.752258085005451,37.547,,38.89786807243722,,-77.03653785178118,9.035,,39.9526379,,-113.4759759,-9.03239917755127,0.014697500504553318,-0.0009938506409525871,-1,MISSION,,,,,,ACTIVE,1733424127.1608257,0.01,-0.01,-1.51,12,1,15,0,17760384,128,2
1733424158.805443,0.0,True,static_gps_spoofer,0.008895560167729855,0.001833294052630663,0.15196675062179565,-1.0,84,15.872,0,0,False,,,,0,0,3,10,0.02132205106317997,8,28.511,,39.9526379,,-113.4759759,False,0.8597476010036189,37.669,,38.89797143589992,,-77.03650159476392,9.157,,39.952638,,-113.4759759,-9.1668701171875,0.013819703832268715,0.00177209940738976,-1,MISSION,,,,,,ACTIVE,31.644617319107056,0.01,0.0,-1.51,12,1,15,0,17760384,128,2
1733424158.9010491,0.0,True,static_gps_spoofer,0.009177611209452152,0.0021438535768538713,0.15191033482551575,-1.0,84,15.866,0,0,False,,,,0,0,3,10,0.018454628065228462,8,28.511,,39.9526379,,-113.4759759,False,0.9532362180034397,37.791,,38.89806781601511,,-77.03642128650098,9.28,,39.952638,,-113.4759759,-9.289154052734375,0.013108834624290466,0.004374213982373476,-1,MISSION,,,,,,ACTIVE,1733424127.2564318,0.01,0.0,-1.51,12,1,15,0,17760384,128,2
1733424159.0020103,0.0,True,static_gps_spoofer,0.008984394371509552,0.0019792625680565834,0.1516408771276474,-1.0,84,15.866,0,0,False,,,,0,0,3,10,0.018454628065228462,8,28.511,,39.9526379,,-113.4759759,False,1.0498338320030598,37.914,,38.897936705643914,,-77.03655334090867,9.402,,39.952638,,-113.4759759,-9.4115629196167,0.012459815479815006,0.007125327829271555,-1,MISSION,,,,,,ACTIVE,31.74557852745056,0.01,0.0,-1.51,12,1,15,0,17760384,128,2
1733424159.1070423,0.0,True,static_gps_spoofer,0.009744813665747643,0.0021445807069540024,0.15160495042800903,-1.0,83,15.863,0,0,False,,,,0,0,3,10,0.017009371891617775,8,28.511,,39.9526379,,-113.4759759,False,0.09587183500116225,38.061,,38.897870223271966,,-77.0364878118397,9.549,,39.952638,,-113.4759759,-9.570819854736328,0.01179233193397522,0.010877515189349651,-1,MISSION,,,,,,ACTIVE,1733424127.3614638,0.01,0.0,-1.51,12,1,15,0,17760384,128,2
1733424159.2043722,0.0,True,static_gps_spoofer,0.010161382146179676,0.002438470022752881,0.15161320567131042,-1.0,83,15.86,0,0,False,,,,0,0,3,10,0.01681000366806984,8,28.511,,39.9526379,,-113.4759759,False,0.08853228799125645,38.183,,38.89806366157766,,-77.03659607719688,9.672,,39.9526381,,-113.4759759,-9.69330883026123,0.011354724876582623,0.013816340826451778,-1,MISSION,,,,,,ACTIVE,31.84290838241577,0.01,0.0,-1.51,12,1,15,0,17760384,128,2
1733424159.3045783,0.0,True,static_gps_spoofer,0.01051686704158783,0.0024317537900060415,0.15169404447078705,-1.0,83,15.86,0,0,False,,,,0,0,3,10,0.011471741832792759,8,28.511,,39.9526379,,-113.4759759,False,0.19100160199741367,38.343,,38.89816080171462,,-77.03663057831811,9.831,,39.9526381,,-113.4759759,-9.840338706970215,0.011081085540354252,0.01727752387523651,-1,MISSION,,,,,,ACTIVE,1733424127.46167,0.0,0.0,-1.51,12,1,15,0,17760384,128,2
1733424159.4056685,0.0,True,static_gps_spoofer,0.01051304955035448,0.002313381526619196,0.15178200602531433,-1.0,83,15.854,0,0,False,,,,0,0,3,10,0.010505019687116146,8,28.511,,39.9526379,,-113.4759759,False,0.29217139798856806,38.465,,38.89828789281571,,-77.03676917269193,9.953,,39.9526381,,-113.4759759,-9.96280574798584,0.010964451357722282,0.020191321149468422,-1,MISSION,,,,,,ACTIVE,31.94399857521057,0.0,0.0,-1.51,12,1,15,0,17760384,128,2
1733424159.509082,0.0,True,static_gps_spoofer,0.010847550816833973,0.0021086265332996845,0.15139628946781158,-1.0,83,15.854,0,0,False,,,,0,0,3,10,0.007553891744464636,8,28.511,,39.9526379,,-113.4759759,False,0.3938528259895975,38.612,,38.897824317669034,,-77.03653122982081,10.1,,39.9526382,,-113.4759759,-10.09742546081543,0.010930445045232773,0.02341948077082634,-1,MISSION,,,,,,ACTIVE,1733424127.5650835,0.0,0.0,-1.51,12,1,15,0,17760384,128,2
1733424159.6073923,0.0,True,static_gps_spoofer,0.010925165377557278,0.0021436118986457586,0.1511484682559967,-1.0,83,15.848,0,0,False,,,,0,0,3,10,0.005174772348254919,8,28.511,,39.9526379,,-113.4759759,False,0.4925205439940328,38.735,,38.898052896248494,,-77.03668240495033,10.224,,39.9526382,,-113.4759759,-10.245552062988281,0.010964090935885906,0.026825761422514915,-1,MISSION,,,,,,ACTIVE,32.04230880737305,0.0,0.0,-1.53,12,1,15,0,17760384,128,2
