timestamp,airspeed,armed,attack_type,attitude.pitch,attitude.roll,attitude.yaw,battery.current,battery.level,battery.voltage,commands.count,commands.next,ekf_ok,gimbal.pitch,gimbal.roll,gimbal.yaw,gps_0.eph,gps_0.epv,gps_0.fix_type,gps_0.satellites_visible,groundspeed,heading,home_location.alt,home_location.global_frame,home_location.lat,home_location.local_frame,home_location.lon,is_armable,last_heartbeat,location.global_frame.alt,location.global_frame.global_frame,location.global_frame.lat,location.global_frame.local_frame,location.global_frame.lon,location.global_relative_frame.alt,location.global_relative_frame.global_frame,location.global_relative_frame.lat,location.global_relative_frame.local_frame,location.global_relative_frame.lon,location.local_frame.down,location.local_frame.east,location.local_frame.north,ml_verdict,mode.name,mount_status[0],mount_status[1],mount_status[2],rangefinder.distance,rangefinder.voltage,system_status.state,timedelta,velocity[0],velocity[1],velocity[2],version.autopilot_type,version.major,version.minor,version.patch,version.raw_version,version.release,version.vehicle_type
1732729580.576419,0.0,True,benign,-0.0241062454879283,-0.0153588382527232,-3.1020760536193848,0.21,76,16.111,0,0,False,,,,66,104,3,19,0.0298616532236337,182,81.35,,39.1424171,,-76.7304851,False,0.0137754070001392,80.881,,39.1424151,,-76.7304841,-0.017,,39.1424151,,-76.7304841,9.162005424499512,6.310528755187988,-22.84644317626953,-1,POSCTL,,,,6,,ACTIVE,0.0,0.0,0.02,0.03,12,1,15,2,17760768,0,13
1732729580.6724284,0.0,True,benign,-0.0242419205605983,-0.0152616687119007,-3.102018356323242,0.67,76,16.109,0,0,False,,,,66,104,3,19,0.0368544049561023,182,81.35,,39.1424171,,-76.7304851,False,0.1069239439998455,80.87,,39.1424151,,-76.730484,-0.028,,39.1424151,,-76.730484,9.162005424499512,6.310528755187988,-22.84644317626953,-1,POSCTL,,,,6,,ACTIVE,1732729580.6724284,0.0,0.03,0.03,12,1,15,2,17760768,0,13
1732729580.7733417,0.0,True,benign,-0.0236151702702045,-0.0149583220481872,-3.102501630783081,0.67,76,16.109,0,0,False,,,,66,104,3,19,0.0368544049561023,182,81.35,,39.1424171,,-76.7304851,False,0.2146838700000444,80.866,,39.1424151,,-76.730484,-0.032,,39.1424151,,-76.730484,9.169431686401367,6.314915180206299,-22.849828720092773,-1,POSCTL,,,,6,,ACTIVE,0.1009132862091064,0.0,0.04,0.03,12,1,15,2,17760768,0,13
1732729580.8735106,0.0,True,benign,-0.0236413720995187,-0.0150121450424194,-3.1026594638824463,0.67,76,16.109,0,0,False,,,,66,104,3,19,0.0368544049561023,182,81.35,,39.1424171,,-76.7304851,False,0.3088343700001132,80.858,,39.142415,,-76.730484,-0.039,,39.142415,,-76.730484,9.17508029937744,6.319031715393066,-22.852184295654297,-1,POSCTL,,,,7,,ACTIVE,1732729580.7725973,0.0,0.04,0.02,12,1,15,2,17760768,0,13
1732729580.9737403,0.0,True,benign,-0.0237996466457843,-0.0147552611306309,-3.102386951446533,0.67,76,16.109,0,0,False,,,,66,104,3,19,0.0422647148370742,182,81.35,,39.1424171,,-76.7304851,False,0.3940599070001553,80.854,,39.142415,,-76.7304839,-0.044,,39.142415,,-76.7304839,9.1824951171875,6.322281360626221,-22.85731315612793,-1,POSCTL,,,,7,,ACTIVE,0.2011430263519287,0.0,0.03,0.02,12,1,15,2,17760768,0,13
1732729581.0739698,0.0,True,benign,-0.0237339287996292,-0.0147694293409585,-3.102571964263916,0.67,76,16.109,0,0,False,,,,66,104,3,19,0.0422647148370742,182,81.35,,39.1424171,,-76.7304851,False,0.5090033139999832,80.847,,39.1424149,,-76.7304839,-0.051,,39.1424149,,-76.7304839,9.188312530517578,6.326178073883057,-22.862276077270508,-1,POSCTL,,,,7,,ACTIVE,1732729580.8728268,0.0,0.03,0.02,12,1,15,2,17760768,0,13
1732729581.1739771,0.0,True,benign,-0.0241151489317417,-0.0145821841433644,-3.102555274963379,0.67,76,16.109,0,0,False,,,,66,104,3,19,0.0422647148370742,182,81.35,,39.1424171,,-76.7304851,False,0.5999928510000245,80.843,,39.1424149,,-76.7304839,-0.055,,39.1424149,,-76.7304839,9.19371223449707,6.327859878540039,-22.866064071655277,-1,POSCTL,,,,6,,ACTIVE,0.3011503219604492,0.0,0.02,0.01,12,1,15,2,17760768,0,13
1732729581.2743316,0.0,True,benign,-0.0241478942334651,-0.0148362144827842,-3.102367877960205,1.17,76,16.094,0,0,False,,,,66,104,3,19,0.0422647148370742,182,81.35,,39.1424171,,-76.7304851,False,0.7155934620000153,80.836,,39.1424149,,-76.7304839,-0.062,,39.1424149,,-76.7304839,9.2000732421875,6.328510284423828,-22.871435165405277,-1,POSCTL,,,,6,,ACTIVE,1732729580.9731812,-0.01,0.02,0.02,12,1,15,2,17760768,0,13
1732729581.3748622,0.0,True,benign,-0.0239672176539897,-0.0145607599988579,-3.1025595664978027,1.17,76,16.094,0,0,False,,,,66,104,3,19,0.0238514468073844,182,80.898,,39.1424152,,-76.7304842,False,0.8161429249998946,80.832,,39.1424148,,-76.7304839,-0.066,,39.1424148,,-76.7304839,9.20672607421875,6.328780174255371,-22.87640190124512,-1,POSCTL,,,,6,,ACTIVE,0.4016809463500976,-0.01,0.02,0.02,12,1,15,2,17760768,0,13
1732729581.4759376,0.0,True,benign,-0.0239104200154542,-0.0145589811727404,-3.102588891983032,1.17,76,16.094,0,0,False,,,,66,104,3,19,0.0238514468073844,182,80.898,,39.1424152,,-76.7304842,False,0.917358628999864,80.825,,39.1424148,,-76.7304839,-0.073,,39.1424148,,-76.7304839,9.212494850158691,6.33035945892334,-22.881986618041992,-1,POSCTL,,,,7,,ACTIVE,1732729581.074257,-0.01,0.02,0.01,12,1,15,2,17760768,0,13
1732729581.5751152,0.0,True,benign,-0.0233516879379749,-0.0143785299733281,-3.102687120437622,1.17,76,16.094,0,0,False,,,,66,104,3,20,0.0238514468073844,182,80.898,,39.1424152,,-76.7304842,False,0.0141333520000443,80.821,,39.1424148,,-76.7304838,-0.076,,39.1424148,,-76.7304838,9.212494850158691,6.33035945892334,-22.881986618041992,-1,POSCTL,,,,7,,ACTIVE,0.5008585453033447,-0.01,0.01,0.02,12,1,15,2,17760768,0,13
1732729581.6757998,0.0,True,benign,-0.0229114275425672,-0.0141677465289831,-3.1029839515686035,1.17,76,16.094,0,0,False,,,,66,104,3,20,0.0245572235435247,182,80.898,,39.1424152,,-76.7304842,False,0.1237140739999631,80.812,,39.1424147,,-76.7304838,-0.086,,39.1424147,,-76.7304838,9.219161987304688,6.332589626312256,-22.88605308532715,-1,POSCTL,,,,7,,ACTIVE,1732729581.1749413,-0.01,0.02,0.02,12,1,15,2,17760768,0,13
1732729581.7762957,0.0,True,benign,-0.0230013076215982,-0.0137348845601081,-3.103147506713867,1.17,76,16.094,0,0,False,,,,66,104,3,20,0.0245572235435247,182,80.898,,39.1424152,,-76.7304842,False,0.2238624260003234,80.807,,39.1424147,,-76.7304838,-0.091,,39.1424147,,-76.7304838,9.227636337280272,6.334011554718018,-22.890966415405277,-1,POSCTL,,,,7,,ACTIVE,0.6013543605804443,-0.02,0.01,0.01,12,1,15,2,17760768,0,13
1732729581.875527,0.0,True,benign,-0.0230384115129709,-0.0136173898354172,-3.1033880710601807,1.17,76,16.094,0,0,False,,,,66,104,3,20,0.0245572235435247,182,80.898,,39.1424152,,-76.7304842,False,0.3219560550001006,80.8,,39.1424146,,-76.7304838,-0.098,,39.1424146,,-76.7304838,9.234392166137695,6.334726810455322,-22.896015167236328,-1,POSCTL,,,,6,,ACTIVE,1732729581.2741723,-0.01,0.0,0.01,12,1,15,2,17760768,0,13
1732729581.9763484,0.0,True,benign,-0.0224171336740255,-0.0134941190481185,-3.1035492420196533,1.14,76,16.093,0,0,False,,,,66,104,3,20,0.0255661867558956,182,80.898,,39.1424152,,-76.7304842,False,0.42446329600034,80.796,,39.1424146,,-76.7304838,-0.101,,39.1424146,,-76.7304838,9.239907264709473,6.335500717163086,-22.900644302368164,-1,POSCTL,,,,6,,ACTIVE,0.7021758556365967,-0.02,0.01,0.01,12,1,15,2,17760768,0,13
1732729582.0760903,0.0,True,benign,-0.0224282480776309,-0.0132219046354293,-3.1037840843200684,1.14,76,16.093,0,0,False,,,,66,104,3,20,0.0255661867558956,182,80.898,,39.1424152,,-76.7304842,False,0.5230675739999242,80.793,,39.1424146,,-76.7304838,-0.104,,39.1424146,,-76.7304838,9.24448013305664,6.3371171951293945,-22.904516220092773,-1,POSCTL,,,,6,,ACTIVE,1732729581.3739145,-0.01,0.01,0.01,12,1,15,2,17760768,0,13
1732729582.176344,0.0,True,benign,-0.0224916394799947,-0.0133234085515141,-3.10406231880188,1.14,76,16.093,0,0,False,,,,66,104,3,20,0.0255661867558956,182,80.898,,39.1424152,,-76.7304842,False,0.6083032400001684,80.787,,39.1424145,,-76.7304838,-0.111,,39.1424145,,-76.7304838,9.249984741210938,6.337856769561768,-22.90778350830078,-1,POSCTL,,,,7,,ACTIVE,0.8024294376373291,0.0,0.0,0.01,12,1,15,2,17760768,0,13
1732729582.276371,0.0,True,benign,-0.0216098818928003,-0.0131003260612487,-3.1041531562805176,1.14,76,16.093,0,0,False,,,,66,104,3,21,0.0255661867558956,182,80.898,,39.1424152,,-76.7304842,False,0.7150209989999894,80.784,,39.1424145,,-76.7304838,-0.114,,39.1424145,,-76.7304838,9.249984741210938,6.337856769561768,-22.90778350830078,-1,POSCTL,,,,7,,ACTIVE,1732729581.4739416,0.0,0.0,0.01,12,1,15,2,17760768,0,13
1732729582.3765674,0.0,True,benign,-0.0212629586458206,-0.012633086182177,-3.1043589115142822,1.14,76,16.093,0,0,False,,,,66,104,3,21,0.0024122439790517,182,80.898,,39.1424152,,-76.7304842,False,0.8153405729999577,80.778,,39.1424145,,-76.7304838,-0.119,,39.1424145,,-76.7304838,9.25473976135254,6.337790489196777,-22.90996551513672,-1,POSCTL,,,,7,,ACTIVE,0.9026257991790771,0.0,0.0,0.0,12,1,15,2,17760768,0,13
1732729582.4766812,0.0,True,benign,-0.0205211769789457,-0.0128451446071267,-3.104203939437866,1.14,76,16.093,0,0,False,,,,66,104,3,21,0.0024122439790517,182,80.898,,39.1424152,,-76.7304842,False,0.907908110000335,80.777,,39.1424145,,-76.7304837,-0.121,,39.1424145,,-76.7304837,9.258429527282717,6.338772296905518,-22.91173553466797,-1,POSCTL,,,,7,,ACTIVE,1732729581.5740554,0.0,-0.01,0.0,12,1,15,2,17760768,0,13
1732729582.576878,0.0,True,benign,-0.0200468394905328,-0.0123763615265488,-3.104395627975464,1.14,76,16.093,0,0,False,,,,66,104,3,21,0.0024122439790517,182,80.898,,39.1424152,,-76.7304842,False,0.004410629999711,80.772,,39.1424145,,-76.7304837,-0.126,,39.1424145,,-76.7304837,9.26230525970459,6.3394389152526855,-22.91315269470215,-1,POSCTL,,,,6,,ACTIVE,1.0028226375579834,0.0,0.0,0.01,12,1,15,2,17760768,0,13
1732729582.677137,0.0,True,benign,-0.0200609546154737,-0.0118526518344879,-3.1044921875,1.13,76,16.089,0,0,False,,,,66,104,3,21,0.016593936830759,182,80.898,,39.1424152,,-76.7304842,False,0.1147478339998997,80.768,,39.1424145,,-76.7304837,-0.129,,39.1424145,,-76.7304837,9.26805305480957,6.339251518249512,-22.91572380065918,-1,POSCTL,,,,6,,ACTIVE,1732729581.6743145,0.0,-0.01,0.01,12,1,15,2,17760768,0,13
1732729582.7773926,0.0,True,benign,-0.019246332347393,-0.0120136979967355,-3.10478949546814,1.13,76,16.089,0,0,False,,,,66,104,3,21,0.016593936830759,182,80.898,,39.1424152,,-76.7304842,False,0.2067268339997099,80.763,,39.1424144,,-76.7304837,-0.135,,39.1424144,,-76.7304837,9.272818565368652,6.33961820602417,-22.91781997680664,-1,POSCTL,,,,6,,ACTIVE,1.1030783653259275,0.01,-0.01,0.01,12,1,15,2,17760768,0,13
1732729582.8776348,0.0,True,benign,-0.0181774832308292,-0.0120509099215269,-3.104855298995972,1.13,76,16.089,0,0,False,,,,66,104,3,21,0.016593936830759,182,80.898,,39.1424152,,-76.7304842,False,0.3116507039999305,80.76,,39.1424144,,-76.7304837,-0.137,,39.1424144,,-76.7304837,9.276846885681152,6.339400291442871,-22.91877174377441,-1,POSCTL,,,,7,,ACTIVE,1732729581.7745564,0.01,-0.02,0.0,12,1,15,2,17760768,0,13
1732729582.9780874,0.0,True,benign,-0.018496036529541,-0.0116955609992146,-3.1050593852996826,1.13,76,16.089,0,0,False,,,,66,104,3,21,0.016593936830759,182,80.898,,39.1424152,,-76.7304842,False,0.415530611000122,80.755,,39.1424144,,-76.7304837,-0.143,,39.1424144,,-76.7304837,9.281720161437988,6.339174747467041,-22.91935157775879,-1,POSCTL,,,,7,,ACTIVE,1.20353102684021,0.01,-0.01,0.0,12,1,15,2,17760768,0,13
1732729583.0782688,0.0,True,benign,-0.0184555202722549,-0.0115253096446394,-3.105266571044922,1.13,76,16.089,0,0,False,,,,66,104,3,21,0.0257621854543685,182,80.898,,39.1424152,,-76.7304842,False,0.5108072039997751,80.752,,39.1424144,,-76.7304837,-0.145,,39.1424144,,-76.7304837,9.285893440246582,6.340028762817383,-22.9204158782959,-1,POSCTL,,,,7,,ACTIVE,1732729581.8747375,0.01,-0.01,0.0,12,1,15,2,17760768,0,13
1732729583.1786337,0.0,True,benign,-0.0181579049676656,-0.0112897809594869,-3.10508394241333,1.13,76,16.089,0,0,False,,,,66,104,3,21,0.0257621854543685,182,80.898,,39.1424152,,-76.7304842,False,0.6160552589999497,80.748,,39.1424144,,-76.7304837,-0.15,,39.1424144,,-76.7304837,9.285893440246582,6.340028762817383,-22.9204158782959,-1,POSCTL,,,,7,,ACTIVE,1.3038957118988037,0.02,0.0,0.0,12,1,15,2,17760768,0,13
1732729583.2788208,0.0,True,benign,-0.0184573736041784,-0.0109429946169257,-3.1053659915924072,1.13,76,16.089,0,0,False,,,,66,104,3,21,0.0257621854543685,182,80.898,,39.1424152,,-76.7304842,False,0.6929259439998532,80.746,,39.1424144,,-76.7304837,-0.152,,39.1424144,,-76.7304837,9.288722038269045,6.341992378234863,-22.92119789123535,-1,POSCTL,,,,7,,ACTIVE,1732729581.974925,0.02,-0.01,0.0,12,1,15,2,17760768,0,13
1732729583.3797526,0.0,True,benign,-0.0177887547761201,-0.0114191500470042,-3.1053292751312256,1.13,76,16.079,0,0,False,,,,66,104,3,21,0.0336406603455543,182,80.898,,39.1424152,,-76.7304842,False,0.8174919260000024,80.743,,39.1424144,,-76.7304837,-0.154,,39.1424144,,-76.7304837,9.29283046722412,6.343754768371582,-22.92215156555176,-1,POSCTL,,,,7,,ACTIVE,1.40482759475708,0.03,0.0,0.0,12,1,15,2,17760768,0,13
1732729583.4789736,0.0,True,benign,-0.0177227854728698,-0.0115994764491915,-3.105478048324585,1.13,76,16.079,0,0,False,,,,66,104,3,21,0.0336406603455543,182,80.898,,39.1424152,,-76.7304842,False,0.9040592589999504,80.738,,39.1424144,,-76.7304837,-0.16,,39.1424144,,-76.7304837,9.29736328125,6.346362113952637,-22.92253303527832,-1,POSCTL,,,,7,,ACTIVE,1732729582.074146,0.03,-0.01,0.0,12,1,15,2,17760768,0,13
1732729583.5801332,0.0,True,benign,-0.0179282054305076,-0.0112996809184551,-3.105496406555176,1.13,76,16.079,0,0,False,,,,66,104,3,21,0.0336406603455543,182,80.898,,39.1424152,,-76.7304842,False,0.0270039450001604,80.734,,39.1424144,,-76.7304836,-0.164,,39.1424144,,-76.7304836,9.302679061889648,6.349067211151123,-22.924562454223636,-1,POSCTL,,,,7,,ACTIVE,1.5059871673583984,0.02,0.0,0.0,12,1,15,2,17760768,0,13
1732729583.680155,0.0,True,benign,-0.0177303999662399,-0.0113350003957748,-3.105790376663208,1.13,76,16.079,0,0,False,,,,66,104,3,21,0.0426644459366798,182,80.898,,39.1424152,,-76.7304842,False,0.1272736860000805,80.728,,39.1424144,,-76.7304836,-0.17,,39.1424144,,-76.7304836,9.30833339691162,6.352090835571289,-22.92490005493164,-1,POSCTL,,,,7,,ACTIVE,1732729582.174168,0.04,0.0,0.0,12,1,15,2,17760768,0,13
1732729583.779854,0.0,True,benign,-0.0180643741041421,-0.0113344639539718,-3.106257438659668,1.13,76,16.079,0,0,False,,,,66,104,3,21,0.0426644459366798,182,80.898,,39.1424152,,-76.7304842,False,0.2109822040001745,80.724,,39.1424144,,-76.7304836,-0.174,,39.1424144,,-76.7304836,9.31431484222412,6.356751441955566,-22.927133560180664,-1,POSCTL,,,,7,,ACTIVE,1.6056861877441406,0.04,0.0,0.0,12,1,15,2,17760768,0,13
1732729583.8796277,0.0,True,benign,-0.0179640930145978,-0.01091362349689,-3.106522798538208,1.13,76,16.079,0,0,False,,,,66,104,3,21,0.0426644459366798,182,80.898,,39.1424152,,-76.7304842,False,0.3186623709998457,80.717,,39.1424144,,-76.7304835,-0.181,,39.1424144,,-76.7304835,9.31431484222412,6.356751441955566,-22.927133560180664,-1,POSCTL,,,,7,,ACTIVE,1732729582.2739415,0.04,0.0,0.0,12,1,15,2,17760768,0,13
1732729583.9805024,0.0,True,benign,-0.0183203425258398,-0.0109355468302965,-3.106581449508667,1.13,76,16.079,0,0,False,,,,66,104,3,21,0.0426644459366798,182,80.898,,39.1424152,,-76.7304842,False,0.4276213339999231,80.713,,39.1424143,,-76.7304835,-0.184,,39.1424143,,-76.7304835,9.321041107177734,6.359755039215088,-22.92904663085937,-1,POSCTL,,,,7,,ACTIVE,1.7065608501434326,0.04,0.0,0.0,12,1,15,2,17760768,0,13
1732729584.0800362,0.0,True,benign,-0.0180641766637563,-0.0108084883540868,-3.1067612171173096,1.12,75,16.077,0,0,False,,,,66,104,3,21,0.0528089925646781,181,80.898,,39.1424152,,-76.7304842,False,0.5173979820001477,80.709,,39.1424143,,-76.7304835,-0.189,,39.1424143,,-76.7304835,9.32520580291748,6.362840175628662,-22.93026733398437,-1,POSCTL,,,,7,,ACTIVE,1732729582.3734753,0.05,0.0,0.0,12,1,15,2,17760768,0,13
1732729584.1799872,0.0,True,benign,-0.0180675704032182,-0.0103024616837501,-3.106362581253052,1.12,75,16.077,0,0,False,,,,66,104,3,21,0.0528089925646781,181,80.898,,39.1424152,,-76.7304842,False,0.6189251480000166,80.705,,39.1424143,,-76.7304834,-0.193,,39.1424143,,-76.7304834,9.330052375793455,6.365053653717041,-22.931276321411133,-1,POSCTL,,,,7,,ACTIVE,1.8065118789672847,0.05,0.0,0.0,12,1,15,2,17760768,0,13
1732729584.280712,0.0,True,benign,-0.0186145268380641,-0.0098316464573144,-3.106259822845459,1.12,75,16.077,0,0,False,,,,66,104,3,21,0.0528089925646781,181,80.898,,39.1424152,,-76.7304842,False,0.726754721999896,80.698,,39.1424143,,-76.7304834,-0.199,,39.1424143,,-76.7304834,9.33507251739502,6.366507530212402,-22.931249618530277,-1,POSCTL,,,,6,,ACTIVE,1732729582.4742002,0.04,0.0,0.0,12,1,15,2,17760768,0,13
1732729584.3815775,0.0,True,benign,-0.0182389467954635,-0.0096437446773052,-3.106283187866211,1.12,75,16.077,0,0,False,,,,66,104,3,21,0.045182604342699,182,80.898,,39.1424152,,-76.7304842,False,0.8285033699999076,80.693,,39.1424143,,-76.7304834,-0.204,,39.1424143,,-76.7304834,9.342843055725098,6.367987155914307,-22.932891845703125,-1,POSCTL,,,,6,,ACTIVE,1.9073774814605715,0.04,0.0,0.0,12,1,15,2,17760768,0,13
1732729584.4810586,0.0,True,benign,-0.018134469166398,-0.0096951257437467,-3.1060357093811035,1.12,75,16.077,0,0,False,,,,66,104,3,21,0.045182604342699,182,80.898,,39.1424152,,-76.7304842,False,0.926861388999896,80.683,,39.1424143,,-76.7304834,-0.215,,39.1424143,,-76.7304834,9.35268497467041,6.370234489440918,-22.935670852661133,-1,POSCTL,,,,6,,ACTIVE,1732729582.573681,0.05,0.0,0.0,12,1,15,2,17760768,0,13
1732729584.5812523,0.0,True,benign,-0.0177607759833335,-0.0097425477579236,-3.1062018871307373,1.12,75,16.077,0,0,False,,,,66,104,3,21,0.045182604342699,182,80.898,,39.1424152,,-76.7304842,False,0.0045811489999323,80.678,,39.1424143,,-76.7304834,-0.22,,39.1424143,,-76.7304834,9.360980033874512,6.372076988220215,-22.93805885314941,-1,POSCTL,,,,6,,ACTIVE,2.007571220397949,0.05,-0.01,0.0,12,1,15,2,17760768,0,13
1732729584.682612,0.0,True,benign,-0.0179853308945894,-0.0092544145882129,-3.1065714359283447,1.12,75,16.077,0,0,False,,,,66,104,3,21,0.045182604342699,182,80.898,,39.1424152,,-76.7304842,False,0.12645253699975,80.673,,39.1424143,,-76.7304834,-0.225,,39.1424143,,-76.7304834,9.3676118850708,6.372583866119385,-22.940000534057617,-1,POSCTL,,,,6,,ACTIVE,1732729582.6750407,0.05,-0.02,0.0,12,1,15,2,17760768,0,13
1732729584.7814877,0.0,True,benign,-0.0179061070084571,-0.0091118179261684,-3.1063549518585205,1.12,75,16.059,0,0,False,,,,66,104,3,20,0.0719012916088104,182,80.898,,39.1424152,,-76.7304842,False,0.2010891669997363,80.665,,39.1424142,,-76.7304834,-0.232,,39.1424142,,-76.7304834,9.3676118850708,6.372583866119385,-22.940000534057617,-1,POSCTL,,,,6,,ACTIVE,2.1064467430114746,0.06,-0.03,0.0,12,1,15,2,17760768,0,13
1732729584.881793,0.0,True,benign,-0.0178430899977684,-0.0088156498968601,-3.1063544750213623,1.12,75,16.059,0,0,False,,,,66,104,3,21,0.0719012916088104,182,80.898,,39.1424152,,-76.7304842,False,0.3060060369998609,80.663,,39.1424142,,-76.7304834,-0.235,,39.1424142,,-76.7304834,9.372109413146973,6.372741222381592,-22.940528869628903,-1,POSCTL,,,,6,,ACTIVE,1732729582.7753465,0.06,-0.03,0.0,12,1,15,2,17760768,0,13
1732729584.9819672,0.0,True,benign,-0.017537148669362,-0.0088471611961722,-3.1063029766082764,1.12,75,16.059,0,0,False,,,,66,104,3,21,0.0719012916088104,182,80.898,,39.1424152,,-76.7304842,False,0.4041525369998453,80.657,,39.1424142,,-76.7304834,-0.24,,39.1424142,,-76.7304834,9.376201629638672,6.371854782104492,-22.941143035888672,-1,POSCTL,,,,6,,ACTIVE,2.206620931625366,0.06,-0.04,0.0,12,1,15,2,17760768,0,13
1732729585.082201,0.0,True,benign,-0.0175437778234481,-0.0086164772510528,-3.1068432331085205,1.12,75,16.059,0,0,False,,,,66,104,3,21,0.0799448862671852,181,80.898,,39.1424152,,-76.7304842,False,0.5116443150000123,80.655,,39.1424142,,-76.7304834,-0.243,,39.1424142,,-76.7304834,9.381529808044434,6.371317386627197,-22.94357681274414,-1,POSCTL,,,,6,,ACTIVE,1732729582.87558,0.06,-0.04,0.0,12,1,15,2,17760768,0,13
1732729585.1824868,0.0,True,benign,-0.0170048773288726,-0.0085407579317688,-3.107072591781616,1.12,75,16.059,0,0,False,,,,66,104,3,20,0.0799448862671852,181,80.898,,39.1424152,,-76.7304842,False,0.625216110999645,80.65,,39.1424142,,-76.7304834,-0.248,,39.1424142,,-76.7304834,9.385720252990724,6.370612144470215,-22.945825576782227,-1,POSCTL,,,,6,,ACTIVE,2.3069067001342773,0.06,-0.05,0.0,12,1,15,2,17760768,0,13
1732729585.282845,0.0,True,benign,-0.0168012138456106,-0.0082882475107908,-3.1071696281433105,1.12,75,16.059,0,0,False,,,,66,104,3,20,0.0799448862671852,181,80.898,,39.1424152,,-76.7304842,False,0.7118066299999555,80.647,,39.1424142,,-76.7304834,-0.251,,39.1424142,,-76.7304834,9.390129089355469,6.369502544403076,-22.947174072265625,-1,POSCTL,,,,6,,ACTIVE,1732729582.9759383,0.06,-0.05,0.01,12,1,15,2,17760768,0,13
1732729585.3834295,0.0,True,benign,-0.0168874394148588,-0.0080753052607178,-3.107197999954224,1.12,75,16.053,0,0,False,,,,66,104,3,20,0.0799448862671852,181,80.898,,39.1424152,,-76.7304842,False,0.8261294629996883,80.641,,39.1424142,,-76.7304834,-0.257,,39.1424142,,-76.7304834,9.395733833312988,6.3683061599731445,-22.94864845275879,-1,POSCTL,,,,6,,ACTIVE,2.4074912071228027,0.06,-0.06,0.0,12,1,15,2,17760768,0,13
1732729585.4835503,0.0,True,benign,-0.0166417341679334,-0.0078098331578075,-3.107905626296997,1.12,75,16.053,0,0,False,,,,66,104,3,20,0.0929443389177322,181,80.898,,39.1424152,,-76.7304842,False,0.9190207039996494,80.635,,39.1424141,,-76.7304834,-0.262,,39.1424141,,-76.7304834,9.403526306152344,6.368509769439697,-22.951961517333984,-1,POSCTL,,,,6,,ACTIVE,1732729583.076059,0.06,-0.05,0.01,12,1,15,2,17760768,0,13
1732729585.5840952,0.0,True,static_gps_spoofer,-0.0173093844205141,-0.0074646333232522,-3.108104944229126,1.12,75,16.053,0,0,False,,,,66,104,3,20,0.0929443389177322,181,80.898,,39.1424152,,-76.7304842,False,0.0267977589996917,80.627,,38.897837218405606,,-77.03660474298094,-0.271,,39.1424141,,-76.7304834,9.403526306152344,6.368509769439697,-22.951961517333984,-1,POSCTL,,,,6,,ACTIVE,2.508035898208618,0.06,-0.05,0.0,12,1,15,2,17760768,0,13
1732729585.6839063,0.0,True,static_gps_spoofer,-0.0172904375940561,-0.0073177786543965,-3.10813570022583,1.12,75,16.053,0,0,False,,,,66,104,3,20,0.0929443389177322,181,80.898,,39.1424152,,-76.7304842,False,0.1279036659998382,80.624,,38.89792839580934,,-77.03657483703132,-0.274,,39.1424141,,-76.7304834,9.410266876220703,6.367858409881592,-22.95445442199707,-1,POSCTL,,,,6,,ACTIVE,1732729583.1758704,0.07,-0.05,0.01,12,1,15,2,17760768,0,13
1732729585.7841728,0.0,True,static_gps_spoofer,-0.0170746706426143,-0.0070541738532483,-3.1083984375,1.12,75,16.053,0,0,False,,,,66,104,3,20,0.1014410853385925,181,80.898,,39.1424152,,-76.7304842,False,0.2272076659996855,80.613,,38.89799050844192,,-77.03646451552619,-0.285,,39.1424141,,-76.7304834,9.417747497558594,6.367010116577148,-22.9552001953125,-1,POSCTL,,,,6,,ACTIVE,2.608302354812622,0.07,-0.05,0.0,12,1,15,2,17760768,0,13
1732729585.884288,0.0,True,static_gps_spoofer,-0.0167583189904689,-0.0067872535437345,-3.108559846878052,1.12,75,16.053,0,0,False,,,,66,104,3,20,0.1014410853385925,181,80.898,,39.1424152,,-76.7304842,False,0.3153405179996298,80.608,,38.898044575755506,,-77.03662274488897,-0.29,,39.1424141,,-76.7304834,9.426860809326172,6.368686199188232,-22.95816993713379,-1,POSCTL,,,,6,,ACTIVE,1732729583.2759857,0.07,-0.05,0.0,12,1,15,2,17760768,0,13
1732729585.9845395,0.0,True,static_gps_spoofer,-0.0163256078958511,-0.0063655856065452,-3.1086461544036865,1.12,75,16.053,0,0,False,,,,66,104,3,20,0.1014410853385925,181,80.898,,39.1424152,,-76.7304842,False,0.4298381290000179,80.604,,38.89784408975606,,-77.03647093888371,-0.294,,39.1424141,,-76.7304834,9.43402862548828,6.370339393615723,-22.96122169494629,-1,POSCTL,,,,7,,ACTIVE,2.7085540294647217,0.07,-0.05,0.01,12,1,15,2,17760768,0,13
1732729586.0847754,0.0,True,static_gps_spoofer,-0.0169415175914764,-0.0059968801215291,-3.108649969100952,2.3,74,16.025,0,0,False,,,,66,104,3,20,0.1030592545866966,181,80.898,,39.1424152,,-76.7304842,False,0.5251009809999232,80.596,,38.89792546277025,,-77.03667832049427,-0.302,,39.142414,,-76.7304834,9.440460205078123,6.370312690734863,-22.962289810180664,-1,POSCTL,,,,7,,ACTIVE,1732729583.3762214,0.08,-0.05,0.0,12,1,15,2,17760768,0,13
1732729586.1848943,0.0,True,static_gps_spoofer,-0.017204325646162,-0.0056784329935908,-3.1087660789489746,2.3,74,16.025,0,0,False,,,,66,104,3,20,0.1030592545866966,181,80.898,,39.1424152,,-76.7304842,False,0.6089825730000484,80.592,,38.89809029377433,,-77.03680184274528,-0.306,,39.142414,,-76.7304834,9.446210861206056,6.370328426361084,-22.962791442871094,-1,POSCTL,,,,7,,ACTIVE,2.8086729049682617,0.09,-0.05,0.0,12,1,15,2,17760768,0,13
1732729586.2852185,0.0,True,static_gps_spoofer,-0.0164692364633083,-0.0058691198937594,-3.1084096431732178,2.3,74,16.025,0,0,False,,,,66,104,3,20,0.1030592545866966,181,80.898,,39.1424152,,-76.7304842,False,0.7189264809999258,80.586,,38.89777995343506,,-77.0366288683507,-0.007,,39.142414,,-76.7304834,9.451346397399902,6.37003755569458,-22.963048934936523,-1,POSCTL,,,,7,,ACTIVE,1732729583.4765456,0.09,-0.06,0.0,12,1,15,2,17760768,0,13
1732729586.3853765,0.0,True,static_gps_spoofer,-0.0150701496750116,-0.0060599651187658,-3.1078920364379883,2.3,74,16.025,0,0,False,,,,66,104,3,21,0.1030592545866966,181,80.898,,39.1424152,,-76.7304842,False,0.8252115729997058,80.582,,38.89802487001761,,-77.03636680724946,-0.01,,39.142414,,-76.7304834,9.451346397399902,6.37003755569458,-22.963048934936523,-1,POSCTL,,,,7,,ACTIVE,2.9088308811187744,0.08,-0.06,0.0,12,1,15,2,17760768,0,13
1732729586.4855573,0.0,True,static_gps_spoofer,-0.0160125065594911,-0.0056473826989531,-3.1079821586608887,2.3,74,16.025,0,0,False,,,,66,104,3,21,0.1116708219051361,181,80.898,,39.1424152,,-76.7304842,False,0.9157749619998868,80.575,,38.8978863642414,,-77.03656837364423,-0.017,,39.142414,,-76.7304834,9.458003044128418,6.370729923248291,-22.964374542236328,-1,POSCTL,,,,7,,ACTIVE,1732729583.5767264,0.08,-0.06,0.01,12,1,15,2,17760768,0,13
1732729586.5856586,0.0,True,static_gps_spoofer,-0.0155937736853957,-0.0069953161291778,-3.107897520065308,2.3,74,16.025,0,0,False,,,,66,104,3,21,0.1116708219051361,181,80.898,,39.1424152,,-76.7304842,False,0.0213371290001305,80.573,,38.89804113451692,,-77.03656680167144,-0.02,,39.142414,,-76.7304834,9.462786674499512,6.371596336364746,-22.9655876159668,-1,POSCTL,,,,7,,ACTIVE,3.008932113647461,0.08,-0.06,0.0,12,1,15,2,17760768,0,13
1732729586.6860678,0.0,True,static_gps_spoofer,-0.0153043260797858,-0.005386983975768,-3.1085400581359863,2.3,74,16.025,0,0,False,,,,66,104,3,21,0.1116708219051361,181,80.898,,39.1424152,,-76.7304842,False,0.1246294249999664,80.567,,38.89808500460169,,-77.03655751882788,-0.026,,39.142414,,-76.7304834,9.467597007751465,6.372983932495117,-22.96678924560547,-1,POSCTL,,,,7,,ACTIVE,1732729583.6771357,0.08,-0.06,0.0,12,1,15,2,17760768,0,13
1732729586.786251,0.0,True,static_gps_spoofer,-0.0139487255364656,-0.0068305511958897,-3.1093695163726807,8.44,73,15.851,0,0,False,,,,66,104,3,20,0.1174280941486358,181,80.898,,39.1424152,,-76.7304842,False,0.2314831480002794,80.563,,38.898086438497224,,-77.03645763422254,-0.029,,39.142414,,-76.7304833,9.473291397094728,6.3737101554870605,-22.96903610229492,-1,POSCTL,,,,7,,ACTIVE,3.1091153621673584,0.09,-0.06,0.0,12,1,15,2,17760768,0,13
1732729586.886298,0.0,True,static_gps_spoofer,-0.0127612622454762,-0.0076911617070436,-3.1107468605041504,8.44,73,15.851,0,0,False,,,,66,104,3,20,0.1174280941486358,181,80.898,,39.1424152,,-76.7304842,False,0.3310427030000937,80.558,,38.89801466798579,,-77.03654252399994,-0.034,,39.142414,,-76.7304833,9.47732925415039,6.374706268310547,-22.96920394897461,-1,POSCTL,,,,7,,ACTIVE,1732729583.7771826,0.08,-0.08,-0.02,12,1,15,2,17760768,0,13
1732729586.9866245,0.0,True,static_gps_spoofer,-0.0114110065624117,-0.0082874502986669,-3.1142969131469727,8.44,73,15.851,0,0,False,,,,66,104,3,20,0.1174280941486358,181,80.898,,39.1424152,,-76.7304842,False,0.4336869809999371,80.556,,38.89799786725758,,-77.03651091120894,-0.036,,39.142414,,-76.7304833,9.480647087097168,6.374251842498779,-22.96967887878418,-1,POSCTL,,,,7,,ACTIVE,3.209441900253296,0.08,-0.08,-0.02,12,1,15,2,17760768,0,13
1732729587.0876966,0.0,True,static_gps_spoofer,-0.0091481693089008,-0.0118197901174426,-3.1194822788238525,8.44,73,15.851,0,0,False,,,,66,104,3,20,0.1174280941486358,181,80.898,,39.1424152,,-76.7304842,False,0.5361717590003536,80.558,,38.897916230774655,,-77.03648370790127,-0.034,,39.142414,,-76.7304833,9.47839069366455,6.373783588409424,-22.97145652770996,-1,POSCTL,,,,7,,ACTIVE,1732729583.878255,0.09,-0.09,-0.1,12,1,15,2,17760768,0,13
1732729587.1877298,0.0,True,static_gps_spoofer,2.822545502567664e-05,-0.0132515486329793,-3.133070230484009,8.44,73,15.851,0,0,False,,,,66,104,3,21,0.1387614607810974,180,80.898,,39.1424152,,-76.7304842,False,0.6357696100003523,80.566,,38.8979407243619,,-77.03650104245962,-0.026,,39.142414,,-76.7304834,9.460923194885254,6.370225429534912,-22.9718074798584,-1,POSCTL,,,,7,,ACTIVE,3.3094751834869385,0.09,-0.11,-0.2,12,1,15,2,17760768,0,13
1732729587.2879572,0.0,True,static_gps_spoofer,0.0081018982455134,-0.0215700380504131,3.130976676940918,8.44,73,15.851,0,0,False,,,,64,98,3,21,0.1387614607810974,180,80.898,,39.1424152,,-76.7304842,False,0.736967740000182,80.602,,38.89795042201492,,-77.03638278230493,0.009,,39.1424139,,-76.7304834,9.460923194885254,6.370225429534912,-22.9718074798584,-1,POSCTL,,,,7,,ACTIVE,1732729583.978482,0.07,-0.12,-0.41,12,1,15,2,17760768,0,13
1732729587.387215,0.0,True,static_gps_spoofer,0.0128477411344647,-0.0336627103388309,3.107877492904663,8.44,73,15.851,0,0,False,,,,64,98,3,21,0.1387614607810974,180,80.898,,39.1424152,,-76.7304842,False,0.8195465550002154,80.63,,38.89788634724912,,-77.03649360447609,0.037,,39.1424139,,-76.7304834,9.42313003540039,6.368074417114258,-22.978185653686523,-1,POSCTL,,,,17,,ACTIVE,3.408732652664185,0.06,-0.13,-0.46,12,1,15,2,17760768,0,13
1732729587.4878745,0.0,True,static_gps_spoofer,0.0152712697163224,-0.0353519916534423,3.089572668075561,19.08,67,15.477,0,0,False,,,,64,98,3,21,0.1467636376619339,177,80.898,,39.1424152,,-76.7304842,False,0.93567910999991,80.662,,38.897927332728955,,-77.03658298721871,0.069,,39.1424138,,-76.7304835,9.374269485473633,6.364432334899902,-22.984806060791016,-1,POSCTL,,,,17,,ACTIVE,1732729584.0791416,0.06,-0.13,-0.53,12,1,15,2,17760768,0,13
1732729587.587988,0.0,True,static_gps_spoofer,0.0059841540642082,-0.0308008547872304,3.0739457607269287,19.08,67,15.477,0,0,False,,,,64,98,3,21,0.1467636376619339,177,80.898,,39.1424152,,-76.7304842,False,0.0269093329998213,80.733,,38.89778631562315,,-77.03651383574831,0.139,,39.1424137,,-76.7304835,9.318133354187012,6.359622955322266,-22.99427032470703,-1,POSCTL,,,,17,,ACTIVE,3.5088465213775635,0.06,-0.11,-0.57,12,1,15,2,17760768,0,13
1732729587.68824,0.0,True,static_gps_spoofer,0.0069147991016507,-0.0278750453144311,3.061084508895874,19.08,67,15.477,0,0,False,,,,64,98,3,21,0.1467636376619339,177,80.898,,39.1424152,,-76.7304842,False,0.116412407000098,80.766,,38.89798583564713,,-77.03657242444508,0.172,,39.1424137,,-76.7304835,9.25967788696289,6.361725330352783,-23.00664710998535,-1,POSCTL,,,,38,,ACTIVE,1732729584.1793935,0.05,-0.1,-0.59,12,1,15,2,17760768,0,13
1732729587.78921,0.0,True,static_gps_spoofer,0.0090202447026968,-0.0217230189591646,3.051599264144897,19.08,67,15.477,0,0,False,,,,64,98,3,21,0.1467636376619339,177,80.898,,39.1424152,,-76.7304842,False,0.2374940360000437,80.841,,38.898111382236515,,-77.03658601106021,0.247,,39.1424135,,-76.7304834,9.1956205368042,6.36685037612915,-23.02163314819336,-1,POSCTL,,,,38,,ACTIVE,3.609816551208496,0.04,-0.09,-0.63,12,1,15,2,17760768,0,13
1732729587.8885837,0.0,True,static_gps_spoofer,0.0143956150859594,-0.0176701657474041,3.0455422401428223,19.08,67,15.477,0,0,False,,,,64,98,3,21,0.0963558927178382,174,80.898,,39.1424152,,-76.7304842,False,0.3230507769999349,80.882,,38.897978194484864,,-77.03652748972175,0.289,,39.1424134,,-76.7304834,9.130193710327148,6.375808238983154,-23.03622055053711,-1,POSCTL,,,,38,,ACTIVE,1732729584.278767,0.04,-0.08,-0.63,12,1,15,2,17760768,0,13
1732729587.9888132,0.0,True,static_gps_spoofer,0.015963239595294,-0.02246711589396,3.041951894760132,19.08,67,15.477,0,0,False,,,,64,98,3,21,0.0963558927178382,174,80.898,,39.1424152,,-76.7304842,False,0.4351969250001275,80.958,,38.89787058727016,,-77.03667691391819,0.365,,39.1424133,,-76.7304832,9.130193710327148,6.375808238983154,-23.03622055053711,-1,POSCTL,,,,56,,ACTIVE,3.7100460529327393,0.03,-0.06,-0.65,12,1,15,2,17760768,0,13
1732729588.088916,0.0,True,static_gps_spoofer,0.0163158532232046,-0.021513333544135,3.0409040451049805,19.08,67,15.477,0,0,False,,,,64,98,3,21,0.0963558927178382,174,80.898,,39.1424152,,-76.7304842,False,0.5288377960000616,81.008,,38.89806415517906,,-77.03650005618532,0.415,,39.1424132,,-76.7304832,9.061293601989746,6.385913372039795,-23.05146026611328,-1,POSCTL,,,,56,,ACTIVE,1732729584.37887,0.03,-0.06,-0.66,12,1,15,2,17760768,0,13
1732729588.1895115,0.0,True,static_gps_spoofer,0.0156048126518726,-0.0152204614132642,3.042242288589477,20.97,62,15.302,0,0,False,,,,64,98,3,21,0.0723732411861419,174,80.898,,39.1424152,,-76.7304842,False,0.6368770549997862,81.091,,38.8980536949188,,-77.03653319907737,0.498,,39.1424131,,-76.730483,8.99178695678711,6.393864154815674,-23.062408447265625,-1,POSCTL,,,,56,,ACTIVE,3.8106415271759033,0.03,-0.06,-0.68,12,1,15,2,17760768,0,13
1732729588.29029,0.0,True,static_gps_spoofer,0.0150062041357159,-0.0148435793817043,3.0471346378326416,20.97,62,15.302,0,0,False,,,,64,98,3,21,0.0723732411861419,174,80.593,,39.142414,,-76.7304834,False,0.7388280919999488,81.132,,38.897768227387765,,-77.03663572495614,0.539,,39.142413,,-76.730483,8.913098335266113,6.403010368347168,-23.075157165527344,-1,POSCTL,,,,56,,ACTIVE,1732729584.4796486,0.03,-0.06,-0.68,12,1,15,2,17760768,0,13
1732729588.3900056,0.0,True,static_gps_spoofer,0.0139933302998542,-0.0186555050313472,3.052229881286621,20.97,62,15.302,0,0,False,,,,64,98,3,21,0.0723732411861419,174,80.593,,39.142414,,-76.7304834,False,0.836230832000183,81.226,,38.89802355567216,,-77.03658374826746,0.632,,39.1424129,,-76.7304829,8.843789100646973,6.410852909088135,-23.087331771850582,-1,POSCTL,,,,81,,ACTIVE,3.910356998443604,0.03,-0.07,-0.69,12,1,15,2,17760768,0,13
1732729588.4901347,0.0,True,static_gps_spoofer,0.0134988762438297,-0.0180117264389991,3.056934118270874,20.97,62,15.302,0,0,False,,,,64,98,3,21,0.0758669078350067,175,80.593,,39.142414,,-76.7304834,False,0.9333187950001048,81.264,,38.89797237021684,,-77.03661977049887,0.671,,39.1424128,,-76.7304828,8.772043228149414,6.420650959014893,-23.10037040710449,-1,POSCTL,,,,81,,ACTIVE,1732729584.5797777,0.02,-0.07,-0.69,12,1,15,2,17760768,0,13
1732729588.590399,0.0,True,static_gps_spoofer,0.0148517088964581,-0.0132891330868005,3.0641093254089355,20.97,62,15.302,0,0,False,,,,64,98,3,21,0.0758669078350067,175,80.593,,39.142414,,-76.7304834,False,0.0370300370000222,81.309,,38.89803254610167,,-77.0367430076115,0.716,,39.1424127,,-76.7304827,8.694864273071289,6.433086395263672,-23.113882064819336,-1,POSCTL,,,,81,,ACTIVE,4.010621309280396,0.02,-0.06,-0.71,12,1,15,2,17760768,0,13
1732729588.6906347,0.0,True,static_gps_spoofer,0.0191388372331857,-0.0098871616646647,3.071826457977295,20.97,62,15.302,0,0,False,,,,64,98,3,21,0.0758669078350067,175,80.593,,39.142414,,-76.7304834,False,0.1283687410000311,81.403,,38.897892151300226,,-77.0367067366867,0.809,,39.1424125,,-76.7304825,8.620680809020996,6.451522350311279,-23.134178161621094,-1,POSCTL,,,,105,,ACTIVE,1732729584.6800134,0.01,-0.06,-0.72,12,1,15,2,17760768,0,13
1732729588.79073,0.0,True,static_gps_spoofer,0.0249615497887134,-0.0112947123125195,3.079854965209961,20.97,62,15.302,0,0,False,,,,64,98,3,21,0.0758669078350067,175,80.593,,39.142414,,-76.7304834,False,0.2283547040001394,81.452,,38.8979312700889,,-77.03655908080475,0.859,,39.1424124,,-76.7304824,8.620680809020996,6.451522350311279,-23.134178161621094,-1,POSCTL,,,,105,,ACTIVE,4.1107165813446045,0.01,-0.06,-0.72,12,1,15,2,17760768,0,13
1732729588.8909364,0.0,True,static_gps_spoofer,0.0285751819610595,-0.0061205434612929,3.087733507156372,21.43,58,15.187,0,0,False,,,,64,98,3,21,0.0711090862751007,176,80.593,,39.142414,,-76.7304834,False,0.3243299259997911,81.55,,38.89795486494694,,-77.03642255903407,0.957,,39.1424123,,-76.7304821,8.534814834594727,6.467891216278076,-23.15115737915039,-1,POSCTL,,,,105,,ACTIVE,1732729584.7802198,0.01,-0.06,-0.73,12,1,15,2,17760768,0,13
1732729588.9909627,0.0,True,static_gps_spoofer,0.0332972146570682,-0.000555281760171,3.095578193664551,21.43,58,15.187,0,0,False,,,,64,98,3,21,0.0711090862751007,176,80.593,,39.142414,,-76.7304834,False,0.4364966479997747,81.595,,38.89784455716624,,-77.0364382281426,1.002,,39.1424122,,-76.730482,8.46068000793457,6.482585430145264,-23.16684913635254,-1,POSCTL,,,,105,,ACTIVE,4.210742950439453,0.02,-0.07,-0.74,12,1,15,2,17760768,0,13
1732729589.0912826,0.0,True,static_gps_spoofer,0.037648070603609,0.0034291257616132,3.10251784324646,21.43,58,15.187,0,0,False,,,,64,98,3,21,0.0711090862751007,176,80.593,,39.142414,,-76.7304834,False,0.5241893890001847,81.694,,38.8979372779784,,-77.03638151997681,1.1,,39.1424121,,-76.7304818,8.378705024719238,6.497191905975342,-23.177831649780277,-1,POSCTL,,,,133,,ACTIVE,1732729584.8805397,0.04,-0.09,-0.74,12,1,15,2,17760768,0,13
1732729589.191514,0.0,True,static_gps_spoofer,0.0355001762509346,0.0001694552775006,3.108384847640991,21.43,58,15.187,0,0,False,,,,64,98,3,21,0.1176691129803657,178,80.593,,39.142414,,-76.7304834,False,0.6293586480001068,81.742,,38.898019127101826,,-77.03639857403202,1.149,,39.142412,,-76.7304817,8.29382038116455,6.511645317077637,-23.19219970703125,-1,POSCTL,,,,133,,ACTIVE,4.310974359512329,0.05,-0.1,-0.73,12,1,15,2,17760768,0,13
1732729589.292556,0.0,True,static_gps_spoofer,0.0316104963421821,-0.0023061404936015,3.113823413848877,21.43,58,15.187,0,0,False,,,,64,98,3,21,0.1176691129803657,178,80.593,,39.142414,,-76.7304834,False,0.7403921850000188,81.839,,38.897958772179244,,-77.03655727749273,1.246,,39.1424119,,-76.7304816,8.217011451721191,6.523003101348877,-23.19856834411621,-1,POSCTL,,,,133,,ACTIVE,1732729584.9815817,0.07,-0.11,-0.76,12,1,15,2,17760768,0,13
1732729589.391836,0.0,True,static_gps_spoofer,0.0322874784469604,-0.0034545061644166,3.118072509765625,21.43,58,15.187,0,0,False,,,,64,98,3,21,0.1176691129803657,178,80.593,,39.142414,,-76.7304834,False,0.8309716849998949,81.892,,38.897924466436,,-77.03673324484055,1.299,,39.1424119,,-76.7304815,8.125702857971191,6.539185523986816,-23.205232620239254,-1,POSCTL,,,,158,,ACTIVE,4.410254240036011,0.08,-0.11,-0.77,12,1,15,2,17760768,0,13
1732729589.4921136,0.0,True,static_gps_spoofer,0.0324818976223468,-0.0034868805669248,3.120975971221924,21.38,56,15.117,0,0,False,,,,64,98,3,21,0.1176691129803657,178,80.593,,39.142414,,-76.7304834,False,0.9378133509999316,81.995,,38.89808150618116,,-77.03669899104158,1.402,,39.1424118,,-76.7304813,8.041329383850098,6.553469181060791,-23.210176467895508,-1,POSCTL,,,,158,,ACTIVE,1732729585.0818594,0.09,-0.11,-0.77,12,1,15,2,17760768,0,13
1732729589.5922148,0.0,True,static_gps_spoofer,0.0248583033680915,0.0020301539916545,3.125230312347412,21.38,56,15.117,0,0,False,,,,64,98,3,20,0.1527687758207321,178,80.593,,39.142414,,-76.7304834,False,0.0340325370002574,82.051,,38.897891184068314,,-77.03662552922042,1.458,,39.1424118,,-76.7304811,7.947651386260986,6.572253704071045,-23.21808624267578,-1,POSCTL,,,,158,,ACTIVE,4.510355472564697,0.09,-0.12,-0.76,12,1,15,2,17760768,0,13
1732729589.6923516,0.0,True,static_gps_spoofer,0.0235381741076707,0.0050434391014277,3.127110004425049,21.38,56,15.117,0,0,False,,,,66,98,3,20,0.1527687758207321,178,80.593,,39.142414,,-76.7304834,False,0.1369661850003467,82.154,,38.89780525863999,,-77.03667531362413,1.561,,39.1424117,,-76.7304809,7.947651386260986,6.572253704071045,-23.21808624267578,-1,POSCTL,,,,186,,ACTIVE,1732729585.181996,0.09,-0.13,-0.76,12,1,15,2,17760768,0,13
1732729589.7925634,0.0,True,static_gps_spoofer,0.026090757921338,0.0107205817475914,3.13006591796875,21.38,56,15.117,0,0,False,,,,66,98,3,20,0.1527687758207321,178,80.593,,39.142414,,-76.7304834,False,0.2088283880002563,82.209,,38.89800708508334,,-77.03649930176284,1.615,,39.1424117,,-76.7304808,7.859529972076416,6.586866855621338,-23.22345924377441,-1,POSCTL,,,,186,,ACTIVE,4.610567331314087,0.09,-0.14,-0.76,12,1,15,2,17760768,0,13
1732729589.8927507,0.0,True,static_gps_spoofer,0.030810710042715,0.0117397559806704,3.1329185962677,21.38,56,15.117,0,0,False,,,,64,98,3,20,0.1890477240085601,179,80.593,,39.142414,,-76.7304834,False,0.3372475920000397,82.264,,38.89786134001212,,-77.03654141406285,1.671,,39.1424117,,-76.7304807,7.771859169006348,6.598545551300049,-23.227378845214844,-1,POSCTL,,,,186,,ACTIVE,1732729585.2821834,0.09,-0.15,-0.76,12,1,15,2,17760768,0,13
1732729589.9928544,0.0,True,static_gps_spoofer,0.0355981700122356,0.009419091977179,3.135942220687866,21.38,56,15.117,0,0,False,,,,64,98,3,20,0.1890477240085601,179,80.593,,39.142414,,-76.7304834,False,0.4292407960001583,82.369,,38.898087682917584,,-77.03672131562958,1.776,,39.1424116,,-76.7304805,7.686876773834228,6.612979888916016,-23.235078811645508,-1,POSCTL,,,,186,,ACTIVE,4.7106709480285645,0.09,-0.17,-0.76,12,1,15,2,17760768,0,13
1732729590.094107,0.0,True,static_gps_spoofer,0.0373482070863246,0.0116246519610285,3.1386032104492188,21.38,56,15.117,0,0,False,,,,64,98,3,20,0.1890477240085601,179,80.593,,39.142414,,-76.7304834,False,0.5389083140003095,82.425,,38.897978909574896,,-77.03656848391972,1.832,,39.1424116,,-76.7304804,7.597162246704102,6.627347946166992,-23.23847961425781,-1,POSCTL,,,,211,,ACTIVE,1732729585.3834355,0.1,-0.18,-0.77,12,1,15,2,17760768,0,13
1732729590.1941955,0.0,True,static_gps_spoofer,0.0370893068611621,0.0139679396525025,-3.141032457351685,21.44,54,15.064,0,0,False,,,,64,98,3,20,0.1890477240085601,179,80.593,,39.142414,,-76.7304834,False,0.6399294810003084,82.531,,38.89794541590525,,-77.03669777732233,1.937,,39.1424115,,-76.7304803,7.505706310272217,6.633880615234375,-23.240463256835938,-1,POSCTL,,,,211,,ACTIVE,4.810760021209717,0.12,-0.2,-0.76,12,1,15,2,17760768,0,13
1732729590.2935698,0.0,True,static_gps_spoofer,0.0368753150105476,0.0108810858801007,-3.1379263401031494,21.44,54,15.064,0,0,False,,,,64,98,3,20,0.250220775604248,180,80.593,,39.142414,,-76.7304834,False,0.7207066099999793,82.58,,38.89809651892109,,-77.03679674537989,1.986,,39.1424115,,-76.7304802,7.420517444610596,6.646250247955322,-23.2418270111084,-1,POSCTL,,,,211,,ACTIVE,1732729585.4828098,0.13,-0.21,-0.77,12,1,15,2,17760768,0,13
1732729590.3937373,0.0,True,static_gps_spoofer,0.0365239456295967,0.0064484546892344,-3.1337478160858154,21.44,54,15.064,0,0,False,,,,64,98,3,20,0.250220775604248,180,80.593,,39.142414,,-76.7304834,False,0.8332118319999609,82.687,,38.898067515746824,,-77.0366444121313,2.094,,39.1424115,,-76.7304801,7.329969882965088,6.655409812927246,-23.241762161254883,-1,POSCTL,,,,238,,ACTIVE,4.9109275341033936,0.14,-0.23,-0.77,12,1,15,2,17760768,0,13
1732729590.4938984,0.0,True,static_gps_spoofer,0.0364586673676967,0.0045422688126564,-3.1296963691711426,21.44,54,15.064,0,0,False,,,,64,98,3,20,0.250220775604248,180,80.593,,39.142414,,-76.7304834,False,0.9379404810001688,82.745,,38.89792548122067,,-77.036581234702,2.151,,39.1424115,,-76.73048,7.329969882965088,6.655409812927246,-23.241762161254883,-1,POSCTL,,,,238,,ACTIVE,1732729585.5829709,0.15,-0.24,-0.77,12,1,15,2,17760768,0,13
1732729590.5940905,0.0,True,static_gps_spoofer,0.031335063278675,0.0041621760465204,-3.12569260597229,21.44,54,15.064,0,0,False,,,,64,98,3,20,0.2969733476638794,180,80.593,,39.142414,,-76.7304834,False,0.0304483700001583,82.847,,38.897927411317674,,-77.03641890584025,2.254,,39.1424116,,-76.7304799,7.242983818054199,6.663381576538086,-23.24115753173828,-1,POSCTL,,,,238,,ACTIVE,5.011119604110718,0.16,-0.25,-0.78,12,1,15,2,17760768,0,13
1732729590.6943758,0.0,True,static_gps_spoofer,0.0266023017466068,0.0056057060137391,-3.1224679946899414,21.44,54,15.064,0,0,False,,,,64,98,3,20,0.2969733476638794,180,80.593,,39.142414,,-76.7304834,False,0.1294294260001152,82.9,,38.89795786774919,,-77.03657141930042,2.306,,39.1424116,,-76.7304799,7.143884658813477,6.67189359664917,-23.23778533935547,-1,POSCTL,,,,238,,ACTIVE,1732729585.683256,0.17,-0.25,-0.77,12,1,15,2,17760768,0,13
1732729590.7944057,0.0,True,static_gps_spoofer,0.0235024075955152,0.0081616127863526,-3.120003461837769,21.44,54,15.064,0,0,False,,,,64,98,3,20,0.2969733476638794,180,80.593,,39.142414,,-76.7304834,False,0.2323942410002928,83.01,,38.897945081954006,,-77.03651630720583,2.417,,39.1424116,,-76.7304798,7.063029766082764,6.678747177124023,-23.23675346374512,-1,POSCTL,,,,266,,ACTIVE,5.111149311065674,0.17,-0.26,-0.78,12,1,15,2,17760768,0,13
1732729590.8946016,0.0,True,static_gps_spoofer,0.0242365803569555,0.008247073739767,-3.11826491355896,21.36,52,15.018,0,0,False,,,,64,98,3,20,0.330258697271347,181,80.593,,39.142414,,-76.7304834,False,0.3385582410001007,83.069,,38.898024576214986,,-77.03650418274911,2.476,,39.1424116,,-76.7304798,6.967121124267578,6.681699275970459,-23.23260307312012,-1,POSCTL,,,,266,,ACTIVE,1732729585.7834525,0.17,-0.27,-0.79,12,1,15,2,17760768,0,13
1732729590.9956336,0.0,True,static_gps_spoofer,0.0278610009700059,0.0083951503038406,-3.11606502532959,21.36,52,15.018,0,0,False,,,,64,98,3,20,0.330258697271347,181,80.593,,39.142414,,-76.7304834,False,0.4405057409999244,83.179,,38.89790495249621,,-77.03645802793784,2.586,,39.1424116,,-76.7304797,6.874993801116943,6.689465999603272,-23.23185157775879,-1,POSCTL,,,,266,,ACTIVE,5.212181329727173,0.17,-0.28,-0.8,12,1,15,2,17760768,0,13
1732729591.094952,0.0,True,static_gps_spoofer,0.0316976457834243,0.0046076565049588,-3.114820718765259,21.36,52,15.018,0,0,False,,,,64,98,3,20,0.330258697271347,181,80.593,,39.142414,,-76.7304834,False,0.5199144810003418,83.229,,38.89790998999726,,-77.03654714847214,2.636,,39.1424116,,-76.7304796,6.7861328125,6.69373893737793,-23.22913360595703,-1,POSCTL,,,,291,,ACTIVE,1732729585.8827708,0.17,-0.29,-0.8,12,1,15,2,17760768,0,13
1732729591.1956463,0.0,True,static_gps_spoofer,0.0325500145554542,0.0001750578812789,-3.114091396331787,21.36,52,15.018,0,0,False,,,,64,98,3,20,0.330258697271347,181,80.593,,39.142414,,-76.7304834,False,0.6399321480002982,83.289,,38.898059855159005,,-77.03649667731999,2.695,,39.1424117,,-76.7304796,6.697812080383301,6.687729358673096,-23.220521926879883,-1,POSCTL,,,,291,,ACTIVE,5.312875509262085,0.18,-0.29,-0.79,12,1,15,2,17760768,0,13
1732729591.2958455,0.0,True,static_gps_spoofer,0.0265286397188901,-0.0016340835718438,-3.1136598587036133,21.36,52,15.018,0,0,False,,,,64,98,3,20,0.3611181676387787,181,80.593,,39.142414,,-76.7304834,False,0.7154282960000273,83.4,,38.89806546811655,,-77.03660583922853,2.807,,39.1424118,,-76.7304797,6.697812080383301,6.687729358673096,-23.220521926879883,-1,POSCTL,,,,291,,ACTIVE,1732729585.9829702,0.2,-0.29,-0.81,12,1,15,2,17760768,0,13
1732729591.3960087,0.0,True,static_gps_spoofer,0.0197489745914936,-0.0010896861786022,-3.113198757171631,21.36,52,15.018,0,0,False,,,,64,98,3,20,0.3611181676387787,181,80.593,,39.142414,,-76.7304834,False,0.8169543510002768,83.457,,38.897907302417444,,-77.03659463344673,2.864,,39.1424118,,-76.7304797,6.601297855377197,6.686887741088867,-23.2133731842041,-1,POSCTL,,,,291,,ACTIVE,5.413038492202759,0.2,-0.29,-0.81,12,1,15,2,17760768,0,13
1732729591.496107,0.0,True,static_gps_spoofer,0.0203346293419599,0.0010344801703467,-3.1133217811584477,21.36,52,15.018,0,0,False,,,,64,98,3,20,0.3611181676387787,181,80.593,,39.142414,,-76.7304834,False,0.9377793510002448,83.563,,38.89796651460472,,-77.03659558237888,2.97,,39.1424118,,-76.7304795,6.509644985198975,6.699831962585449,-23.211483001708984,-1,POSCTL,,,,319,,ACTIVE,1732729586.0830686,0.19,-0.28,-0.82,12,1,15,2,17760768,0,13
1732729591.5962737,0.0,True,static_gps_spoofer,0.0219593252986669,0.0033746580593287,-3.1129589080810547,21.22,52,15.012,0,0,False,,,,64,98,3,20,0.3499258458614349,181,80.593,,39.142414,,-76.7304834,False,0.0291264440002123,83.622,,38.89794033419413,,-77.03651284774833,3.028,,39.1424119,,-76.7304795,6.414492130279541,6.704170227050781,-23.20506858825684,-1,POSCTL,,,,319,,ACTIVE,5.513205051422119,0.19,-0.28,-0.83,12,1,15,2,17760768,0,13
1732729591.6964848,0.0,True,static_gps_spoofer,0.0180306192487478,0.0054696178995072,-3.112244844436645,21.22,52,15.012,0,0,False,,,,64,98,3,20,0.3499258458614349,181,80.593,,39.142414,,-76.7304834,False,0.1397275180001997,83.737,,38.89795576843732,,-77.03653469867938,3.144,,39.1424119,,-76.7304794,6.317336559295654,6.712190628051758,-23.199222564697266,-1,POSCTL,,,,319,,ACTIVE,1732729586.1832798,0.2,-0.28,-0.82,12,1,15,2,17760768,0,13
1732729591.7964594,0.0,True,static_gps_spoofer,0.0128440074622631,0.0076421019621193,-3.1111955642700195,21.22,52,15.012,0,0,False,,,,64,98,3,20,0.3499258458614349,181,80.593,,39.142414,,-76.7304834,False,0.2286097030000746,83.79,,38.89798885637702,,-77.0365016116049,3.196,,39.1424119,,-76.7304793,6.230148315429688,6.721433162689209,-23.193012237548828,-1,POSCTL,,,,346,,ACTIVE,5.613179683685303,0.2,-0.28,-0.82,12,1,15,2,17760768,0,13
1732729591.8968253,0.0,True,static_gps_spoofer,0.0179908331483602,0.0105264065787196,-3.109342336654663,21.22,52,15.012,0,0,False,,,,64,98,3,20,0.3499258458614349,181,80.593,,39.142414,,-76.7304834,False,0.3413351479998709,83.903,,38.89782705958553,,-77.03666913735522,3.31,,39.142412,,-76.7304792,6.133402824401856,6.728924751281738,-23.190380096435547,-1,POSCTL,,,,346,,ACTIVE,1732729586.2836456,0.19,-0.29,-0.82,12,1,15,2,17760768,0,13
1732729591.9968927,0.0,True,static_gps_spoofer,0.025016700848937,0.0134858097881078,-3.1078429222106934,21.22,52,15.012,0,0,False,,,,64,98,3,20,0.3499489724636078,181,80.593,,39.142414,,-76.7304834,False,0.4395904809998683,83.96,,38.89810403514263,,-77.03670542019265,3.366,,39.142412,,-76.7304791,6.039205074310303,6.737972736358643,-23.188631057739254,-1,POSCTL,,,,346,,ACTIVE,5.713247060775757,0.18,-0.28,-0.82,12,1,15,2,17760768,0,13
1732729592.097014,0.0,True,static_gps_spoofer,0.0260760486125946,0.014983020722866,-3.107013940811157,21.22,52,15.012,0,0,False,,,,64,98,3,20,0.3499489724636078,181,80.593,,39.142414,,-76.7304834,False,0.5432337769998412,84.073,,38.89776133565277,,-77.03641515720506,3.48,,39.142412,,-76.7304791,6.039205074310303,6.737972736358643,-23.188631057739254,-1,POSCTL,,,,373,,ACTIVE,1732729586.383767,0.19,-0.3,-0.81,12,1,15,2,17760768,0,13
1732729592.1971693,0.0,True,static_gps_spoofer,0.0201200433075428,0.0107052223756909,-3.1054558753967285,21.22,52,15.012,0,0,False,,,,64,98,3,20,0.3499489724636078,181,80.593,,39.142414,,-76.7304834,False,0.640465813999981,84.129,,38.897982822524206,,-77.03662771043737,3.536,,39.1424121,,-76.7304791,5.948758602142334,6.7413530349731445,-23.186124801635746,-1,POSCTL,,,,373,,ACTIVE,5.813402414321899,0.19,-0.31,-0.83,12,1,15,2,17760768,0,13
1732729592.2974362,0.0,True,static_gps_spoofer,0.0175435487180948,0.007067980710417,-3.1048483848571777,21.78,50,14.948,0,0,False,,,,64,98,3,20,0.3860886096954345,182,80.593,,39.142414,,-76.7304834,False,0.7407640920000631,84.242,,38.897944782200554,,-77.0364405953223,3.649,,39.1424121,,-76.7304791,5.849699974060059,6.741194248199463,-23.1814079284668,-1,POSCTL,,,,373,,ACTIVE,1732729586.4840338,0.18,-0.33,-0.93,12,1,15,2,17760768,0,13
1732729592.397554,0.0,True,static_gps_spoofer,0.0206569954752922,0.0041860407218337,-3.1036152839660645,21.78,50,14.948,0,0,False,,,,64,98,3,20,0.3860886096954345,182,80.593,,39.142414,,-76.7304834,False,0.8247891480000362,84.316,,38.89790972933219,,-77.0364884004745,3.722,,39.1424121,,-76.730479,5.753087997436523,6.746909141540527,-23.18108940124512,-1,POSCTL,,,,373,,ACTIVE,5.913520097732544,0.18,-0.34,-1.08,12,1,15,2,17760768,0,13
1732729592.4975953,0.0,True,static_gps_spoofer,0.0261264201253652,0.0005636654095724,-3.1049113273620605,21.78,50,14.948,0,0,False,,,,64,98,3,20,0.3860886096954345,182,80.593,,39.142414,,-76.7304834,False,0.942477166000117,84.384,,38.89809158917012,,-77.03661207774856,3.79,,39.1424121,,-76.730479,5.616275787353516,6.752811908721924,-23.182323455810547,-1,POSCTL,,,,402,,ACTIVE,1732729586.5840752,0.17,-0.35,-1.23,12,1,15,2,17760768,0,13
1732729592.5978427,0.0,True,static_gps_spoofer,0.0236301980912685,0.0018187775276601,-3.1068267822265625,21.78,50,14.948,0,0,False,,,,64,98,3,20,0.405155211687088,181,80.593,,39.142414,,-76.7304834,False,0.0399832779999087,84.577,,38.89800531267976,,-77.03642876796636,3.983,,39.1424121,,-76.7304789,5.459610462188721,6.754451751708984,-23.181442260742188,-1,POSCTL,,,,402,,ACTIVE,6.01376748085022,0.17,-0.36,-1.54,12,1,15,2,17760768,0,13
1732729592.6979067,0.0,True,static_gps_spoofer,0.0222734250128269,0.0008958125254139,-3.1084890365600586,21.78,50,14.948,0,0,False,,,,64,98,3,20,0.405155211687088,181,80.593,,39.142414,,-76.7304834,False,0.1265582219998577,84.694,,38.89792037841811,,-77.03652415886724,4.101,,39.1424121,,-76.7304789,5.268609523773193,6.757903099060059,-23.18394088745117,-1,POSCTL,,,,402,,ACTIVE,1732729586.6841393,0.16,-0.37,-1.6,12,1,15,2,17760768,0,13
1732729592.7980874,0.0,True,static_gps_spoofer,0.0210051443427801,0.0029314695857465,-3.109557628631592,21.78,50,14.948,0,0,False,,,,64,98,3,20,0.405155211687088,181,80.593,,39.142414,,-76.7304834,False,0.2339345549999052,84.902,,38.89785643168526,,-77.0364837353446,4.309,,39.1424121,,-76.7304789,5.104748249053955,6.756030082702637,-23.181621551513672,-1,POSCTL,,,,452,,ACTIVE,6.113948106765747,0.16,-0.37,-1.53,12,1,15,2,17760768,0,13
1732729592.8982518,0.0,True,static_gps_spoofer,0.022247040644288,0.0037940540350973,-3.1087491512298584,21.78,50,14.948,0,0,False,,,,64,98,3,20,0.405155211687088,181,80.593,,39.142414,,-76.7304834,False,0.3420037410000986,85.0,,38.897879796341975,,-77.03668275126972,4.407,,39.1424121,,-76.7304788,5.104748249053955,6.756030082702637,-23.181621551513672,-1,POSCTL,,,,452,,ACTIVE,1732729586.7843037,0.16,-0.36,-1.49,12,1,15,2,17760768,0,13
1732729592.9993782,0.0,True,static_gps_spoofer,0.0232132021337747,0.0032353331334888,-3.1083807945251465,22.5,48,14.892,0,0,False,,,,64,98,3,20,0.4054147899150848,181,80.593,,39.142414,,-76.7304834,False,0.4489181290000488,85.206,,38.89792535222148,,-77.03660159335104,4.612,,39.1424121,,-76.7304788,4.928575038909912,6.760783672332764,-23.179109573364254,-1,POSCTL,,,,452,,ACTIVE,6.21507453918457,0.17,-0.36,-1.43,12,1,15,2,17760768,0,13
1732729593.098421,0.0,True,static_gps_spoofer,0.0202444437891244,0.0036854224745184,-3.10830020904541,22.5,48,14.892,0,0,False,,,,64,98,3,20,0.4054147899150848,181,80.593,,39.142414,,-76.7304834,False,0.531887536999875,85.299,,38.89782476888896,,-77.03652527538624,4.706,,39.1424121,,-76.7304788,4.76696252822876,6.766033172607422,-23.17687225341797,-1,POSCTL,,,,452,,ACTIVE,1732729586.8833468,0.17,-0.36,-1.42,12,1,15,2,17760768,0,13
1732729593.198674,0.0,True,static_gps_spoofer,0.0221586283296346,0.0107933897525072,-3.1073474884033203,22.5,48,14.892,0,0,False,,,,64,98,3,20,0.4054147899150848,181,80.593,,39.142414,,-76.7304834,False,0.6444296479999139,85.492,,38.89794770629718,,-77.03661000732517,4.899,,39.1424122,,-76.7304787,4.6122355461120605,6.777552127838135,-23.173614501953125,-1,POSCTL,,,,502,,ACTIVE,6.315327167510986,0.18,-0.35,-1.44,12,1,15,2,17760768,0,13
1732729593.2990935,0.0,True,static_gps_spoofer,0.0228196252137422,0.0123888403177261,-3.1074674129486084,22.5,48,14.892,0,0,False,,,,64,98,3,20,0.4105448722839355,181,80.593,,39.142414,,-76.7304834,False,0.747422128999915,85.594,,38.89793942040339,,-77.03653652164368,5.0,,39.1424122,,-76.7304787,4.442469596862793,6.774770736694336,-23.162527084350582,-1,POSCTL,,,,502,,ACTIVE,1732729586.9837666,0.18,-0.36,-1.47,12,1,15,2,17760768,0,13
1732729593.3991723,0.0,True,static_gps_spoofer,0.0207737367600202,0.0083513753488659,-3.107978820800781,22.5,48,14.892,0,0,False,,,,64,98,3,20,0.4105448722839355,181,80.593,,39.142414,,-76.7304834,False,0.8468607220002013,85.794,,38.89802365601906,,-77.03655206546397,5.2,,39.1424123,,-76.7304786,4.272858619689941,6.786269187927246,-23.15760612487793,-1,POSCTL,,,,502,,ACTIVE,6.415405988693237,0.19,-0.37,-1.54,12,1,15,2,17760768,0,13
1732729593.499334,0.0,True,static_gps_spoofer,0.0192500911653041,0.0005168960196897,-3.109094619750977,22.5,48,14.892,0,0,False,,,,64,98,3,20,0.4105448722839355,181,80.593,,39.142414,,-76.7304834,False,0.9458966850002072,85.91,,38.8979685809311,,-77.03646009571091,5.316,,39.1424123,,-76.7304786,4.095493316650391,6.7853312492370605,-23.149572372436523,-1,POSCTL,,,,552,,ACTIVE,1732729587.083928,0.18,-0.37,-1.58,12,1,15,2,17760768,0,13
1732729593.5994592,0.0,True,static_gps_spoofer,0.0184458624571561,0.0002897165541071,-3.109832286834717,23.34,47,14.84,0,0,False,,,,64,98,3,20,0.4105448722839355,181,80.593,,39.142414,,-76.7304834,False,0.0454324259999339,86.017,,38.89801037913348,,-77.03657360156458,5.424,,39.1424124,,-76.7304786,3.9084784984588623,6.792004108428955,-23.142995834350582,-1,POSCTL,,,,552,,ACTIVE,6.515531063079834,0.18,-0.38,-1.62,12,1,15,2,17760768,0,13
1732729593.6997662,0.0,True,static_gps_spoofer,0.0185476373881101,0.0054347645491361,-3.1108877658843994,23.34,47,14.84,0,0,False,,,,64,98,3,20,0.4273867011070251,181,80.593,,39.142414,,-76.7304834,False,0.1465802600000643,86.24,,38.89797656775411,,-77.03659883000765,5.647,,39.1424125,,-76.7304785,3.718082427978516,6.789699077606201,-23.13299369812012,-1,POSCTL,,,,552,,ACTIVE,1732729587.184235,0.19,-0.38,-1.69,12,1,15,2,17760768,0,13
1732729593.8002584,0.0,True,static_gps_spoofer,0.0163392797112464,0.0103511689230799,-3.112354040145874,23.34,47,14.84,0,0,False,,,,64,98,3,20,0.4273867011070251,181,80.593,,39.142414,,-76.7304834,False,0.247657166999943,86.465,,38.89788736661948,,-77.03662814631531,5.871,,39.1424126,,-76.7304785,3.718082427978516,6.789699077606201,-23.13299369812012,-1,POSCTL,,,,552,,ACTIVE,6.616023302078247,0.19,-0.39,-1.74,12,1,15,2,17760768,0,13
1732729593.900438,0.0,True,static_gps_spoofer,0.0121276909485459,0.0097410539165139,-3.113158941268921,23.34,47,14.84,0,0,False,,,,64,98,3,20,0.4273867011070251,181,80.593,,39.142414,,-76.7304834,False,0.3262865000001511,86.591,,38.8980915511974,,-77.03649502409422,5.998,,39.1424126,,-76.7304785,3.527315139770508,6.792621612548828,-23.12652969360352,-1,POSCTL,,,,607,,ACTIVE,1732729587.2844148,0.19,-0.39,-1.78,12,1,15,2,17760768,0,13
1732729594.0005298,0.0,True,static_gps_spoofer,0.0092043569311499,0.0027864535804837,-3.1140360832214355,23.34,47,14.84,0,0,False,,,,64,98,3,20,0.4466863870620727,181,80.593,,39.142414,,-76.7304834,False,0.4459209259998715,86.729,,38.89783069234181,,-77.03656904367946,6.135,,39.1424127,,-76.7304785,3.3223865032196045,6.788532733917236,-23.116315841674805,-1,POSCTL,,,,607,,ACTIVE,6.7161149978637695,0.19,-0.4,-1.83,12,1,15,2,17760768,0,13
1732729594.100789,0.0,True,static_gps_spoofer,0.007300236262381,0.001989034935832,-3.114452838897705,23.34,47,14.84,0,0,False,,,,64,98,3,20,0.4466863870620727,181,80.593,,39.142414,,-76.7304834,False,0.5408699820000038,86.969,,38.89778699174011,,-77.0366631049265,6.376,,39.1424127,,-76.7304785,3.115438222885132,6.794967174530029,-23.11153793334961,-1,POSCTL,,,,607,,ACTIVE,1732729587.384674,0.18,-0.41,-1.91,12,1,15,2,17760768,0,13
1732729594.200872,0.0,True,static_gps_spoofer,0.0101407449692487,0.0038734176196157,-3.115097999572754,23.34,47,14.84,0,0,False,,,,64,98,3,20,0.4466863870620727,181,80.593,,39.142414,,-76.7304834,False,0.6301993330002915,87.111,,38.89803776721142,,-77.03659848158247,6.518,,39.1424128,,-76.7304786,2.8858680725097656,6.779006004333496,-23.099634170532227,-1,POSCTL,,,,672,,ACTIVE,6.816197872161865,0.18,-0.41,-1.94,12,1,15,2,17760768,0,13
