timestamp,airspeed,armed,attack_type,attitude.pitch,attitude.roll,attitude.yaw,battery.current,battery.level,battery.voltage,commands.count,commands.next,ekf_ok,gimbal.pitch,gimbal.roll,gimbal.yaw,gps_0.eph,gps_0.epv,gps_0.fix_type,gps_0.satellites_visible,groundspeed,heading,home_location.alt,home_location.global_frame,home_location.lat,home_location.local_frame,home_location.lon,is_armable,last_heartbeat,location.global_frame.alt,location.global_frame.global_frame,location.global_frame.lat,location.global_frame.local_frame,location.global_frame.lon,location.global_relative_frame.alt,location.global_relative_frame.global_frame,location.global_relative_frame.lat,location.global_relative_frame.local_frame,location.global_relative_frame.lon,location.local_frame.down,location.local_frame.east,location.local_frame.north,ml_verdict,mode.name,mount_status[0],mount_status[1],mount_status[2],rangefinder.distance,rangefinder.voltage,system_status.state,timedelta,velocity[0],velocity[1],velocity[2],version.autopilot_type,version.major,version.minor,version.patch,version.raw_version,version.release,version.vehicle_type
1733418865.314177,0.0,True,benign,0.0027598231099545956,-0.002054471056908369,0.38097095489501953,-1.0,100,16.194,0,8,False,,,,0,0,3,10,0.0014892875915393233,21,28.497,,39.9526382,,-113.4759759,False,0.019350475005921908,28.492,,39.9526382,,-113.4759756,-0.001,,39.9526382,,-113.4759756,0.006455009337514639,0.04116051644086838,0.02826104499399662,-1,MISSION,,,,,,ACTIVE,0,0.0,0.0,0.0,12,1,15,0,17760384,128,2
1733418865.412374,0.0,True,benign,0.0027493846137076616,-0.0019888030365109444,0.381112664937973,-1.0,100,16.191,0,8,False,,,,0,0,3,10,0.0023997838143259287,21,28.497,,39.9526382,,-113.4759759,False,0.008925967995310202,28.492,,39.9526382,,-113.4759756,-0.001,,39.9526382,,-113.4759756,0.006700110621750355,0.04124876484274864,0.02694634720683098,-1,MISSION,,,,,,ACTIVE,1733418865.412374,0.0,0.0,0.0,12,1,15,0,17760384,128,2
1733418865.6652336,0.0,True,benign,0.0028461667243391275,-0.002525770803913474,0.38091596961021423,-1.0,100,16.185,0,8,False,,,,0,0,3,10,0.005877245217561722,21,28.497,,39.9526382,,-113.4759759,False,0.26435174999642186,28.491,,39.9526382,,-113.4759756,-0.001,,39.9526382,,-113.4759756,0.007221663370728493,0.04167322814464569,0.023425376042723656,-1,MISSION,,,,,,ACTIVE,0.25285959243774414,0.0,0.0,0.0,12,1,15,0,17760384,128,2
1733418865.8614461,0.0,True,benign,0.003117815125733614,-0.0025035040453076363,0.38045400381088257,-1.0,100,16.185,0,0,False,,,,0,0,3,10,0.00658907787874341,21,28.497,,39.9526382,,-113.4759759,False,0.46050612098770216,28.491,,39.9526381,,-113.4759756,-0.002,,39.9526381,,-113.4759756,0.007479648105800152,0.0418095588684082,0.021046806126832962,-1,MISSION,,,,,,ACTIVE,1733418865.6085865,0.0,0.0,0.0,12,1,15,0,17760384,128,2
1733418865.941094,0.0,True,benign,0.0031560102943331003,-0.0025911086704581976,0.3804450035095215,-1.0,100,16.179,0,0,False,,,,0,0,3,10,0.007953877560794353,21,28.497,,39.9526382,,-113.4759759,False,0.5391996309917886,28.491,,39.9526381,,-113.4759756,-0.002,,39.9526381,,-113.4759756,0.007525519467890263,0.04174724966287613,0.020309558138251305,-1,MISSION,,,,,,ACTIVE,0.3325073719024658,0.0,0.0,0.0,12,1,15,0,17760384,128,2
1733418866.041453,0.0,True,benign,0.0032275631092488766,-0.002909469185397029,0.38028645515441895,-1.0,100,16.179,0,0,False,,,,0,0,3,10,0.008967858739197254,21,28.497,,39.9526382,,-113.4759759,False,0.6335235959995771,28.491,,39.9526381,,-113.4759756,-0.002,,39.9526381,,-113.4759756,0.007590247318148613,0.041546713560819626,0.019602609798312187,-1,MISSION,,,,,,ACTIVE,1733418865.7089455,0.0,0.0,0.0,12,1,15,0,17760384,128,2
1733418866.145983,0.0,True,benign,0.0031617851927876472,-0.003027998609468341,0.38019636273384094,-1.0,100,16.173,0,0,False,,,,0,0,3,10,0.010386530309915543,21,28.497,,39.9526382,,-113.4759759,False,0.744828618990141,28.491,,39.9526381,,-113.4759756,-0.002,,39.9526381,,-113.4759756,0.007660345174372196,0.041122373193502426,0.01878080517053604,-1,MISSION,,,,,,ACTIVE,0.43703746795654297,0.0,0.0,0.0,12,1,15,0,17760384,128,2
1733418866.2430928,0.0,True,benign,0.003189920214936137,-0.003089519450441003,0.3799620270729065,-1.0,100,16.173,0,0,False,,,,0,0,3,10,0.011442698538303375,21,28.497,,39.9526382,,-113.4759759,False,0.8408873899898026,28.491,,39.9526381,,-113.4759756,-0.002,,39.9526381,,-113.4759756,0.007682254072278738,0.040626585483551025,0.0180362481623888,-1,MISSION,,,,,,ACTIVE,1733418865.8060553,-0.01,0.0,0.0,12,1,15,0,17760384,128,2
1733418866.3572292,0.0,True,benign,0.0029499519150704145,-0.0032666041515767574,0.3797796666622162,-1.0,100,16.167,0,0,False,,,,0,0,3,10,0.011765756644308567,21,28.497,,39.9526382,,-113.4759759,False,0.9535794409894152,28.491,,39.9526381,,-113.4759756,-0.002,,39.9526381,,-113.4759756,0.007801579777151346,0.039989542216062546,0.01732773706316948,-1,MISSION,,,,,,ACTIVE,0.5511739253997803,0.0,0.0,0.0,12,1,15,0,17760384,128,2
1733418866.4715862,0.0,True,benign,0.002899468643590808,-0.003436502069234848,0.37980568408966064,-1.0,100,16.167,0,0,False,,,,0,0,3,10,0.012642668560147285,21,28.497,,39.9526382,,-113.4759759,False,1.0378847469983157,28.491,,39.9526381,,-113.4759756,-0.002,,39.9526381,,-113.4759756,0.007866674102842808,0.03967117518186569,0.017002135515213013,-1,MISSION,,,,,,ACTIVE,1733418865.9204123,0.0,0.0,0.0,12,1,15,0,17760384,128,2
1733418866.6042469,0.0,True,benign,0.0030748501885682344,-0.003545684739947319,0.38011375069618225,-1.0,100,16.161,0,0,False,,,,0,0,3,10,0.014546271413564682,21,28.497,,39.9526382,,-113.4759759,False,0.04621853701246437,28.49,,39.9526381,,-113.4759756,-0.002,,39.9526381,,-113.4759756,0.00825317669659853,0.03850584477186203,0.016665427014231682,-1,MISSION,,,,,,ACTIVE,0.6838345527648926,0.0,-0.01,0.0,12,1,15,0,17760384,128,2
1733418866.6915329,0.0,True,benign,0.003202289342880249,-0.0036895025987178087,0.38020169734954834,-1.0,100,16.161,0,0,False,,,,0,0,3,10,0.01524185761809349,21,28.497,,39.9526382,,-113.4759759,False,0.13434617400343996,28.49,,39.9526381,,-113.4759756,-0.003,,39.9526381,,-113.4759756,0.008557498455047607,0.03805973753333092,0.016696136444807053,-1,MISSION,,,,,,ACTIVE,1733418866.0076983,0.0,-0.01,0.0,12,1,15,0,17760384,128,2
1733418866.7895775,0.0,True,benign,0.0030576777644455433,-0.0037529380060732365,0.38047826290130615,-1.0,99,16.155,0,0,False,,,,0,0,3,10,0.014437898993492126,21,28.497,,39.9526382,,-113.4759759,False,0.23114418200566433,28.49,,39.9526381,,-113.4759756,-0.003,,39.9526381,,-113.4759756,0.008736183866858482,0.03786063566803932,0.016719885170459747,-1,MISSION,,,,,,ACTIVE,0.781879186630249,0.0,-0.01,0.0,12,1,15,0,17760384,128,2
1733418866.9194577,0.0,True,benign,0.003303637495264411,-0.003436353523284197,0.3806999921798706,-1.0,99,16.155,0,0,False,,,,0,0,3,10,0.014231057837605476,21,28.497,,39.9526382,,-113.4759759,False,0.36105588100326713,28.49,,39.9526381,,-113.4759756,-0.003,,39.9526381,,-113.4759756,0.008882462978363037,0.037864234298467636,0.01681777648627758,-1,MISSION,,,,,,ACTIVE,1733418866.1375785,0.0,-0.01,0.0,12,1,15,0,17760384,128,2
1733418867.071009,0.0,True,benign,0.0027418634854257107,-0.0033748610876500607,0.3808649480342865,-1.0,99,16.149,0,0,False,,,,0,0,3,10,0.016011502593755722,21,28.497,,39.9526382,,-113.4759759,False,0.5131550040096045,28.49,,39.9526381,,-113.4759756,-0.003,,39.9526381,,-113.4759756,0.009000872261822224,0.037672024220228195,0.017097285017371178,-1,MISSION,,,,,,ACTIVE,0.9334304332733154,0.0,-0.01,0.0,12,1,15,0,17760384,128,2
1733418867.1368403,0.0,True,benign,0.002659732475876808,-0.003357022302225232,0.38094469904899597,-1.0,99,16.149,0,0,False,,,,0,0,3,10,0.017217960208654404,21,28.497,,39.9526382,,-113.4759759,False,0.5790134720009519,28.49,,39.9526381,,-113.4759756,0.0,,39.9526381,,-113.4759756,0.009088936261832714,0.03751188889145851,0.017117194831371307,-1,MISSION,,,,,,ACTIVE,1733418866.20341,0.0,-0.01,0.0,12,1,15,0,17760384,128,2
1733418867.2391913,0.0,True,benign,0.0024902925360947847,-0.0032178449910134077,0.381257563829422,-1.0,99,16.143,0,0,False,,,,0,0,3,10,0.01819300651550293,21,28.49,,39.9526381,,-113.4759756,False,0.6806842680089176,28.489,,39.9526381,,-113.4759756,0.0,,39.9526381,,-113.4759756,0.009132349863648415,0.03725051134824753,0.016972675919532776,-1,MISSION,,,,,,ACTIVE,1.0357813835144043,0.0,-0.01,0.0,12,1,15,0,17760384,128,2
1733418867.3493812,0.0,True,benign,0.0019652657210826874,-0.0030648219399154186,0.3811021149158478,-1.0,99,16.143,0,0,False,,,,0,0,3,10,0.01752723567187786,21,28.49,,39.9526381,,-113.4759756,False,0.7911331490031444,28.49,,39.9526381,,-113.4759756,0.0,,39.9526381,,-113.4759756,0.008911795914173126,0.03679472580552101,0.016573570668697357,-1,MISSION,,,,,,ACTIVE,1733418866.3135998,0.0,-0.01,0.0,12,1,15,0,17760384,128,2
1733418867.4738965,0.0,True,benign,0.0019118586787953973,-0.0030596591532230377,0.3812035918235779,-1.0,98,16.137,0,0,False,,,,0,0,3,10,0.01671595498919487,21,28.49,,39.9526381,,-113.4759756,False,0.9159640310099348,28.49,,39.9526381,,-113.4759756,0.0,,39.9526381,,-113.4759756,0.008584033697843552,0.03594883158802986,0.016303956508636475,-1,MISSION,,,,,,ACTIVE,1.1602966785430908,0.0,-0.01,0.0,12,1,15,0,17760384,128,2
1733418867.557607,0.0,True,benign,0.0017625114414840937,-0.003111316356807947,0.3811672031879425,-1.0,98,16.137,0,0,False,,,,0,0,3,10,0.01671595498919487,21,28.49,,39.9526381,,-113.4759756,False,0.995888849007315,28.49,,39.9526381,,-113.4759756,0.0,,39.9526381,,-113.4759756,0.008385097607970238,0.0354631207883358,0.01627054437994957,-1,MISSION,,,,,,ACTIVE,1733418866.3973103,0.0,-0.01,0.0,12,1,15,0,17760384,128,2
1733418867.6591,0.0,True,benign,0.0014700916362926364,-0.0030921087600290775,0.3811286687850952,-1.0,98,16.134,0,0,False,,,,0,0,3,10,0.016415059566497803,21,28.49,,39.9526381,,-113.4759756,False,0.08202083500509616,28.491,,39.9526381,,-113.4759756,0.0,,39.9526381,,-113.4759756,0.008054166100919247,0.03479459136724472,0.016502123326063156,-1,MISSION,,,,,,ACTIVE,1.2617897987365723,0.0,-0.01,0.0,12,1,15,0,17760384,128,2
1733418867.7677164,0.0,True,benign,0.0014589568600058556,-0.0032212368678301573,0.3813720643520355,-1.0,98,16.131,0,0,False,,,,0,0,3,10,0.016382109373807907,21,28.49,,39.9526381,,-113.4759756,False,0.09831629900145344,28.491,,39.9526381,,-113.4759756,0.001,,39.9526381,,-113.4759756,0.007666661404073238,0.034385211765766144,0.016857894137501717,-1,MISSION,,,,,,ACTIVE,1733418866.5059266,0.0,-0.01,0.0,12,1,15,0,17760384,128,2
1733418867.8611338,0.0,True,benign,0.0013474817387759686,-0.0032567009329795837,0.3817845582962036,-1.0,98,16.131,0,0,False,,,,0,0,3,10,0.017241163179278374,21,28.49,,39.9526381,,-113.4759756,False,0.19156893200124614,28.491,,39.9526381,,-113.4759757,0.001,,39.9526381,,-113.4759757,0.00725618377327919,0.033952496945858,0.017205478623509407,-1,MISSION,,,,,,ACTIVE,1.3552072048187256,0.0,-0.01,0.0,12,1,15,0,17760384,128,2
1733418867.964803,0.0,True,benign,0.0013391621178016067,-0.0032123192213475704,0.38183093070983887,-1.0,98,16.125,0,0,False,,,,0,0,3,10,0.015862589702010155,21,28.49,,39.9526381,,-113.4759756,False,0.2958197889965959,28.492,,39.9526381,,-113.4759757,0.002,,39.9526381,,-113.4759757,0.006647322326898575,0.033247221261262894,0.017672982066869736,-1,MISSION,,,,,,ACTIVE,1733418866.6095958,0.0,-0.01,0.0,12,1,15,0,17760384,128,2
1733418868.0655403,0.0,True,benign,0.0015857408288866282,-0.002987402491271496,0.3815922141075134,-1.0,98,16.125,0,0,False,,,,0,0,3,10,0.016321133822202682,21,28.49,,39.9526381,,-113.4759756,False,0.3975757479929598,28.492,,39.9526381,,-113.4759757,0.002,,39.9526381,,-113.4759757,0.006308232434093952,0.03261082246899605,0.018033284693956375,-1,MISSION,,,,,,ACTIVE,1.455944538116455,0.0,-0.01,0.0,12,1,15,0,17760384,128,2
1733418868.1674166,0.0,True,benign,0.0015237737679854035,-0.003268195316195488,0.381593257188797,-1.0,98,16.119,0,0,False,,,,0,0,3,10,0.01566353254020214,21,28.49,,39.9526381,,-113.4759756,False,0.49919010800658725,28.493,,39.9526381,,-113.4759757,0.003,,39.9526381,,-113.4759757,0.005934627261012793,0.03186675161123276,0.01850961707532406,-1,MISSION,,,,,,ACTIVE,1733418866.711472,0.0,-0.01,0.0,12,1,15,0,17760384,128,2
1733418868.2699518,0.0,True,benign,0.001840634853579104,-0.003222714876756072,0.38171255588531494,-1.0,98,16.119,0,0,False,,,,0,0,3,10,0.016385866329073906,21,28.49,,39.9526381,,-113.4759756,False,0.6024991430022055,28.493,,39.9526381,,-113.4759757,0.003,,39.9526381,,-113.4759757,0.005778791848570108,0.03145381808280945,0.01887843944132328,-1,MISSION,,,,,,ACTIVE,1.5584797859191895,0.0,-0.01,0.0,12,1,15,0,17760384,128,2
1733418868.3674996,0.0,True,benign,0.0019047311507165432,-0.0030722375959157944,0.3817487955093384,-1.0,97,16.113,0,0,False,,,,0,0,3,10,0.016065936535596848,21,28.49,,39.9526381,,-113.4759756,False,0.6978851729945745,28.493,,39.9526381,,-113.4759757,0.003,,39.9526381,,-113.4759757,0.005594979040324688,0.031288668513298035,0.019518399611115456,-1,MISSION,,,,,,ACTIVE,1733418866.8090198,0.0,-0.01,0.0,12,1,15,0,17760384,128,2
1733418868.4699538,0.0,True,benign,0.0020374839659780264,-0.0033306980039924383,0.3816441595554352,-1.0,97,16.113,0,0,False,,,,0,0,3,10,0.015243738889694214,21,28.49,,39.9526381,,-113.4759756,False,0.8020129219949013,28.493,,39.9526381,,-113.4759757,0.003,,39.9526381,,-113.4759757,0.005472452845424414,0.03143730387091637,0.02013288252055645,-1,MISSION,,,,,,ACTIVE,1.6609339714050293,0.0,-0.01,0.0,12,1,15,0,17760384,128,2
1733418868.5702484,0.0,True,benign,0.0017957836389541626,-0.003106267424300313,0.38153398036956787,-1.0,97,16.107,0,0,False,,,,0,0,3,10,0.016150858253240585,21,28.49,,39.9526381,,-113.4759756,False,0.9023159530042903,28.493,,39.9526381,,-113.4759757,0.003,,39.9526381,,-113.4759757,0.005465258844196796,0.0314689539372921,0.02072650007903576,-1,MISSION,,,,,,ACTIVE,1733418866.9093144,0.0,-0.01,0.0,12,1,15,0,17760384,128,2
1733418868.6802697,0.0,True,benign,0.001787403249181807,-0.002931030932813883,0.38157525658607483,-1.0,97,16.104,0,0,False,,,,0,0,3,10,0.016999492421746254,21,28.49,,39.9526381,,-113.4759756,False,0.007148511009290814,28.493,,39.9526381,,-113.4759757,0.003,,39.9526381,,-113.4759757,0.005605340003967285,0.03168759495019913,0.02121187187731266,-1,MISSION,,,,,,ACTIVE,1.7709553241729736,0.0,-0.01,0.0,12,1,15,0,17760384,128,2
1733418868.7793894,0.0,True,benign,0.0018169492250308394,-0.0030581557657569647,0.3817547857761383,-1.0,97,16.104,0,0,False,,,,0,0,3,10,0.016999492421746254,21,28.49,,39.9526381,,-113.4759756,False,0.10131019400432706,28.493,,39.9526381,,-113.4759757,0.003,,39.9526381,,-113.4759757,0.0058214422315359116,0.03180041164159775,0.021585870534181595,-1,MISSION,,,,,,ACTIVE,1733418867.008434,0.0,-0.01,0.0,12,1,15,0,17760384,128,2
1733418868.8807466,0.0,True,benign,0.0021328527946025133,-0.0033626453951001167,0.3816429674625397,-1.0,97,16.101,0,0,False,,,,0,0,3,10,0.01636894792318344,21,28.49,,39.9526381,,-113.4759756,False,0.09841652998875361,28.493,,39.9526381,,-113.4759757,0.002,,39.9526381,,-113.4759757,0.006121012847870588,0.03214772045612335,0.0219115037471056,-1,MISSION,,,,,,ACTIVE,1.8723125457763672,0.0,-0.01,0.0,12,1,15,0,17760384,128,2
1733418868.9801426,0.0,True,benign,0.002266141353175044,-0.0037128753028810024,0.3814028203487396,-1.0,97,16.101,0,0,False,,,,0,0,3,10,0.013277425430715084,21,28.49,,39.9526381,,-113.4759756,False,0.19719761099258903,28.492,,39.9526382,,-113.4759757,0.002,,39.9526382,,-113.4759757,0.006358627695590258,0.03265414014458656,0.02226288989186287,-1,MISSION,,,,,,ACTIVE,1733418867.10783,0.0,-0.01,0.0,12,1,15,0,17760384,128,2
1733418869.0803125,0.0,True,benign,0.002203921088948846,-0.0038882398512214422,0.381389856338501,-1.0,96,16.095,0,0,False,,,,0,0,3,10,0.013992687687277794,21,28.49,,39.9526381,,-113.4759756,False,0.29397413099650294,28.492,,39.9526382,,-113.4759757,0.002,,39.9526382,,-113.4759757,0.006743540987372398,0.033414941281080246,0.023213107138872147,-1,MISSION,,,,,,ACTIVE,1.972482442855835,0.0,-0.01,0.0,12,1,15,0,17760384,128,2
1733418869.1803405,0.0,True,benign,0.0021547044161707163,-0.003636757843196392,0.3816474378108978,-1.0,96,16.095,0,0,False,,,,0,0,3,10,0.013229679316282272,21,28.49,,39.9526381,,-113.4759756,False,0.39731359299912583,28.492,,39.9526382,,-113.4759757,0.002,,39.9526382,,-113.4759757,0.006923613138496876,0.03386839106678963,0.024030953645706177,-1,MISSION,,,,,,ACTIVE,1733418867.207858,0.0,-0.01,0.0,12,1,15,0,17760384,128,2
1733418869.2809696,0.0,True,benign,-0.00022595602786168456,0.004556530620902777,0.3818456530570984,-1.0,96,16.089,0,0,False,,,,0,0,3,10,0.013701432384550571,21,28.49,,39.9526381,,-113.4759756,False,0.49812383099924773,28.492,,39.9526382,,-113.4759756,0.002,,39.9526382,,-113.4759756,0.006707044318318367,0.03447362035512924,0.024981020018458366,-1,MISSION,,,,,,ACTIVE,2.0731115341186523,0.0,-0.01,0.0,12,1,15,0,17760384,128,2
1733418869.3810844,0.0,True,benign,-0.0019416440045461059,0.012663505971431732,0.3816934823989868,-1.0,96,16.089,0,0,False,,,,0,0,3,10,0.006879614200443029,21,28.49,,39.9526381,,-113.4759756,False,0.5976747059903573,28.494,,39.9526382,,-113.4759756,0.004,,39.9526382,,-113.4759756,0.0051317703910171986,0.035265762358903885,0.02541193552315235,-1,MISSION,,,,,,ACTIVE,1733418867.307973,0.0,0.0,-0.03,12,1,15,0,17760384,128,2
1733418869.4814444,0.0,True,benign,-0.002104151761159301,0.013916331343352795,0.3814900517463684,-1.0,96,16.083,0,0,False,,,,0,0,3,10,0.012371663935482502,21,28.49,,39.9526381,,-113.4759756,False,0.6985423779988196,28.499,,39.9526382,,-113.4759756,0.009,,39.9526382,,-113.4759756,-0.0010991235030815005,0.03755786642432213,0.02572876587510109,-1,MISSION,,,,,,ACTIVE,2.173471450805664,0.0,0.01,-0.07,12,1,15,0,17760384,128,2
1733418869.5815349,0.0,True,benign,-0.0010258536785840988,0.010733535513281822,0.3814167082309723,-1.0,96,16.083,0,0,False,,,,0,0,3,10,0.029910333454608917,21,28.49,,39.9526381,,-113.4759756,False,0.7976454819872743,28.51,,39.9526382,,-113.4759756,0.02,,39.9526382,,-113.4759756,-0.010965758934617043,0.040813148021698,0.025787463411688805,-1,MISSION,,,,,,ACTIVE,1733418867.4080634,0.0,0.03,-0.13,12,1,15,0,17760384,128,2
1733418869.6932645,0.0,True,benign,0.00017983268480747938,0.0053895930759608746,0.3816363513469696,-1.0,95,16.077,0,0,False,,,,0,0,3,10,0.040426746010780334,21,28.49,,39.9526381,,-113.4759756,False,0.9085906669934047,28.529,,39.9526382,,-113.4759755,0.039,,39.9526382,,-113.4759755,-0.03015035390853882,0.0455041378736496,0.025512343272566795,-1,MISSION,,,,,,ACTIVE,2.285201072692871,0.0,0.04,-0.24,12,1,15,0,17760384,128,2
1733418869.7934074,0.0,True,benign,0.0012900801375508308,0.0018263694364577532,0.38157764077186584,-1.0,95,16.074,0,0,False,,,,0,0,3,10,0.04625318944454193,21,28.49,,39.9526381,,-113.4759756,False,0.00910409601056017,28.551,,39.9526382,,-113.4759755,0.061,,39.9526382,,-113.4759755,-0.055303994566202164,0.049839992076158524,0.02530515007674694,-1,MISSION,,,,,,ACTIVE,1733418867.5082064,0.0,0.04,-0.33,12,1,15,0,17760384,128,2
1733418869.8875692,0.0,True,benign,0.0020851222798228264,-0.0008309020195156336,0.38152429461479187,-1.0,95,16.074,0,0,False,,,,0,0,3,10,0.04625318944454193,21,28.49,,39.9526381,,-113.4759756,False,0.10278696400928311,28.586,,39.9526382,,-113.4759754,0.096,,39.9526382,,-113.4759754,-0.08450768142938614,0.05400776490569115,0.025154318660497665,-1,MISSION,,,,,,ACTIVE,2.3793628215789795,0.0,0.04,-0.42,12,1,15,0,17760384,128,2
1733418869.9876697,0.0,True,benign,0.002676942152902484,-0.002697031944990158,0.38142749667167664,-1.0,95,16.071,0,0,False,,,,0,0,3,10,0.04876645654439926,21,28.49,,39.9526381,,-113.4759756,False,0.09533089499745984,28.621,,39.9526382,,-113.4759754,0.131,,39.9526382,,-113.4759754,-0.1263820081949234,0.05900682136416435,0.024915171787142754,-1,MISSION,,,,,,ACTIVE,1733418867.608307,0.0,0.04,-0.49,12,1,15,0,17760384,128,2
1733418870.0877883,0.0,True,benign,0.0031994397286325693,-0.004136343952268362,0.38143160939216614,-1.0,95,16.071,0,0,False,,,,0,0,3,10,0.04583660140633583,21,28.49,,39.9526381,,-113.4759756,False,0.1940246229933109,28.674,,39.9526382,,-113.4759753,0.184,,39.9526382,,-113.4759753,-0.1665423959493637,0.063059501349926,0.0248641986399889,-1,MISSION,,,,,,ACTIVE,2.4794814586639404,0.0,0.04,-0.57,12,1,15,0,17760384,128,2
1733418870.1878932,0.0,True,benign,0.0037503386847674847,-0.005167471710592508,0.381397008895874,-1.0,95,16.065,0,0,False,,,,0,0,3,10,0.0441465899348259,21,28.49,,39.9526381,,-113.4759756,False,0.2954215649951948,28.72,,39.9526382,,-113.4759753,0.23,,39.9526382,,-113.4759753,-0.22613386809825897,0.06795483827590942,0.02494734898209572,-1,MISSION,,,,,,ACTIVE,1733418867.7084117,0.0,0.04,-0.64,12,1,15,0,17760384,128,2
1733418870.2879875,0.0,True,benign,0.004109150730073452,-0.006084041204303503,0.38150396943092346,-1.0,95,16.065,0,0,False,,,,0,0,3,10,0.040649428963661194,21,28.49,,39.9526381,,-113.4759756,False,0.3941906339896377,28.781,,39.9526382,,-113.4759752,0.291,,39.9526382,,-113.4759752,-0.2774757742881775,0.07162634283304214,0.025036374107003212,-1,MISSION,,,,,,ACTIVE,2.579575777053833,0.0,0.03,-0.71,12,1,15,0,17760384,128,2
1733418870.3915238,0.0,True,static_gps_spoofer,0.004798127803951502,-0.006581753958016634,0.38167810440063477,-1.0,94,16.059,0,0,False,,,,0,0,3,10,0.03655228763818741,21,28.49,,39.9526381,,-113.4759756,False,0.4974593789956998,28.838,,38.89798217505768,,-77.03654408136124,0.348,,39.9526382,,-113.4759752,-0.3510686457157135,0.07624243944883347,0.025198226794600487,-1,MISSION,,,,,,ACTIVE,1733418867.811948,0.0,0.03,-0.77,12,1,15,0,17760384,128,2
1733418870.4922912,0.0,True,static_gps_spoofer,0.004851292818784714,-0.007479332387447357,0.3817153573036194,-1.0,94,16.059,0,0,False,,,,0,0,3,10,0.033041536808013916,21,28.49,,39.9526381,,-113.4759756,False,0.5995235469890758,28.918,,38.897811612966876,,-77.03648463384985,0.428,,39.9526382,,-113.4759751,-0.4065277576446533,0.07939843833446503,0.025199012830853462,-1,MISSION,,,,,,ACTIVE,2.6803431510925293,0.0,0.03,-0.85,12,1,15,0,17760384,128,2
1733418870.5973947,0.0,True,static_gps_spoofer,0.0052335974760353565,-0.008022299967706203,0.3819499909877777,-1.0,94,16.053,0,0,False,,,,0,0,3,10,0.02691543661057949,21,28.49,,39.9526381,,-113.4759756,False,0.7054814069997519,28.999,,38.897999354414075,,-77.03639417876133,0.509,,39.9526382,,-113.4759751,-0.49314695596694946,0.08375588059425354,0.025191541761159897,-1,MISSION,,,,,,ACTIVE,1733418867.9170516,0.0,0.02,-0.91,12,1,15,0,17760384,128,2
1733418870.6966786,0.0,True,static_gps_spoofer,0.0051179672591388226,-0.008590232580900192,0.38176947832107544,-1.0,94,16.053,0,0,False,,,,0,0,3,10,0.02099461853504181,21,28.49,,39.9526381,,-113.4759756,False,0.8027979929902358,29.071,,38.89791697216565,,-77.03653951044078,0.581,,39.9526382,,-113.475975,-0.5797229409217834,0.08749258518218994,0.025073494762182236,-1,MISSION,,,,,,ACTIVE,2.7796270847320557,0.0,0.02,-0.97,12,1,15,0,17760384,128,2
1733418870.7983549,0.0,True,static_gps_spoofer,0.004714562091976404,-0.008580157533288002,0.38174188137054443,-1.0,94,16.047,0,0,False,,,,0,0,3,10,0.01309521496295929,21,28.49,,39.9526381,,-113.4759756,False,0.905887126995367,29.171,,38.897912827315125,,-77.03653782456966,0.681,,39.9526382,,-113.475975,-0.6725875735282898,0.09067395329475403,0.02493305131793022,-1,MISSION,,,,,,ACTIVE,1733418868.0187278,0.0,0.01,-1.04,12,1,15,0,17760384,128,2
1733418870.9000328,0.0,True,static_gps_spoofer,0.0045204926282167435,-0.008304749615490437,0.38176941871643066,-1.0,93,16.044,0,0,False,,,,0,0,3,10,0.007432985119521618,21,28.49,,39.9526381,,-113.4759756,False,0.004853546997765079,29.253,,38.898083432320966,,-77.03637590410055,0.763,,39.9526382,,-113.475975,-0.7632139325141907,0.09321960061788559,0.024588944390416145,-1,MISSION,,,,,,ACTIVE,2.881304979324341,0.0,0.0,-1.09,12,1,15,0,17760384,128,2
1733418871.0107057,0.0,True,static_gps_spoofer,0.00438111275434494,-0.008352188393473625,0.3814077079296112,-1.0,93,16.041,0,0,False,,,,0,0,3,10,0.00792568176984787,21,28.49,,39.9526381,,-113.4759756,False,0.008941994004999287,29.358,,38.8976393868488,,-77.0366376746798,0.868,,39.9526382,,-113.4759749,-0.868254542350769,0.09552810341119766,0.023738399147987366,-1,MISSION,,,,,,ACTIVE,1733418868.1294007,0.0,0.0,-1.15,12,1,15,0,17760384,128,2
1733418871.1004846,0.0,True,static_gps_spoofer,0.004064277745783329,-0.008590391837060452,0.3816930651664734,-1.0,93,16.041,0,0,False,,,,0,0,3,10,0.00792568176984787,21,28.49,,39.9526381,,-113.4759756,False,0.09689155200612731,29.45,,38.89787190615387,,-77.03646824727545,0.96,,39.9526382,,-113.4759749,-0.9604397416114807,0.09706311672925949,0.022763937711715698,-1,MISSION,,,,,,ACTIVE,2.971083879470825,0.0,0.0,-1.21,12,1,15,0,17760384,128,2
1733418871.202427,0.0,True,static_gps_spoofer,0.0036632923875004053,-0.00850144773721695,0.3819275200366974,-1.0,93,16.041,0,0,False,,,,0,0,3,10,0.011726303957402706,21,28.49,,39.9526381,,-113.4759756,False,0.20018837800307665,29.575,,38.89790164445935,,-77.03669041553367,1.085,,39.9526381,,-113.4759749,-1.0568077564239502,0.0980212390422821,0.021685892716050148,-1,MISSION,,,,,,ACTIVE,1733418868.231343,0.0,-0.01,-1.27,12,1,15,0,17760384,128,2
1733418871.303156,0.0,True,static_gps_spoofer,0.003831614274531603,-0.008195523172616959,0.38194480538368225,-1.0,93,16.035,0,0,False,,,,0,0,3,10,0.01427214965224266,21,28.49,,39.9526381,,-113.4759756,False,0.3010800660122186,29.676,,38.8978872936055,,-77.03649226719304,1.186,,39.9526381,,-113.4759749,-1.1873772144317627,0.09855565428733826,0.02009587362408638,-1,MISSION,,,,,,ACTIVE,3.071812868118286,0.0,-0.01,-1.3,12,1,15,0,17760384,128,2
1733418871.402678,0.0,True,static_gps_spoofer,0.0030109218787401915,-0.00789730716496706,0.38231873512268066,-1.0,93,16.035,0,0,False,,,,0,0,3,10,0.021144965663552284,21,28.49,,39.9526381,,-113.4759756,False,0.39981912600342184,29.798,,38.89812912884839,,-77.03661282235115,1.308,,39.9526381,,-113.4759749,-1.2896000146865845,0.0983644425868988,0.018785789608955383,-1,MISSION,,,,,,ACTIVE,1733418868.3308651,0.0,-0.02,-1.31,12,1,15,0,17760384,128,2
1733418871.5034502,0.0,True,static_gps_spoofer,0.0021956367418169975,-0.0069328248500823975,0.38223931193351746,-1.0,93,16.029,0,0,False,,,,0,0,3,10,0.03006601333618164,21,28.49,,39.9526381,,-113.4759756,False,0.501184300010209,29.901,,38.89803257976086,,-77.03652983089208,1.411,,39.9526381,,-113.4759749,-1.4232611656188965,0.09734958410263062,0.016780374571681023,-1,MISSION,,,,,,ACTIVE,3.1725850105285645,0.0,-0.03,-1.31,12,1,15,0,17760384,128,2
1733418871.6035156,0.0,True,static_gps_spoofer,0.0014339082408696413,-0.006284175906330347,0.3822319805622101,-1.0,93,16.029,0,0,False,,,,0,0,3,10,0.03419756889343262,21,28.49,,39.9526381,,-113.4759756,False,0.6002503210038412,30.036,,38.89787696425189,,-77.03673294276477,1.546,,39.9526381,,-113.4759749,-1.5165073871612549,0.09633249044418335,0.015215262770652771,-1,MISSION,,,,,,ACTIVE,1733418868.4309306,0.0,-0.03,-1.32,12,1,15,0,17760384,128,2
1733418871.7036397,0.0,True,static_gps_spoofer,0.0012770619941875339,-0.005647670011967421,0.38193580508232117,-1.0,92,16.023,0,0,False,,,,0,0,3,10,0.03707319498062134,21,28.49,,39.9526381,,-113.4759756,False,0.7009176540013868,30.141,,38.897959712081416,,-77.03668753659267,1.651,,39.9526381,,-113.4759749,-1.6526545286178589,0.09469609707593918,0.013096896931529045,-1,MISSION,,,,,,ACTIVE,3.2727091312408447,0.0,-0.03,-1.33,12,1,15,0,17760384,128,2
1733418871.8037798,0.0,True,static_gps_spoofer,0.0010970135917887092,-0.005464199464768171,0.4348032474517822,-1.0,92,16.023,0,0,False,,,,0,0,3,10,0.04001183807849884,21,28.49,,39.9526381,,-113.4759756,False,0.8000449240062153,30.268,,38.898184875403544,,-77.03656208195503,1.778,,39.9526381,,-113.475975,-1.7690446376800537,0.09316923469305038,0.011538926512002945,-1,MISSION,,,,,,ACTIVE,1733418868.5310707,0.0,-0.04,-1.34,12,1,15,0,17760384,128,2
1733418871.9056013,0.0,True,static_gps_spoofer,0.0006981324986554682,-0.004691784735769033,0.4378373622894287,-1.0,92,16.017,0,0,False,,,,0,0,3,10,0.044021762907505035,25,28.49,,39.9526381,,-113.4759756,False,0.9010561520117335,30.374,,38.89797737482685,,-77.03650548474646,1.884,,39.952638,,-113.475975,-1.8864456415176392,0.09144330024719238,0.009897079318761826,-1,MISSION,,,,,,ACTIVE,3.374530553817749,0.0,-0.04,-1.35,12,1,15,0,17760384,128,2
1733418872.0114715,0.0,True,static_gps_spoofer,0.0003776140511035919,-0.004382787272334099,0.44249236583709717,-1.0,92,16.014,0,0,False,,,,0,0,3,10,0.04589977487921715,25,28.49,,39.9526381,,-113.4759756,False,0.0035252789966762066,30.514,,38.89794617307831,,-77.0365540785962,2.024,,39.952638,,-113.475975,-2.0264241695404053,0.08911003917455673,0.007836333476006985,-1,MISSION,,,,,,ACTIVE,1733418868.636941,0.0,-0.04,-1.36,12,1,15,0,17760384,128,2
1733418872.1188116,0.0,True,static_gps_spoofer,0.00026347575476393104,-0.003748260671272874,0.4443347752094269,-1.0,92,16.011,0,0,False,,,,0,0,3,10,0.046906933188438416,25,28.49,,39.9526381,,-113.4759756,False,0.006756863003829494,30.645,,38.89796371667579,,-77.03644982305013,2.155,,39.952638,,-113.475975,-2.15701961517334,0.08691734820604324,0.005956717301160097,-1,MISSION,,,,,,ACTIVE,3.481870651245117,0.0,-0.04,-1.37,12,1,15,0,17760384,128,2
1733418872.2213626,0.0,True,static_gps_spoofer,-0.00012857327237725258,-0.0035219979472458363,0.4435190260410309,-1.0,92,16.011,0,0,False,,,,0,0,3,10,0.046906933188438416,25,28.49,,39.9526381,,-113.4759756,False,0.10896518900699448,30.787,,38.89803468424403,,-77.03660301156741,2.297,,39.952638,,-113.4759751,-2.266625165939331,0.08510450273752213,0.004409697838127613,-1,MISSION,,,,,,ACTIVE,1733418868.739492,0.0,-0.04,-1.38,12,1,15,0,17760384,128,2
1733418872.3227582,0.0,True,static_gps_spoofer,-0.00027132302056998014,-0.003544815583154559,0.44184988737106323,-1.0,92,16.011,0,0,False,,,,0,0,3,10,0.045082636177539825,25,28.49,,39.9526381,,-113.4759756,False,0.2094870099972468,30.897,,38.897849160998,,-77.03667244249576,2.407,,39.952638,,-113.4759751,-2.4099180698394775,0.08263377100229263,0.0029030959121882915,-1,MISSION,,,,,,ACTIVE,3.583266258239746,0.0,-0.04,-1.38,12,1,15,0,17760384,128,2
1733418872.424872,0.0,True,static_gps_spoofer,-0.0003546999651007354,-0.003704333445057273,0.4395388662815094,-1.0,91,16.005,0,0,False,,,,0,0,3,10,0.04453343525528908,25,28.49,,39.9526381,,-113.4759756,False,0.31313822699303273,31.031,,38.898053745462065,,-77.03667073848486,2.541,,39.952638,,-113.4759751,-2.5208165645599365,0.08042016625404358,0.0020164328161627054,-1,MISSION,,,,,,ACTIVE,1733418868.8416057,0.0,-0.04,-1.39,12,1,15,0,17760384,128,2
1733418872.5255992,0.0,True,static_gps_spoofer,-0.0007383181946352124,-0.0032016057521104813,0.43773385882377625,-1.0,91,16.005,0,0,False,,,,0,0,3,10,0.045474037528038025,25,28.49,,39.9526381,,-113.4759756,False,0.41389833300490864,31.142,,38.897997082432745,,-77.03664577944359,2.652,,39.952638,,-113.4759751,-2.6547625064849854,0.07733558863401413,0.0012839167611673474,-1,MISSION,,,,,,ACTIVE,3.6839935779571533,0.0,-0.04,-1.39,12,1,15,0,17760384,128,2
1733418872.627703,0.0,True,static_gps_spoofer,-0.0011833899188786745,-0.0028295540250837803,0.4364943504333496,-1.0,91,15.999,0,0,False,,,,0,0,3,10,0.046184711158275604,25,28.49,,39.9526381,,-113.4759756,False,0.5135016929998528,31.288,,38.89802000607003,,-77.03645116445786,2.798,,39.952638,,-113.4759752,-2.7783260345458984,0.07426850497722626,0.0005053048953413963,-1,MISSION,,,,,,ACTIVE,1733418868.9437094,0.0,-0.04,-1.4,12,1,15,0,17760384,128,2
1733418872.7260711,0.0,True,static_gps_spoofer,-0.0014393716119229794,-0.0023525473661720753,0.4352993667125702,-1.0,91,15.999,0,0,False,,,,0,0,3,10,0.04671242833137512,24,28.49,,39.9526381,,-113.4759756,False,0.6142723929951899,31.401,,38.89798309200009,,-77.03646232182625,2.911,,39.9526379,,-113.4759752,-2.914091110229492,0.0709044560790062,-0.00036016805097460747,-1,MISSION,,,,,,ACTIVE,3.7823617458343506,0.0,-0.04,-1.41,12,1,15,0,17760384,128,2
1733418872.8262708,0.0,True,static_gps_spoofer,-0.0017049829475581646,-0.0016591059975326061,0.4343893826007843,-1.0,91,15.993,0,0,False,,,,0,0,3,10,0.04666045308113098,24,28.49,,39.9526381,,-113.4759756,False,0.7132202999928268,31.538,,38.8979860276367,,-77.03666311447299,3.048,,39.9526379,,-113.4759753,-3.02773118019104,0.06801901012659073,-0.0009061691234819591,-1,MISSION,,,,,,ACTIVE,1733418869.043909,0.0,-0.04,-1.41,12,1,15,0,17760384,128,2
1733418872.9262176,0.0,True,static_gps_spoofer,-0.00174767489079386,-0.0011454500490799546,0.4336988627910614,-1.0,91,15.993,0,0,False,,,,0,0,3,10,0.047122757881879807,24,28.49,,39.9526381,,-113.4759756,False,0.8138487660035025,31.652,,38.8980295559346,,-77.03654769935183,3.162,,39.9526379,,-113.4759753,-3.1647140979766846,0.0643773153424263,-0.001391693134792149,-1,MISSION,,,,,,ACTIVE,3.8823084831237793,0.0,-0.04,-1.42,12,1,15,0,17760384,128,2
1733418873.0278451,0.0,True,static_gps_spoofer,-0.0017787488177418709,-0.0005593620589934289,0.4331580102443695,-1.0,90,15.987,0,0,False,,,,0,0,3,10,0.046275798231363297,24,28.49,,39.9526381,,-113.4759756,False,0.9161457640002482,31.801,,38.897996865858694,,-77.03666658163645,3.311,,39.9526379,,-113.4759753,-3.313899040222168,0.06027450039982796,-0.0017480181995779276,-1,MISSION,,,,,,ACTIVE,1733418869.1455367,0.0,-0.04,-1.42,12,1,15,0,17760384,128,2
1733418873.1317117,0.0,True,static_gps_spoofer,-0.0021527642384171486,-0.00010016944725066423,0.43296945095062256,-1.0,90,15.984,0,0,False,,,,0,0,3,10,0.04377267509698868,24,28.49,,39.9526381,,-113.4759756,False,0.015279155995813198,31.939,,38.89806785991103,,-77.03651175037479,3.449,,39.9526379,,-113.4759754,-3.440697193145752,0.05673055350780487,-0.0022865619976073503,-1,MISSION,,,,,,ACTIVE,3.986175060272217,0.0,-0.04,-1.43,12,1,15,0,17760384,128,2
1733418873.2334871,0.0,True,static_gps_spoofer,-0.0018339230446144938,0.00016304537712130696,0.43323829770088196,-1.0,90,15.981,0,0,False,,,,0,0,3,10,0.04249422252178192,24,28.49,,39.9526381,,-113.4759756,False,0.009499865991529077,32.055,,38.89802051939494,,-77.03661872599461,3.565,,39.9526379,,-113.4759754,-3.5678160190582275,0.053163908421993256,-0.002752549247816205,-1,MISSION,,,,,,ACTIVE,1733418869.247312,0.01,-0.04,-1.43,12,1,15,0,17760384,128,2
1733418873.338698,0.0,True,static_gps_spoofer,-0.0017089690081775188,0.00030995270935818553,0.4332936108112335,-1.0,90,15.981,0,0,False,,,,0,0,3,10,0.039970122277736664,24,28.49,,39.9526381,,-113.4759756,False,0.11559752399625722,32.205,,38.89784673462061,,-77.03663247273516,3.715,,39.9526379,,-113.4759755,-3.718423843383789,0.04899391531944275,-0.0029086482245475054,-1,MISSION,,,,,,ACTIVE,4.091385841369629,0.01,-0.03,-1.44,12,1,15,0,17760384,128,2
1733418873.4380367,0.0,True,static_gps_spoofer,-0.0016545450780540705,0.0003834418603219092,0.43341386318206787,-1.0,90,15.981,0,0,False,,,,0,0,3,10,0.037183728069067,24,28.49,,39.9526381,,-113.4759756,False,0.21284560399362817,32.322,,38.897863326837744,,-77.03660162422756,3.832,,39.9526379,,-113.4759755,-3.8345954418182373,0.045827191323041916,-0.0029113730415701866,-1,MISSION,,,,,,ACTIVE,1733418869.3466508,0.01,-0.03,-1.44,12,1,15,0,17760384,128,2
1733418873.5405192,0.0,True,static_gps_spoofer,-0.001519921817816794,0.00047004807856865227,0.43318530917167664,-1.0,90,15.975,0,0,False,,,,0,0,3,10,0.035565026104450226,24,28.49,,39.9526381,,-113.4759756,False,0.31692975299665704,32.461,,38.89781470390648,,-77.03652351483781,3.971,,39.9526379,,-113.4759756,-3.974243402481079,0.04206981137394905,-0.0028230033349245787,-1,MISSION,,,,,,ACTIVE,4.193868398666382,0.01,-0.03,-1.44,12,1,15,0,17760384,128,2
1733418873.6382325,0.0,True,static_gps_spoofer,-0.0009978817543014884,0.0010420501930639148,0.4333042502403259,-1.0,90,15.975,0,0,False,,,,0,0,3,10,0.03486565873026848,24,28.49,,39.9526381,,-113.4759756,False,0.412777202000143,32.578,,38.897872585766,,-77.03650734490046,4.088,,39.9526379,,-113.4759756,-4.0908098220825195,0.0388457365334034,-0.002365091582760215,-1,MISSION,,,,,,ACTIVE,1733418869.444364,0.01,-0.02,-1.45,12,1,15,0,17760384,128,2
1733418873.7406864,0.0,True,static_gps_spoofer,-0.0008963801665231586,0.0011486742878332734,0.43336865305900574,-1.0,89,15.969,0,0,False,,,,0,0,3,10,0.032411035150289536,24,28.49,,39.9526381,,-113.4759756,False,0.516073962993687,32.73,,38.898174508393254,,-77.03656133091253,4.24,,39.9526379,,-113.4759756,-4.242726802825928,0.03483632951974869,-0.0017563807778060436,-1,MISSION,,,,,,ACTIVE,4.296322345733643,0.01,-0.02,-1.45,12,1,15,0,17760384,128,2
1733418873.8419874,0.0,True,static_gps_spoofer,-0.0008948722388595343,0.0013276266399770975,0.43328264355659485,-1.0,89,15.969,0,0,False,,,,0,0,3,10,0.02997242845594883,24,28.49,,39.9526381,,-113.4759756,False,0.6181624489981914,32.87,,38.897851213787014,,-77.0366360462138,4.38,,39.9526379,,-113.4759757,-4.360054016113281,0.03213382512331009,-0.001343727228231728,-1,MISSION,,,,,,ACTIVE,1733418869.545665,0.01,-0.02,-1.45,12,1,15,0,17760384,128,2
1733418873.940296,0.0,True,static_gps_spoofer,-0.0007486024987883866,0.00144762743730098,0.4330044388771057,-1.0,89,15.963,0,0,False,,,,0,0,3,10,0.027152536436915398,24,28.49,,39.9526381,,-113.4759756,False,0.7154358349944232,32.988,,38.897853826414384,,-77.03655734705457,4.498,,39.9526379,,-113.4759757,-4.501540184020996,0.029236411675810814,-0.0006274646148085594,-1,MISSION,,,,,,ACTIVE,4.3946309089660645,0.02,-0.01,-1.46,12,1,15,0,17760384,128,2
1733418874.0428245,0.0,True,static_gps_spoofer,-0.00042390712769702077,0.0014278999296948314,0.43295636773109436,-1.0,89,15.963,0,0,False,,,,0,0,3,10,0.02475416474044323,24,28.49,,39.9526381,,-113.4759756,False,0.8195831799966982,33.142,,38.89804546067517,,-77.0365134955477,4.652,,39.952638,,-113.4759757,-4.619922637939453,0.027200888842344284,0.00015785946743562818,-1,MISSION,,,,,,ACTIVE,1733418869.6481936,0.02,-0.01,-1.46,12,1,15,0,17760384,128,2
1733418874.1431015,0.0,True,static_gps_spoofer,-4.650489427149296e-05,0.0012481281301006675,0.4328059256076813,-1.0,89,15.957,0,0,False,,,,0,0,3,10,0.023012347519397736,24,28.49,,39.9526381,,-113.4759756,False,0.9198440009931801,33.261,,38.897951230708756,,-77.03646848601262,4.771,,39.952638,,-113.4759758,-4.774311542510986,0.025027602910995483,0.0016350297955796123,-1,MISSION,,,,,,ACTIVE,4.494907855987549,0.02,0.0,-1.46,12,1,15,0,17760384,128,2
1733418874.2406917,0.0,True,static_gps_spoofer,0.00029791228007525206,0.001280061318539083,0.4324040114879608,-1.0,89,15.954,0,0,False,,,,0,0,3,10,0.023329470306634903,24,28.49,,39.9526381,,-113.4759756,False,0.006832692990428768,33.38,,38.897944498576074,,-77.03652425434468,4.89,,39.952638,,-113.4759758,-4.893411636352539,0.023503035306930542,0.003124688984826207,-1,MISSION,,,,,,ACTIVE,1733418869.7457838,0.02,0.0,-1.46,12,1,15,0,17760384,128,2
1733418874.3461711,0.0,True,static_gps_spoofer,0.0007104133255779743,0.0013845348730683327,0.43215975165367126,-1.0,88,15.951,0,0,False,,,,0,0,3,10,0.023157497867941856,24,28.49,,39.9526381,,-113.4759756,False,0.008122701998217963,33.523,,38.89779811781701,,-77.0364675819812,5.033,,39.952638,,-113.4759758,-5.036631107330322,0.021849460899829865,0.005282851401716471,-1,MISSION,,,,,,ACTIVE,4.600387334823608,0.02,0.0,-1.47,12,1,15,0,17760384,128,2
1733418874.4513526,0.0,True,static_gps_spoofer,0.0012990382965654135,0.001437818049453199,0.4313965439796448,-1.0,88,15.951,0,0,False,,,,0,0,3,10,0.02247922495007515,24,28.49,,39.9526381,,-113.4759756,False,0.11347128300985787,33.679,,38.897902821816274,,-77.03643560961382,5.189,,39.952638,,-113.4759758,-5.192050457000732,0.020226480439305305,0.007985242642462254,-1,MISSION,,,,,,ACTIVE,1733418869.8509653,0.02,0.0,-1.47,12,1,15,0,17760384,128,2
1733418874.555148,0.0,True,static_gps_spoofer,0.001536733703687787,0.0014354167506098747,0.4312819838523865,-1.0,88,15.951,0,0,False,,,,0,0,3,10,0.023709848523139954,24,28.49,,39.9526381,,-113.4759756,False,0.2153034340008162,33.822,,38.89814546579639,,-77.03663972987124,5.332,,39.952638,,-113.4759758,-5.311775207519531,0.019325070083141327,0.010195286013185978,-1,MISSION,,,,,,ACTIVE,4.7041826248168945,0.02,0.0,-1.47,12,1,15,0,17760384,128,2
1733418874.652233,0.0,True,static_gps_spoofer,0.0023688722867518663,0.0011042302940040827,0.43122637271881104,-1.0,88,15.945,0,0,False,,,,0,0,3,10,0.023773277178406715,24,28.49,,39.9526381,,-113.4759756,False,0.3133040760003496,33.942,,38.89783212573188,,-77.03653425677845,5.452,,39.9526381,,-113.4759758,-5.455651760101318,0.01859099604189396,0.012939591892063618,-1,MISSION,,,,,,ACTIVE,1733418869.9480503,0.02,0.0,-1.47,12,1,15,0,17760384,128,2
1733418874.7531178,0.0,True,static_gps_spoofer,0.0027441366109997034,0.0007633611676283181,0.4313484728336334,-1.0,88,15.945,0,0,False,,,,0,0,3,10,0.02382669225335121,24,28.49,,39.9526381,,-113.4759756,False,0.41527670800860506,34.098,,38.89812477255566,,-77.03663588798858,5.608,,39.9526381,,-113.4759758,-5.575563907623291,0.018155399709939957,0.015254848636686802,-1,MISSION,,,,,,ACTIVE,4.805067539215088,0.02,0.0,-1.48,12,1,15,0,17760384,128,2
1733418874.8548071,0.0,True,static_gps_spoofer,0.002793867839500308,0.0006678767967969179,0.4317972660064697,-1.0,88,15.939,0,0,False,,,,0,0,3,10,0.02248331345617771,24,28.49,,39.9526381,,-113.4759756,False,0.5174519940046594,34.218,,38.89779872820107,,-77.03659675347883,5.728,,39.9526381,,-113.4759758,-5.731528282165527,0.017847469076514244,0.01819475367665291,-1,MISSION,,,,,,ACTIVE,1733418870.0497396,0.01,0.01,-1.48,12,1,15,0,17760384,128,2
1733418874.9535315,0.0,True,static_gps_spoofer,0.0032411664724349976,0.0005888004088774323,0.43204331398010254,-1.0,88,15.939,0,0,False,,,,0,0,3,10,0.023268654942512512,24,28.49,,39.9526381,,-113.4759756,False,0.6151576590054901,34.362,,38.89802548248638,,-77.0364626339958,5.872,,39.9526381,,-113.4759758,-5.851711750030518,0.01769743114709854,0.020397385582327843,-1,MISSION,,,,,,ACTIVE,4.903791904449463,0.01,0.01,-1.48,12,1,15,0,17760384,128,2
1733418875.0558116,0.0,True,static_gps_spoofer,0.003693106584250927,0.0006846677279099822,0.4324842691421509,-1.0,87,15.933,0,0,False,,,,0,0,3,10,0.023150276392698288,24,28.49,,39.9526381,,-113.4759756,False,0.717865245998837,34.483,,38.89806930093965,,-77.03659420550441,5.993,,39.9526382,,-113.4759758,-6.008417129516602,0.017449015751481056,0.02335505373775959,-1,MISSION,,,,,,ACTIVE,1733418870.1520197,0.01,0.01,-1.48,12,1,15,0,17760384,128,2
1733418875.1585388,0.0,True,static_gps_spoofer,0.0038549993187189102,0.0005540807615034282,0.43282046914100647,-1.0,87,15.933,0,0,False,,,,0,0,3,10,0.021263867616653442,24,28.49,,39.9526381,,-113.4759756,False,0.8207539130089572,34.64,,38.8979591610738,,-77.03646893884923,6.15,,39.9526382,,-113.4759758,-6.1171746253967285,0.017228199169039726,0.02544296346604824,-1,MISSION,,,,,,ACTIVE,5.006519079208374,0.01,0.01,-1.49,12,1,15,0,17760384,128,2
1733418875.2559521,0.0,True,static_gps_spoofer,0.0038477815687656403,0.0005983414012007415,0.43284764885902405,-1.0,87,15.927,0,0,False,,,,0,0,3,10,0.020043473690748215,24,28.49,,39.9526381,,-113.4759756,False,0.9167063970089657,34.761,,38.89787289312531,,-77.03654009142758,6.271,,39.9526382,,-113.4759759,-6.27446985244751,0.016685668379068375,0.028277656063437462,-1,MISSION,,,,,,ACTIVE,1733418870.249433,0.01,0.01,-1.49,12,1,15,0,17760384,128,2
1733418875.359678,0.0,True,static_gps_spoofer,0.004079166334122419,0.0008437857613898814,0.4333186745643616,-1.0,87,15.924,0,0,False,,,,0,0,3,10,0.01836836338043213,24,28.49,,39.9526381,,-113.4759756,False,0.01754142799472902,34.907,,38.89809233667705,,-77.03654761240043,6.416,,39.9526382,,-113.4759759,-6.407881736755371,0.0160070788115263,0.03050057403743267,-1,MISSION,,,,,,ACTIVE,5.110244989395142,0.01,0.01,-1.49,12,1,15,0,17760384,128,2
1733418875.46499,0.0,True,static_gps_spoofer,0.00394024420529604,0.0011456416686996818,0.4333561658859253,-1.0,87,15.921,0,0,False,,,,0,0,3,10,0.01710333116352558,24,28.49,,39.9526381,,-113.4759756,False,0.019719775998964906,35.064,,38.89763577758332,,-77.03662397802411,6.574,,39.9526382,,-113.4759759,-6.5657477378845215,0.014964858070015907,0.03302111476659775,-1,MISSION,,,,,,ACTIVE,1733418870.354745,0.01,0.01,-1.49,12,1,15,0,17760384,128,2
1733418875.561642,0.0,True,static_gps_spoofer,0.00423495564609766,0.0014430232113227248,0.43336448073387146,-1.0,87,15.921,0,0,False,,,,0,0,3,10,0.014932076446712017,24,28.49,,39.9526381,,-113.4759756,False,0.11580453600618057,35.186,,38.89784909533592,,-77.03658886329058,6.696,,39.9526383,,-113.4759759,-6.69940710067749,0.014117351733148098,0.0350458137691021,-1,MISSION,,,,,,ACTIVE,5.206897020339966,0.0,0.01,-1.49,12,1,15,0,17760384,128,2
1733418875.6643891,0.0,True,static_gps_spoofer,0.003848664928227663,0.0018658736953511834,0.433370441198349,-1.0,87,15.921,0,0,False,,,,0,0,3,10,0.013250715099275112,24,28.49,,39.9526381,,-113.4759756,False,0.21929499600082636,35.332,,38.897995458359205,,-77.03664290590858,6.842,,39.9526383,,-113.4759759,-6.820880889892578,0.013369670137763023,0.036759186536073685,-1,MISSION,,,,,,ACTIVE,1733418870.457492,0.0,0.01,-1.49,12,1,15,0,17760384,128,2
1733418875.764029,0.0,True,static_gps_spoofer,0.003928924910724163,0.002123634796589613,0.4334304928779602,-1.0,86,15.915,0,0,False,,,,0,0,3,10,0.012623298913240433,24,28.49,,39.9526381,,-113.4759756,False,0.3157176030072151,35.453,,38.897853391754076,,-77.0365142038332,6.963,,39.9526383,,-113.4759759,-6.966617584228516,0.012735378928482533,0.03868076205253601,-1,MISSION,,,,,,ACTIVE,5.306536912918091,0.0,0.01,-1.49,12,1,15,0,17760384,128,2
1733418875.8636672,0.0,True,static_gps_spoofer,0.003927361685782671,0.002305654576048255,0.4332122504711151,-1.0,86,15.915,0,0,False,,,,0,0,3,10,0.014052101410925388,24,28.49,,39.9526381,,-113.4759756,False,0.41856467600155156,35.611,,38.89804251728948,,-77.03674473086997,7.121,,39.9526383,,-113.4759759,-7.08807373046875,0.01257164403796196,0.04018450900912285,-1,MISSION,,,,,,ACTIVE,1733418870.5571303,0.0,0.01,-1.49,12,1,15,0,17760384,128,2
1733418875.9623501,0.0,True,static_gps_spoofer,0.003928745165467262,0.0019003597553819418,0.4329763948917389,-1.0,86,15.909,0,0,False,,,,0,0,3,10,0.014794724062085152,24,28.49,,39.9526381,,-113.4759756,False,0.5156784220016561,35.732,,38.8979013731634,,-77.03673517791147,7.242,,39.9526383,,-113.4759759,-7.2458343505859375,0.012869233265519142,0.04186328127980232,-1,MISSION,,,,,,ACTIVE,5.405219793319702,0.0,0.01,-1.49,12,1,15,0,17760384,128,2
1733418876.0647733,0.0,True,static_gps_spoofer,0.0036664565559476614,0.0017854315228760242,0.43297046422958374,-1.0,86,15.909,0,0,False,,,,0,0,3,10,0.01509627141058445,24,28.49,,39.9526381,,-113.4759756,False,0.618796138005564,35.878,,38.89785402528675,,-77.03668656668022,7.388,,39.9526383,,-113.4759759,-7.367287635803223,0.013093531131744385,0.04305924102663994,-1,MISSION,,,,,,ACTIVE,1733418870.6595535,0.0,0.01,-1.5,12,1,15,0,17760384,128,2
1733418876.1639817,0.0,True,static_gps_spoofer,0.003947817254811525,0.0016842707991600037,0.4326484203338623,-1.0,86,15.903,0,0,False,,,,0,0,3,10,0.017028382048010826,24,28.49,,39.9526381,,-113.4759756,False,0.7158871450083097,36.0,,38.89802252805327,,-77.03660878378741,7.51,,39.9526384,,-113.4759759,-7.513442039489746,0.013109962455928326,0.044830501079559326,-1,MISSION,,,,,,ACTIVE,5.504428148269653,0.0,0.01,-1.5,12,1,15,0,17760384,128,2
1733418876.2699583,0.0,True,static_gps_spoofer,0.0038616855163127184,0.0017149418126791716,0.4323733448982239,-1.0,86,15.903,0,0,False,,,,0,0,3,10,0.018120549619197845,24,28.49,,39.9526381,,-113.4759756,False,0.8248254460049793,36.158,,38.897884900695196,,-77.03653818581098,7.668,,39.9526384,,-113.4759759,-7.635390281677246,0.013360084965825081,0.04649654030799866,-1,MISSION,,,,,,ACTIVE,1733418870.76553,0.0,0.01,-1.5,12,1,15,0,17760384,128,2
1733418876.3638337,0.0,True,static_gps_spoofer,0.003875707508996129,0.0016032863641157746,0.4324893653392792,-1.0,85,15.897,0,0,False,,,,0,0,3,10,0.018605973571538925,24,28.49,,39.9526381,,-113.4759756,False,0.9176847820053808,36.28,,38.89801034991686,,-77.03658633177525,7.79,,39.9526384,,-113.4759759,-7.793612480163574,0.01375753153115511,0.048650775104761124,-1,MISSION,,,,,,ACTIVE,5.598303556442261,0.0,0.01,-1.5,12,1,15,0,17760384,128,2
1733418876.4647856,0.0,True,static_gps_spoofer,0.004004480317234993,0.0014865732518956065,0.4326462149620056,-1.0,85,15.894,0,0,False,,,,0,0,3,10,0.018966421484947205,24,28.49,,39.9526381,,-113.4759756,False,0.008549791004043072,36.426,,38.8979942289938,,-77.03640428151886,7.936,,39.9526384,,-113.4759759,-7.927219390869141,0.013808722607791424,0.05033816769719124,-1,MISSION,,,,,,ACTIVE,1733418870.866482,0.0,0.01,-1.5,12,1,15,0,17760384,128,2
1733418876.5699446,0.0,True,static_gps_spoofer,0.004121263511478901,0.0018879201961681247,0.43297940492630005,-1.0,85,15.891,0,0,False,,,,0,0,3,10,0.020308390259742737,24,28.49,,39.9526381,,-113.4759756,False,0.012342005997197703,36.547,,38.89788677847572,,-77.03658616267036,8.057,,39.9526384,,-113.4759759,-8.060667037963867,0.013689217157661915,0.052023131400346756,-1,MISSION,,,,,,ACTIVE,5.703462600708008,-0.01,0.01,-1.5,12,1,15,0,17760384,128,2
1733418876.672641,0.0,True,static_gps_spoofer,0.004276596941053867,0.0016281380085274577,0.4330388009548187,-1.0,85,15.891,0,0,False,,,,0,0,3,10,0.023246563971042633,24,28.49,,39.9526381,,-113.4759756,False,0.11470565799390897,36.705,,38.89796710484484,,-77.03661034771132,8.215,,39.9526384,,-113.4759759,-8.21850299835205,0.01358815561980009,0.05408122017979622,-1,MISSION,,,,,,ACTIVE,1733418870.9691784,-0.01,0.01,-1.5,12,1,15,0,17760384,128,2
1733418876.7752063,0.0,True,static_gps_spoofer,0.004283266607671976,0.0014340312918648124,0.4338005781173706,-1.0,85,15.891,0,0,False,,,,0,0,3,10,0.023563437163829803,24,28.49,,39.9526381,,-113.4759756,False,0.2174949780019233,36.851,,38.89812292628863,,-77.03655656558234,8.361,,39.9526385,,-113.4759759,-8.340205192565918,0.013682018965482712,0.05564342811703682,-1,MISSION,,,,,,ACTIVE,5.806027889251709,-0.01,0.01,-1.5,12,1,15,0,17760384,128,2
1733418876.8769622,0.0,True,static_gps_spoofer,0.004479043185710907,0.0010615477804094553,0.4340820014476776,-1.0,85,15.885,0,0,False,,,,0,0,3,10,0.024841709062457085,24,28.49,,39.9526381,,-113.4759756,False,0.3190553890017327,36.973,,38.89810813286986,,-77.03645961141295,8.483,,39.9526385,,-113.4759759,-8.486427307128906,0.013957735151052475,0.057418033480644226,-1,MISSION,,,,,,ACTIVE,1733418871.0709343,-0.01,0.02,-1.5,12,1,15,0,17760384,128,2
1733418876.980437,0.0,True,static_gps_spoofer,0.004910524934530258,0.0011192088713869452,0.4342239499092102,-1.0,85,15.885,0,0,False,,,,0,0,3,10,0.02638736553490162,24,28.49,,39.9526381,,-113.4759756,False,0.42331024099257775,37.131,,38.89818917492549,,-77.0365957876467,8.641,,39.9526385,,-113.4759759,-8.632838249206543,0.014290299266576767,0.05911969020962715,-1,MISSION,,,,,,ACTIVE,5.909502744674683,-0.01,0.02,-1.5,12,1,15,0,17760384,128,2
1733418877.077571,0.0,True,static_gps_spoofer,0.004869656637310982,0.0007657940150238574,0.4347316324710846,-1.0,84,15.879,0,0,False,,,,0,0,3,10,0.02904750220477581,24,28.49,,39.9526381,,-113.4759756,False,0.5190093459968921,37.253,,38.89793567351007,,-77.03650421404211,8.763,,39.9526385,,-113.4759759,-8.766884803771973,0.01470869779586792,0.06070449948310852,-1,MISSION,,,,,,ACTIVE,1733418871.1680682,-0.01,0.02,-1.5,12,1,15,0,17760384,128,2
1733418877.1796365,0.0,True,static_gps_spoofer,0.005186120048165321,0.0005238258745521307,0.434824138879776,-1.0,84,15.879,0,0,False,,,,0,0,3,10,0.0307062529027462,24,28.49,,39.9526381,,-113.4759756,False,0.622510514993337,37.4,,38.89807444558009,,-77.03646257651599,8.91,,39.9526385,,-113.4759759,-8.888771057128906,0.01529994048178196,0.06209137663245201,-1,MISSION,,,,,,ACTIVE,6.011568307876587,-0.02,0.02,-1.5,12,1,15,0,17760384,128,2
1733418877.281913,0.0,True,static_gps_spoofer,0.005533547140657902,0.0005367845296859741,0.4344824254512787,-1.0,84,15.873,0,0,False,,,,0,0,3,10,0.03251897543668747,24,28.49,,39.9526381,,-113.4759756,False,0.7239963739993982,37.522,,38.897843451092314,,-77.03651219538861,9.031,,39.9526385,,-113.4759759,-9.04733657836914,0.016399864107370377,0.06386243551969528,-1,MISSION,,,,,,ACTIVE,1733418871.2703447,-0.02,0.02,-1.5,12,1,15,0,17760384,128,2
1733418877.3868835,0.0,True,static_gps_spoofer,0.006057133898139,0.00016866154328454286,0.43424999713897705,-1.0,84,15.873,0,0,False,,,,0,0,3,10,0.03396042436361313,24,28.49,,39.9526381,,-113.4759756,False,0.8225262139894767,37.68,,38.8979163175543,,-77.0366361714447,9.19,,39.9526385,,-113.4759758,-9.193634033203125,0.01764991320669651,0.06539791822433472,-1,MISSION,,,,,,ACTIVE,6.116538763046265,-0.02,0.02,-1.5,12,1,15,0,17760384,128,2
1733418877.4833207,0.0,True,static_gps_spoofer,0.006271150428801775,-0.0001114307451643981,0.4343600273132324,-1.0,84,15.867,0,0,False,,,,0,0,3,10,0.035507526248693466,24,28.49,,39.9526381,,-113.4759756,False,0.9232845759979682,37.802,,38.89804504328402,,-77.03646755168624,9.312,,39.9526385,,-113.4759758,-9.315587043762207,0.01860097236931324,0.06661779433488846,-1,MISSION,,,,,,ACTIVE,1733418871.366782,-0.02,0.02,-1.5,12,1,15,0,17760384,128,2
1733418877.588081,0.0,True,static_gps_spoofer,0.006332782097160816,-0.0004210394690744579,0.4343957304954529,-1.0,84,15.864,0,0,False,,,,0,0,3,10,0.03463107720017433,24,28.49,,39.9526381,,-113.4759756,False,0.02763937000418082,37.949,,38.897923810670974,,-77.03649166157278,9.458,,39.9526386,,-113.4759758,-9.462146759033203,0.019437996670603752,0.06776387244462967,-1,MISSION,,,,,,ACTIVE,6.221298933029175,-0.02,0.02,-1.51,12,1,15,0,17760384,128,2
1733418877.6954122,0.0,True,static_gps_spoofer,0.006351128686219454,0.00043982217903248966,0.434439092874527,-1.0,83,15.861,0,0,False,,,,0,0,3,10,0.03315646946430206,24,28.49,,39.9526381,,-113.4759756,False,0.027342478002537973,38.108,,38.89798516783969,,-77.03674609008841,9.617,,39.9526386,,-113.4759758,-9.621196746826172,0.01985902152955532,0.068727046251297,-1,MISSION,,,,,,ACTIVE,1733418871.4741132,-0.02,0.02,-1.51,12,1,15,0,17760384,128,2
1733418877.788434,0.0,True,static_gps_spoofer,0.005956097971647978,0.000845604226924479,0.43404147028923035,-1.0,83,15.861,0,0,False,,,,0,0,3,10,0.0323539637029171,24,28.49,,39.9526381,,-113.4759756,False,0.11768682299589273,38.23,,38.89815346311386,,-77.0366413967654,9.74,,39.9526386,,-113.4759758,-9.743682861328125,0.02010609582066536,0.06918022781610489,-1,MISSION,,,,,,ACTIVE,6.314320802688599,-0.02,0.01,-1.51,12,1,15,0,17760384,128,2
1733418877.8986912,0.0,True,static_gps_spoofer,0.0056351544335484505,0.0011958148097619414,0.4340777099132538,-1.0,83,15.855,0,0,False,,,,0,0,3,10,0.034191567450761795,24,28.49,,39.9526381,,-113.4759756,False,0.23097262700321153,38.377,,38.89792175804439,,-77.03655411285894,9.887,,39.9526386,,-113.4759758,-9.89063835144043,0.020271819084882736,0.06917349994182587,-1,MISSION,,,,,,ACTIVE,1733418871.5843704,-0.02,0.01,-1.5,12,1,15,0,17760384,128,2
1733418877.9890242,0.0,True,static_gps_spoofer,0.00516156479716301,0.0015121129108592868,0.434161901473999,-1.0,83,15.855,0,0,False,,,,0,0,3,10,0.034191567450761795,24,28.49,,39.9526381,,-113.4759756,False,0.3195240459899651,38.499,,38.89809355088206,,-77.03649642844219,10.009,,39.9526386,,-113.4759758,-10.013042449951172,0.020514624193310738,0.06891877204179764,-1,MISSION,,,,,,ACTIVE,6.404653787612915,-0.03,0.01,-1.51,12,1,15,0,17760384,128,2
1733418878.0886095,0.0,True,static_gps_spoofer,0.004499738570302725,0.0013503473019227386,0.43405255675315857,-1.0,83,15.855,0,0,False,,,,0,0,3,10,0.03590027987957001,24,28.49,,39.9526381,,-113.4759756,False,0.4180818689928856,38.659,,38.89786093445106,,-77.03668324221273,10.169,,39.9526386,,-113.4759758,-10.135604858398438,0.02081642672419548,0.06840931624174118,-1,MISSION,,,,,,ACTIVE,1733418871.6839557,-0.03,0.01,-1.52,12,1,15,0,17760384,128,2
1733418878.1895645,0.0,True,static_gps_spoofer,0.004276145715266466,0.001085852854885161,0.4340536892414093,-1.0,83,15.849,0,0,False,,,,0,0,3,10,0.03856958448886871,24,28.49,,39.9526381,,-113.4759756,False,0.5197909089911263,38.783,,38.897964395999885,,-77.03643157956266,10.293,,39.9526386,,-113.4759758,-10.29745864868164,0.02126556634902954,0.0676451027393341,-1,MISSION,,,,,,ACTIVE,6.505608797073364,-0.03,0.01,-1.55,12,1,15,0,17760384,128,2
1733418878.2918763,0.0,True,static_gps_spoofer,0.004086900502443314,0.0009248016285710037,0.43405190110206604,-1.0,83,15.849,0,0,False,,,,0,0,3,10,0.03826458007097244,24,28.49,,39.9526381,,-113.4759756,False,0.6233719509909861,38.939,,38.8979930043452,,-77.03661158399996,10.448,,39.9526386,,-113.4759758,-10.426678657531738,0.02183505706489086,0.06705739349126816,-1,MISSION,,,,,,ACTIVE,1733418871.7862675,-0.03,0.01,-1.63,12,1,15,0,17760384,128,2
1733418878.402383,0.0,True,static_gps_spoofer,0.004095730371773243,0.00036582109169103205,0.4338057339191437,-1.0,82,15.843,0,0,False,,,,0,0,3,10,0.042202286422252655,24,28.49,,39.9526381,,-113.4759756,False,0.7343220100010512,39.117,,38.8980002252243,,-77.03643682702233,10.627,,39.9526385,,-113.4759758,-10.604166030883789,0.02310815639793873,0.06622252613306046,-1,MISSION,,,,,,ACTIVE,6.616115570068359,-0.03,0.01,-1.76,12,1,15,0,17760384,128,2
1733418878.4918914,0.0,True,static_gps_spoofer,0.003931851126253605,-0.00012265205441508442,0.4337034821510315,-1.0,82,15.843,0,0,False,,,,0,0,3,10,0.042574442923069,24,28.49,,39.9526381,,-113.4759756,False,0.8232044670003233,39.264,,38.8979498408565,,-77.03650777852448,10.774,,39.9526385,,-113.4759758,-10.735312461853027,0.024241168051958084,0.0656665712594986,-1,MISSION,,,,,,ACTIVE,1733418871.8757758,-0.03,0.01,-1.89,12,1,15,0,17760384,128,2
1733418878.5934167,0.0,True,static_gps_spoofer,0.0036940383724868298,-0.0006557805463671684,0.43365123867988586,-1.0,82,15.837,0,0,False,,,,0,0,3,10,0.043837618082761765,24,28.49,,39.9526381,,-113.4759756,False,0.9240783129935153,39.422,,38.898167408505145,,-77.03670097764059,10.932,,39.9526385,,-113.4759757,-10.940186500549316,0.026109546422958374,0.06484698504209518,-1,MISSION,,,,,,ACTIVE,6.7176408767700195,-0.04,0.01,-2.05,12,1,15,0,17760384,128,2
1733418878.6951692,0.0,True,static_gps_spoofer,0.0033915117383003235,-0.001152259879745543,0.4337174594402313,-1.0,82,15.834,0,0,False,,,,0,0,3,10,0.04521403834223747,24,28.49,,39.9526381,,-113.4759756,False,0.022523929001181386,39.629,,38.897896551070154,,-77.03660875176644,11.139,,39.9526385,,-113.4759757,-11.148273468017578,0.028152838349342346,0.06425067037343979,-1,MISSION,,,,,,ACTIVE,1733418871.9775283,-0.04,0.02,-2.27,12,1,15,0,17760384,128,2
1733418878.793921,0.0,True,static_gps_spoofer,0.003915430977940559,-0.0017003942048177123,0.4336492121219635,-1.0,82,15.831,0,0,False,,,,0,0,3,10,0.04503513127565384,24,28.49,,39.9526381,,-113.4759756,False,0.013412212996627204,39.816,,38.89800966286841,,-77.03664056577011,11.326,,39.9526385,,-113.4759757,-11.337350845336914,0.030107319355010986,0.06382858008146286,-1,MISSION,,,,,,ACTIVE,6.816392660140991,-0.04,0.02,-2.46,12,1,15,0,17760384,128,2
1733418878.8993175,0.0,True,static_gps_spoofer,0.00400893110781908,-0.00217124680057168,0.4334983825683594,-1.0,82,15.831,0,0,False,,,,0,0,3,10,0.046446092426776886,24,28.49,,39.9526381,,-113.4759756,False,0.1209408910071943,40.08,,38.897798726286446,,-77.0366879565429,11.59,,39.9526385,,-113.4759757,-11.602131843566895,0.03286313638091087,0.06340722739696503,-1,MISSION,,,,,,ACTIVE,1733418872.0829248,-0.04,0.02,-2.66,12,1,15,0,17760384,128,2
1733418879.0063033,0.0,True,static_gps_spoofer,0.003911123611032963,-0.0025380156002938747,0.43376830220222473,-1.0,81,15.825,0,0,False,,,,0,0,3,10,0.045335933566093445,24,28.49,,39.9526381,,-113.4759756,False,0.2274512800067896,40.338,,38.89810407316018,,-77.03654823866881,11.848,,39.9526385,,-113.4759756,-11.861518859863281,0.035587240010499954,0.06307811290025711,-1,MISSION,,,,,,ACTIVE,6.9233784675598145,-0.04,0.02,-2.81,12,1,15,0,17760384,128,2
