timestamp,airspeed,armed,attack_type,attitude.pitch,attitude.roll,attitude.yaw,battery.current,battery.level,battery.voltage,commands.count,commands.next,ekf_ok,gimbal.pitch,gimbal.roll,gimbal.yaw,gps_0.eph,gps_0.epv,gps_0.fix_type,gps_0.satellites_visible,groundspeed,heading,home_location.alt,home_location.global_frame,home_location.lat,home_location.local_frame,home_location.lon,is_armable,last_heartbeat,location.global_frame.alt,location.global_frame.global_frame,location.global_frame.lat,location.global_frame.local_frame,location.global_frame.lon,location.global_relative_frame.alt,location.global_relative_frame.global_frame,location.global_relative_frame.lat,location.global_relative_frame.local_frame,location.global_relative_frame.lon,location.local_frame.down,location.local_frame.east,location.local_frame.north,ml_verdict,mode.name,mount_status[0],mount_status[1],mount_status[2],rangefinder.distance,rangefinder.voltage,system_status.state,timedelta,velocity[0],velocity[1],velocity[2],version.autopilot_type,version.major,version.minor,version.patch,version.raw_version,version.release,version.vehicle_type
1733424255.4365096,0.0,True,benign,-0.005877217743545771,0.0017269765958189964,0.16062963008880615,-1.0,100,16.173,0,0,False,,,,0,0,3,10,0.00789316464215517,9,28.51,,39.9526379,,-113.4759758,False,0.06671877999906428,28.505,,39.9526379,,-113.4759759,-0.004,,39.9526379,,-113.4759759,-0.00838179886341095,0.008042010478675365,0.020257268100976944,-1,MISSION,,,,,,ACTIVE,1733424249.6538553,0.0,0.0,0.0,12,1,15,0,17760384,128,2
1733424255.537777,0.0,True,benign,-0.005443235859274864,0.0022376610431820154,0.1608201414346695,-1.0,100,16.17,0,0,False,,,,0,0,3,10,0.008284042589366436,9,28.51,,39.9526379,,-113.4759758,False,0.06565974300610833,28.505,,39.9526379,,-113.4759759,-0.005,,39.9526379,,-113.4759759,-0.007807748392224312,0.00812191516160965,0.020503118634223938,-1,MISSION,,,,,,ACTIVE,5.8839216232299805,0.0,0.0,0.0,12,1,15,0,17760384,128,2
1733424255.6363993,0.0,True,benign,-0.005483596585690975,0.002087231492623687,0.16093838214874268,-1.0,100,16.17,0,0,False,,,,0,0,3,10,0.007514056749641895,9,28.51,,39.9526379,,-113.4759758,False,0.1623989710060414,28.504,,39.9526379,,-113.4759759,-0.006,,39.9526379,,-113.4759759,-0.007208008784800768,0.008095992729067802,0.020798826590180397,-1,MISSION,,,,,,ACTIVE,1733424249.7524776,0.0,0.0,0.0,12,1,15,0,17760384,128,2
1733424255.7361734,0.0,True,benign,-0.005585530307143927,0.0024102521128952503,0.16071085631847382,-1.0,100,16.164,0,0,False,,,,0,0,3,10,0.007161073852330446,9,28.51,,39.9526379,,-113.4759758,False,0.2632141179929022,28.504,,39.9526379,,-113.4759759,-0.006,,39.9526379,,-113.4759759,-0.006641352083534002,0.008006238378584385,0.021022336557507515,-1,MISSION,,,,,,ACTIVE,5.98369574546814,0.0,0.0,0.0,12,1,15,0,17760384,128,2
1733424255.8536954,0.0,True,benign,-0.0056610628962516785,0.002428612904623151,0.1604667454957962,-1.0,100,16.164,0,0,False,,,,0,0,3,10,0.007514475844800472,9,28.51,,39.9526379,,-113.4759758,False,0.3816915439965669,28.503,,39.9526379,,-113.4759759,-0.007,,39.9526379,,-113.4759759,-0.006103978957980871,0.007775525096803904,0.021339116618037224,-1,MISSION,,,,,,ACTIVE,1733424249.8699996,0.0,0.0,0.0,12,1,15,0,17760384,128,2
1733424255.9400592,0.0,True,benign,-0.005851627793163061,0.0022324451711028814,0.16014429926872253,-1.0,100,16.164,0,0,False,,,,0,0,3,10,0.007514475844800472,9,28.51,,39.9526379,,-113.4759758,False,0.468133668997325,28.503,,39.9526379,,-113.4759759,-0.007,,39.9526379,,-113.4759759,-0.005734832026064396,0.007527744863182306,0.021742161363363266,-1,MISSION,,,,,,ACTIVE,6.070059537887573,0.0,0.0,0.0,12,1,15,0,17760384,128,2
1733424256.0387738,0.0,True,benign,-0.005679746624082327,0.001889943378046155,0.15999315679073334,-1.0,99,16.158,0,0,False,,,,0,0,3,10,0.0076070744544267654,9,28.51,,39.9526379,,-113.4759758,False,0.5663241139991442,28.502,,39.952638,,-113.4759759,-0.008,,39.952638,,-113.4759759,-0.005091582424938679,0.007095683831721544,0.022416923195123672,-1,MISSION,,,,,,ACTIVE,1733424249.9687142,0.0,0.0,0.0,12,1,15,0,17760384,128,2
1733424256.1400871,0.0,True,benign,-0.005604171194136143,0.0017523090355098248,0.15996740758419037,-1.0,99,16.158,0,0,False,,,,0,0,3,10,0.006982629187405109,9,28.51,,39.9526379,,-113.4759758,False,0.6681151819939259,28.501,,39.952638,,-113.4759759,-0.008,,39.952638,,-113.4759759,-0.004565807059407234,0.006774146109819412,0.02291327714920044,-1,MISSION,,,,,,ACTIVE,6.171372890472412,0.0,0.0,0.0,12,1,15,0,17760384,128,2
1733424256.2393272,0.0,True,benign,-0.005584541242569685,0.0019262408604845405,0.160076305270195,-1.0,99,16.152,0,0,False,,,,0,0,3,10,0.007229217328131199,9,28.51,,39.9526379,,-113.4759758,False,0.7650988459936343,28.501,,39.952638,,-113.4759759,-0.009,,39.952638,,-113.4759759,-0.0036334707401692867,0.0064094834960997105,0.023557238280773163,-1,MISSION,,,,,,ACTIVE,1733424250.0679543,0.0,0.0,0.0,12,1,15,0,17760384,128,2
1733424256.340301,0.0,True,benign,-0.005612211301922798,0.0020563004072755575,0.16020523011684418,-1.0,99,16.152,0,0,False,,,,0,0,3,10,0.008079499937593937,9,28.51,,39.9526379,,-113.4759758,False,0.8684451339941006,28.5,,39.952638,,-113.4759759,-0.01,,39.952638,,-113.4759759,-0.0027192956767976284,0.006105604115873575,0.02407207153737545,-1,MISSION,,,,,,ACTIVE,6.27234673500061,0.0,0.0,0.0,12,1,15,0,17760384,128,2
1733424256.4394805,0.0,True,benign,-0.005733298137784004,0.0018976578721776605,0.16044981777668,-1.0,99,16.146,0,0,False,,,,0,0,3,10,0.008980975486338139,9,28.51,,39.9526379,,-113.4759758,False,0.9658068989956519,28.499,,39.952638,,-113.4759759,-0.011,,39.952638,,-113.4759759,-0.0016374534461647272,0.005934000480920076,0.02460678294301033,-1,MISSION,,,,,,ACTIVE,1733424250.1671338,0.0,0.0,0.0,12,1,15,0,17760384,128,2
1733424256.5399058,0.0,True,benign,-0.005718985106796026,0.0017391042783856392,0.1605830192565918,-1.0,99,16.143,0,0,False,,,,0,0,3,10,0.008793413639068604,9,28.51,,39.9526379,,-113.4759758,False,0.005785069006378762,28.498,,39.952638,,-113.4759759,-0.001,,39.952638,,-113.4759759,-0.0008597394917160273,0.005871532019227743,0.024943947792053223,-1,MISSION,,,,,,ACTIVE,6.372771978378296,0.0,0.0,0.0,12,1,15,0,17760384,128,2
1733424256.650483,0.0,True,benign,-0.005453710909932852,0.0013724422315135598,0.16082218289375305,-1.0,99,16.14,0,0,False,,,,0,0,3,10,0.008713871240615845,9,28.51,,39.9526379,,-113.4759758,False,0.0986270020075608,28.497,,39.952638,,-113.4759759,-0.001,,39.952638,,-113.4759759,0.0001797121949493885,0.005977599881589413,0.02524331398308277,-1,MISSION,,,,,,ACTIVE,1733424250.277711,0.0,0.0,0.0,12,1,15,0,17760384,128,2
1733424256.750671,0.0,True,benign,-0.005587474443018436,0.001708109863102436,0.1608012169599533,-1.0,99,16.14,0,0,False,,,,0,0,3,10,0.006680176127701998,9,28.51,,39.9526379,,-113.4759758,False,0.11697351900511421,28.496,,39.952638,,-113.4759759,-0.002,,39.952638,,-113.4759759,0.0009721045498736203,0.006032830104231834,0.02517693117260933,-1,MISSION,,,,,,ACTIVE,6.472959995269775,0.0,0.0,0.01,12,1,15,0,17760384,128,2
1733424256.8473632,0.0,True,benign,-0.0055792261846363544,0.0020461217500269413,0.16072192788124084,-1.0,99,16.14,0,0,False,,,,0,0,3,10,0.005517357029020786,9,28.51,,39.9526379,,-113.4759758,False,0.21296789300686214,28.495,,39.952638,,-113.4759759,-0.003,,39.952638,,-113.4759759,0.0015937068965286016,0.00602716626599431,0.02474505454301834,-1,MISSION,,,,,,ACTIVE,1733424250.3744032,0.0,0.0,0.0,12,1,15,0,17760384,128,2
1733424256.9476647,0.0,True,benign,-0.005762914661318064,0.001969588454812765,0.16064725816249847,-1.0,98,16.134,0,0,False,,,,0,0,3,10,0.00601153401657939,9,28.51,,39.9526379,,-113.4759758,False,0.31181297200964764,28.495,,39.952638,,-113.4759759,-0.003,,39.952638,,-113.4759759,0.002026364905759692,0.006172518711537123,0.024111885577440262,-1,MISSION,,,,,,ACTIVE,6.573261499404907,0.0,0.0,0.0,12,1,15,0,17760384,128,2
1733424257.0479438,0.0,True,benign,-0.005714233033359051,0.0021721888333559036,0.16091297566890717,-1.0,98,16.134,0,0,False,,,,0,0,3,10,0.005697831977158785,9,28.51,,39.9526379,,-113.4759758,False,0.4136472020036308,28.495,,39.952638,,-113.4759759,-0.004,,39.952638,,-113.4759759,0.002479635179042816,0.006496337708085775,0.02316180057823658,-1,MISSION,,,,,,ACTIVE,1733424250.4746823,0.0,0.0,0.0,12,1,15,0,17760384,128,2
1733424257.1483834,0.0,True,benign,-0.005822799634188414,0.0021650020498782396,0.16061672568321228,-1.0,98,16.128,0,0,False,,,,0,0,3,10,0.00632923049852252,9,28.51,,39.9526379,,-113.4759758,False,0.5100964110024506,28.494,,39.952638,,-113.4759759,-0.004,,39.952638,,-113.4759759,0.002773229731246829,0.0065865362994372845,0.022655704990029335,-1,MISSION,,,,,,ACTIVE,6.673701047897339,0.0,0.0,0.0,12,1,15,0,17760384,128,2
1733424257.2516885,0.0,True,benign,-0.005666017532348633,0.0019078264012932777,0.16084998846054077,-1.0,98,16.128,0,0,False,,,,0,0,3,10,0.0072223106399178505,9,28.51,,39.9526379,,-113.4759758,False,0.6174065910017816,28.494,,39.9526379,,-113.4759759,-0.004,,39.9526379,,-113.4759759,0.0030423684511333704,0.006782544311136007,0.02208203822374344,-1,MISSION,,,,,,ACTIVE,1733424250.5779874,0.0,0.0,0.0,12,1,15,0,17760384,128,2
1733424257.3510475,0.0,True,benign,-0.005752997938543558,0.002006225986406207,0.16113696992397308,-1.0,98,16.122,0,0,False,,,,0,0,3,10,0.007183120585978031,9,28.499,,39.952638,,-113.4759759,False,0.7167035250022309,28.494,,39.9526379,,-113.4759759,-0.005,,39.9526379,,-113.4759759,0.003211262170225382,0.006834948901087046,0.021825239062309265,-1,MISSION,,,,,,ACTIVE,6.773060083389282,0.0,0.0,0.0,12,1,15,0,17760384,128,2
1733424257.4516675,0.0,True,benign,-0.005864946637302637,0.0021479798015207052,0.1612115204334259,-1.0,98,16.122,0,0,False,,,,0,0,3,10,0.007796078454703093,9,28.499,,39.952638,,-113.4759759,False,0.8130539039993891,28.494,,39.9526379,,-113.4759759,-0.005,,39.9526379,,-113.4759759,0.0034014813136309385,0.0067856148816645145,0.021869083866477013,-1,MISSION,,,,,,ACTIVE,1733424250.6786075,0.0,0.0,0.0,12,1,15,0,17760384,128,2
1733424257.5515711,0.0,True,benign,-0.005860554054379463,0.0020438211504369974,0.1612590104341507,-1.0,97,16.116,0,0,False,,,,0,0,3,10,0.0060133906081318855,9,28.499,,39.952638,,-113.4759759,False,0.9154922020097729,28.493,,39.9526379,,-113.4759759,-0.005,,39.9526379,,-113.4759759,0.0035070045851171017,0.006693554110825062,0.021949218586087227,-1,MISSION,,,,,,ACTIVE,6.8729636669158936,0.0,0.0,0.0,12,1,15,0,17760384,128,2
1733424257.6541088,0.0,True,benign,-0.005799115169793367,0.0019111798610538244,0.16145563125610352,-1.0,97,16.116,0,0,False,,,,0,0,3,10,0.0060133906081318855,9,28.499,,39.952638,,-113.4759759,False,1.0203481089993147,28.493,,39.9526379,,-113.4759759,-0.005,,39.9526379,,-113.4759759,0.003865844337269664,0.006584335584193468,0.021911878138780594,-1,MISSION,,,,,,ACTIVE,1733424250.781145,0.0,0.0,0.01,12,1,15,0,17760384,128,2
1733424257.7544196,0.0,True,benign,-0.005672843661159277,0.0019863948691636324,0.16132332384586334,-1.0,97,16.113,0,0,False,,,,0,0,3,10,0.00551987998187542,9,28.499,,39.952638,,-113.4759759,False,0.0831300249992637,28.493,,39.9526379,,-113.4759759,-0.006,,39.9526379,,-113.4759759,0.004411095287650824,0.006555359344929457,0.02185334824025631,-1,MISSION,,,,,,ACTIVE,6.97327446937561,0.0,0.0,0.01,12,1,15,0,17760384,128,2
1733424257.8567078,0.0,True,benign,-0.005673670209944248,0.0019777475390583277,0.1614302098751068,-1.0,97,16.11,0,0,False,,,,0,0,3,10,0.007061515003442764,9,28.499,,39.952638,,-113.4759759,False,0.08771612199780066,28.492,,39.9526379,,-113.4759759,-0.006,,39.9526379,,-113.4759759,0.005100212059915066,0.006659740582108498,0.021832866594195366,-1,MISSION,,,,,,ACTIVE,1733424250.8834333,0.0,0.0,0.01,12,1,15,0,17760384,128,2
1733424257.95543,0.0,True,benign,-0.005693374201655388,0.002027141861617565,0.1613444834947586,-1.0,97,16.11,0,0,False,,,,0,0,3,10,0.005876310635358095,9,28.499,,39.952638,,-113.4759759,False,0.18088217699551024,28.491,,39.9526379,,-113.4759759,-0.007,,39.9526379,,-113.4759759,0.005677919369190931,0.006583142094314098,0.02179950289428234,-1,MISSION,,,,,,ACTIVE,7.071996688842773,0.0,0.0,0.01,12,1,15,0,17760384,128,2
1733424258.0606089,0.0,True,benign,-0.00578754348680377,0.0020957777742296457,0.16118180751800537,-1.0,97,16.104,0,0,False,,,,0,0,3,10,0.005791331175714731,9,28.499,,39.952638,,-113.4759759,False,0.29097231800551526,28.491,,39.9526379,,-113.4759759,-0.008,,39.9526379,,-113.4759759,0.00646923528984189,0.006339760962873697,0.02164873108267784,-1,MISSION,,,,,,ACTIVE,1733424250.9886122,0.0,0.0,0.01,12,1,15,0,17760384,128,2
1733424258.1612473,0.0,True,benign,-0.005374463275074959,0.001956113614141941,0.16118723154067993,-1.0,97,16.104,0,0,False,,,,0,0,3,10,0.006011398509144783,9,28.499,,39.952638,,-113.4759759,False,0.3890648819942726,28.49,,39.9526379,,-113.4759759,-0.008,,39.9526379,,-113.4759759,0.006964877247810364,0.006176745053380728,0.02138693444430828,-1,MISSION,,,,,,ACTIVE,7.172635078430176,0.0,0.0,0.01,12,1,15,0,17760384,128,2
1733424258.261876,0.0,True,benign,-0.005610421299934387,0.0018842642894014716,0.1613205373287201,-1.0,96,16.098,0,0,False,,,,0,0,3,10,0.0063771819695830345,9,28.499,,39.952638,,-113.4759759,False,0.4929306130070472,28.49,,39.9526379,,-113.4759759,-0.009,,39.9526379,,-113.4759759,0.007446324452757835,0.006025653798133135,0.02095281518995762,-1,MISSION,,,,,,ACTIVE,1733424251.089241,0.0,0.0,0.0,12,1,15,0,17760384,128,2
1733424258.3650007,0.0,True,benign,-0.005638561677187681,0.002151701832190156,0.16127216815948486,-1.0,96,16.098,0,0,False,,,,0,0,3,10,0.00610646465793252,9,28.499,,39.952638,,-113.4759759,False,0.5960653810034273,28.489,,39.9526379,,-113.4759759,-0.009,,39.9526379,,-113.4759759,0.007826904766261578,0.005963790230453014,0.020498936995863914,-1,MISSION,,,,,,ACTIVE,7.275759696960449,0.0,0.0,0.0,12,1,15,0,17760384,128,2
1733424258.4658082,0.0,True,benign,-0.005626719910651445,0.001886167679913342,0.16097204387187958,-1.0,96,16.092,0,0,False,,,,0,0,3,10,0.006619757506996393,9,28.499,,39.952638,,-113.4759759,False,0.6968648170004599,28.489,,39.9526379,,-113.4759759,-0.01,,39.9526379,,-113.4759759,0.008177210576832294,0.005852414295077324,0.01998238079249859,-1,MISSION,,,,,,ACTIVE,1733424251.1900485,0.0,0.0,0.0,12,1,15,0,17760384,128,2
1733424258.5681796,0.0,True,benign,-0.0015926946653053164,0.001107388292439282,0.16084976494312286,-1.0,96,16.092,0,0,False,,,,0,0,3,10,0.006088783033192158,9,28.499,,39.952638,,-113.4759759,False,0.7992202169989469,28.489,,39.9526379,,-113.4759759,-0.01,,39.9526379,,-113.4759759,0.008341285400092602,0.005782705266028643,0.019676415249705315,-1,MISSION,,,,,,ACTIVE,7.378131151199341,0.0,0.0,0.0,12,1,15,0,17760384,128,2
1733424258.6668859,0.0,True,benign,0.006594015285372734,-0.0013962092343717813,0.16089831292629242,-1.0,96,16.092,0,0,False,,,,0,0,3,10,0.006088783033192158,9,28.499,,39.952638,,-113.4759759,False,0.89572438999312,28.489,,39.9526379,,-113.4759759,-0.009,,39.9526379,,-113.4759759,0.0074743363074958324,0.0056741489097476006,0.019266342744231224,-1,MISSION,,,,,,ACTIVE,1733424251.2887547,0.0,0.0,-0.01,12,1,15,0,17760384,128,2
1733424258.7703736,0.0,True,benign,0.010526924394071102,-0.0028763494919985533,0.16057944297790527,-1.0,96,16.086,0,0,False,,,,0,0,3,10,0.006896624341607094,9,28.499,,39.952638,,-113.4759759,False,0.9984776640048949,28.493,,39.9526379,,-113.4759759,-0.005,,39.9526379,,-113.4759759,0.004491877742111683,0.005405706819146872,0.01813402771949768,-1,MISSION,,,,,,ACTIVE,7.481618881225586,-0.01,0.0,-0.05,12,1,15,0,17760384,128,2
1733424258.8721318,0.0,True,benign,0.008701696991920471,-0.0021693287417292595,0.1606205850839615,-1.0,96,16.083,0,0,False,,,,0,0,3,10,0.02271948754787445,9,28.499,,39.952638,,-113.4759759,False,0.07422814500750974,28.501,,39.9526379,,-113.4759759,0.002,,39.9526379,,-113.4759759,-0.003927708137780428,0.004623040556907654,0.015436952002346516,-1,MISSION,,,,,,ACTIVE,1733424251.390513,-0.02,0.0,-0.1,12,1,15,0,17760384,128,2
1733424258.9738307,0.0,True,benign,0.0057534826919436455,-0.0016784622566774487,0.16065090894699097,-1.0,96,16.08,0,0,False,,,,0,0,3,10,0.03326074033975601,9,28.499,,39.952638,,-113.4759759,False,0.07151001600141171,28.509,,39.9526379,,-113.4759759,0.01,,39.9526379,,-113.4759759,-0.012189066037535667,0.004022253677248955,0.013398641720414162,-1,MISSION,,,,,,ACTIVE,7.583317756652832,-0.03,-0.01,-0.14,12,1,15,0,17760384,128,2
1733424259.0736668,0.0,True,benign,0.0019751531071960926,-0.0006426416803151369,0.16053570806980133,-1.0,96,16.08,0,0,False,,,,0,0,3,10,0.04343697428703308,9,28.499,,39.952638,,-113.4759759,False,0.17387449499801733,28.528,,39.9526378,,-113.4759759,0.028,,39.9526378,,-113.4759759,-0.0308584813028574,0.0028920818585902452,0.009933632798492908,-1,MISSION,,,,,,ACTIVE,1733424251.490349,-0.04,-0.01,-0.25,12,1,15,0,17760384,128,2
1733424259.1729913,0.0,True,benign,-0.0010424305219203234,5.939715993008576e-05,0.16087333858013153,-1.0,95,16.075,0,0,False,,,,0,0,3,10,0.05031288042664528,9,28.499,,39.952638,,-113.4759759,False,0.2717636629968183,28.551,,39.9526378,,-113.4759759,0.052,,39.9526378,,-113.4759759,-0.054125621914863586,0.0018108267104253173,0.006799792405217886,-1,MISSION,,,,,,ACTIVE,7.682642221450806,-0.04,-0.01,-0.33,12,1,15,0,17760384,128,2
1733424259.276344,0.0,True,benign,-0.0034567478578537703,0.0009064887999556959,0.16090555489063263,-1.0,95,16.075,0,0,False,,,,0,0,3,10,0.05224453657865524,9,28.499,,39.952638,,-113.4759759,False,0.37316227400151547,28.59,,39.9526378,,-113.4759759,0.091,,39.9526378,,-113.4759759,-0.0900409072637558,0.0007473810110241175,0.0027142255567014217,-1,MISSION,,,,,,ACTIVE,1733424251.5937018,-0.04,-0.01,-0.43,12,1,15,0,17760384,128,2
1733424259.3787677,0.0,True,benign,-0.005285392981022596,0.000944997591432184,0.16048862040042877,-1.0,95,16.068,0,0,False,,,,0,0,3,10,0.05128689110279083,9,28.499,,39.952638,,-113.4759759,False,0.4779664179950487,28.627,,39.9526377,,-113.475976,0.127,,39.9526377,,-113.475976,-0.13768982887268066,-0.00017150108760688454,-0.0018641059286892414,-1,MISSION,,,,,,ACTIVE,7.7850658893585205,-0.04,-0.01,-0.51,12,1,15,0,17760384,128,2
1733424259.4791973,0.0,True,benign,-0.006739327684044838,0.0009024295140989125,0.15980957448482513,-1.0,95,16.068,0,0,False,,,,0,0,3,10,0.05064956471323967,9,28.499,,39.952638,,-113.4759759,False,0.5786245449999114,28.677,,39.9526377,,-113.475976,0.178,,39.9526377,,-113.475976,-0.1845642328262329,-0.0007787492359057069,-0.005672707222402096,-1,MISSION,,,,,,ACTIVE,1733424251.6941314,-0.04,-0.01,-0.59,12,1,15,0,17760384,128,2
1733424259.5830905,0.0,True,benign,-0.00830810610204935,0.0009144234354607761,0.1594204604625702,-1.0,95,16.068,0,0,False,,,,0,0,3,10,0.05064956471323967,9,28.499,,39.952638,,-113.4759759,False,0.6801772729959339,28.739,,39.9526377,,-113.475976,0.24,,39.9526377,,-113.475976,-0.2373581975698471,-0.0012722729006782174,-0.009659253992140293,-1,MISSION,,,,,,ACTIVE,7.888959169387817,-0.04,-0.01,-0.67,12,1,15,0,17760384,128,2
1733424259.683671,0.0,True,benign,-0.00918050017207861,0.0008342845248989761,0.15903986990451813,-1.0,95,16.062,0,0,False,,,,0,0,3,10,0.044455163180828094,9,28.499,,39.952638,,-113.4759759,False,0.7830589049990522,28.793,,39.9526376,,-113.475976,0.293,,39.9526376,,-113.475976,-0.29029756784439087,-0.0014836664777249098,-0.013481667265295982,-1,MISSION,,,,,,ACTIVE,1733424251.7947118,-0.04,0.0,-0.73,12,1,15,0,17760384,128,2
1733424259.7855487,0.0,True,benign,-0.009921695105731487,0.000544655486010015,0.15889188647270203,-1.0,95,16.062,0,0,False,,,,0,0,3,10,0.04288841038942337,9,28.499,,39.952638,,-113.4759759,False,0.8852254349912982,28.863,,39.9526376,,-113.475976,0.363,,39.9526376,,-113.475976,-0.3656857907772064,-0.001457103295251727,-0.01852862909436226,-1,MISSION,,,,,,ACTIVE,7.99083685874939,-0.03,0.0,-0.8,12,1,15,0,17760384,128,2
1733424259.889706,0.0,True,benign,-0.010926678776741028,0.00022838446602690965,0.1587667316198349,-1.0,94,16.056,0,0,False,,,,0,0,3,10,0.03863058611750603,9,28.499,,39.952638,,-113.4759759,False,0.9873303509957623,28.926,,39.9526375,,-113.475976,0.426,,39.9526375,,-113.475976,-0.4419017434120178,-0.0015385790029540658,-0.02300477959215641,-1,MISSION,,,,,,ACTIVE,1733424251.898869,-0.03,0.0,-0.85,12,1,15,0,17760384,128,2
1733424259.9890893,0.0,True,benign,-0.011258170939981937,-1.712199446046725e-05,0.1586347371339798,-1.0,94,16.053,0,0,False,,,,0,0,3,10,0.03153100609779358,9,28.499,,39.952638,,-113.4759759,False,0.05369600099220406,29.014,,39.9526375,,-113.475976,0.515,,39.9526375,,-113.475976,-0.5101544857025146,-0.0016356625128537416,-0.02634902112185955,-1,MISSION,,,,,,ACTIVE,8.090220212936401,-0.02,0.0,-0.93,12,1,15,0,17760384,128,2
1733424260.0904636,0.0,True,benign,-0.011081571690738201,-7.929871935630217e-05,0.15870046615600586,-1.0,94,16.051,0,0,False,,,,0,0,3,10,0.024633949622511864,9,28.499,,39.952638,,-113.4759759,False,0.05450505000771955,29.087,,39.9526375,,-113.475976,0.588,,39.9526375,,-113.475976,-0.5903616547584534,-0.001689585275016725,-0.029591413214802742,-1,MISSION,,,,,,ACTIVE,1733424252.0002434,-0.02,0.0,-0.98,12,1,15,0,17760384,128,2
1733424260.190447,0.0,True,benign,-0.011648197658360004,-6.37126049696235e-07,0.1587008386850357,-1.0,94,16.051,0,0,False,,,,0,0,3,10,0.019721034914255142,9,28.499,,39.952638,,-113.4759759,False,0.15618581599846948,29.181,,39.9526375,,-113.475976,0.682,,39.9526375,,-113.475976,-0.6839156746864319,-0.0017033000476658344,-0.03285612910985947,-1,MISSION,,,,,,ACTIVE,8.190203666687012,-0.01,0.0,-1.04,12,1,15,0,17760384,128,2
1733424260.2916815,0.0,True,benign,-0.01159251481294632,0.0003954373823944479,0.158409982919693,-1.0,94,16.045,0,0,False,,,,0,0,3,10,0.014785980805754662,9,28.499,,39.952638,,-113.4759759,False,0.25923280100687407,29.264,,39.9526374,,-113.475976,0.764,,39.9526374,,-113.475976,-0.7839083671569824,-0.0018867915496230125,-0.03573019057512283,-1,MISSION,,,,,,ACTIVE,1733424252.1014779,-0.01,0.0,-1.1,12,1,15,0,17760384,128,2
1733424260.3908563,0.0,True,benign,-0.011799592524766922,0.0005611262749880552,0.15872427821159363,-1.0,94,16.045,0,0,False,,,,0,0,3,10,0.005656593944877386,9,28.499,,39.952638,,-113.4759759,False,0.356346565997228,29.378,,39.9526374,,-113.475976,0.879,,39.9526374,,-113.475976,-0.8721550107002258,-0.0020385743118822575,-0.037568796426057816,-1,MISSION,,,,,,ACTIVE,8.28937840461731,0.0,0.0,-1.17,12,1,15,0,17760384,128,2
1733424260.4915674,0.0,True,static_gps_spoofer,-0.011505601927638054,0.0003833467490039766,0.15847468376159668,-1.0,93,16.039,0,0,False,,,,0,0,3,10,0.0017296787118539214,9,28.499,,39.952638,,-113.4759759,False,0.458647507999558,29.471,,38.898078889565106,,-77.03665792028,0.972,,39.9526374,,-113.475976,-0.9932307600975037,-0.0019523251103237271,-0.039393775165081024,-1,MISSION,,,,,,ACTIVE,1733424252.202189,0.0,0.0,-1.22,12,1,15,0,17760384,128,2
1733424260.5922158,0.0,True,static_gps_spoofer,-0.011112351901829243,0.0007733303355053067,0.1584845632314682,-1.0,93,16.039,0,0,False,,,,0,0,3,10,0.007110529579222202,9,28.499,,39.952638,,-113.4759759,False,0.5580463130027056,29.588,,38.89821554090896,,-77.03662861287233,1.089,,39.9526374,,-113.475976,-1.1010981798171997,-0.0018606333760544658,-0.040296051651239395,-1,MISSION,,,,,,ACTIVE,8.390026807785034,0.0,0.0,-1.28,12,1,15,0,17760384,128,2
1733424260.692364,0.0,True,static_gps_spoofer,-0.010701837949454784,0.0008933512144722044,0.15842029452323914,-1.0,93,16.039,0,0,False,,,,0,0,3,10,0.007110529579222202,9,28.499,,39.952638,,-113.4759759,False,0.6588517310010502,29.689,,38.89796764433121,,-77.03663357632949,1.19,,39.9526374,,-113.475976,-1.212486743927002,-0.0017701672622933984,-0.04058342054486275,-1,MISSION,,,,,,ACTIVE,1733424252.3023372,0.01,0.0,-1.31,12,1,15,0,17760384,128,2
1733424260.7952018,0.0,True,static_gps_spoofer,-0.01035318337380886,0.0012546589132398367,0.1584574282169342,-1.0,93,16.033,0,0,False,,,,0,0,3,10,0.015004741959273815,9,28.499,,39.952638,,-113.4759759,False,0.761854662996484,29.822,,38.89795005369402,,-77.03645690411611,1.323,,39.9526374,,-113.475976,-1.3149350881576538,-0.001631266437470913,-0.04045630618929863,-1,MISSION,,,,,,ACTIVE,8.492864608764648,0.01,0.0,-1.32,12,1,15,0,17760384,128,2
1733424260.8968391,0.0,True,static_gps_spoofer,-0.009929866530001163,0.0012699880171567202,0.15837818384170532,-1.0,93,16.033,0,0,False,,,,0,0,3,10,0.017726754769682884,9,28.499,,39.952638,,-113.4759759,False,0.8644475949986372,29.946,,38.898218282138274,,-77.03667832598376,1.447,,39.9526374,,-113.475976,-1.44913911819458,-0.0015427385224029422,-0.039861902594566345,-1,MISSION,,,,,,ACTIVE,1733424252.4039745,0.02,0.0,-1.33,12,1,15,0,17760384,128,2
1733424260.996358,0.0,True,static_gps_spoofer,-0.009687870740890503,0.0013411131221801043,0.1585543304681778,-1.0,93,16.027,0,0,False,,,,0,0,3,10,0.021188780665397644,9,28.499,,39.952638,,-113.4759759,False,0.9610385620035231,30.051,,38.898153672981806,,-77.03660307394813,1.551,,39.9526374,,-113.475976,-1.553593397140503,-0.001515232608653605,-0.039161257445812225,-1,MISSION,,,,,,ACTIVE,8.59238338470459,0.02,0.0,-1.33,12,1,15,0,17760384,128,2
1733424261.096499,0.0,True,static_gps_spoofer,-0.009134029038250446,0.0011717799352481961,0.15868611633777618,-1.0,92,16.023,0,0,False,,,,0,0,3,10,0.02480192668735981,9,28.499,,39.952638,,-113.4759759,False,0.049426141995354556,30.188,,38.89808229335279,,-77.03642593428158,1.689,,39.9526374,,-113.475976,-1.6802911758422852,-0.0013803933979943395,-0.038004226982593536,-1,MISSION,,,,,,ACTIVE,1733424252.5041156,0.02,0.0,-1.34,12,1,15,0,17760384,128,2
1733424261.1968203,0.0,True,static_gps_spoofer,-0.008670153096318245,0.0009327669977210462,0.15932652354240417,-1.0,92,16.021,0,0,False,,,,0,0,3,10,0.02784174121916294,9,28.499,,39.952638,,-113.4759759,False,0.04978159199526999,30.295,,38.89805089746004,,-77.03653459295639,1.795,,39.9526374,,-113.475976,-1.797621250152588,-0.0014614611864089966,-0.03671283647418022,-1,MISSION,,,,,,ACTIVE,8.692704677581787,0.02,0.0,-1.35,12,1,15,0,17760384,128,2
1733424261.2967603,0.0,True,static_gps_spoofer,-0.008408721536397934,0.0015167315723374486,0.16045533120632172,-1.0,92,16.021,0,0,False,,,,0,0,3,10,0.028467362746596336,9,28.499,,39.952638,,-113.4759759,False,0.1526613119931426,30.424,,38.897891513951365,,-77.03670686863843,1.924,,39.9526374,,-113.475976,-1.9267630577087402,-0.001857240218669176,-0.03537614271044731,-1,MISSION,,,,,,ACTIVE,1733424252.6040556,0.02,0.0,-1.36,12,1,15,0,17760384,128,2
1733424261.400511,0.0,True,static_gps_spoofer,-0.008297117426991463,0.0018978746375069022,0.1612873375415802,-1.0,92,16.015,0,0,False,,,,0,0,3,10,0.03160115331411362,9,28.499,,39.952638,,-113.4759759,False,0.25410686699615326,30.532,,38.89798052949967,,-77.03661137583653,2.033,,39.9526374,,-113.475976,-2.0351996421813965,-0.0022437283769249916,-0.03414342179894447,-1,MISSION,,,,,,ACTIVE,8.796455383300781,0.03,0.0,-1.36,12,1,15,0,17760384,128,2
1733424261.4969065,0.0,True,static_gps_spoofer,-0.00784054584801197,0.0025015505962073803,0.1635170429944992,-1.0,92,16.015,0,0,False,,,,0,0,3,10,0.0354231595993042,9,28.499,,39.952638,,-113.4759759,False,0.35174455199739896,30.674,,38.89788119685067,,-77.03660125109066,2.175,,39.9526375,,-113.475976,-2.1663601398468018,-0.0028177371714264154,-0.03241367265582085,-1,MISSION,,,,,,ACTIVE,1733424252.7004511,0.03,0.0,-1.37,12,1,15,0,17760384,128,2
1733424261.5973036,0.0,True,static_gps_spoofer,-0.007159445900470018,0.002718270756304264,0.16449975967407227,-1.0,92,16.009,0,0,False,,,,0,0,3,10,0.03778134658932686,9,28.499,,39.952638,,-113.4759759,False,0.44978221599012613,30.785,,38.8978764260594,,-77.03670351016505,2.285,,39.9526375,,-113.475976,-2.287705421447754,-0.003289978252723813,-0.0305239986628294,-1,MISSION,,,,,,ACTIVE,8.896852493286133,0.03,0.0,-1.38,12,1,15,0,17760384,128,2
1733424261.697307,0.0,True,static_gps_spoofer,-0.006764335557818413,0.002965490100905299,0.16452117264270782,-1.0,92,16.009,0,0,False,,,,0,0,3,10,0.037297170609235764,9,28.499,,39.952638,,-113.4759759,False,0.5521247860015137,30.918,,38.897922282078774,,-77.03653548098279,2.419,,39.9526375,,-113.475976,-2.4210824966430664,-0.00396638223901391,-0.028164556249976158,-1,MISSION,,,,,,ACTIVE,1733424252.8004546,0.03,0.0,-1.39,12,1,15,0,17760384,128,2
1733424261.8002322,0.0,True,static_gps_spoofer,-0.006642085965722799,0.0031098714098334312,0.16432476043701172,-1.0,92,16.009,0,0,False,,,,0,0,3,10,0.036824263632297516,9,28.499,,39.952638,,-113.4759759,False,0.6568592139956309,31.03,,38.89807719673852,,-77.0367546142464,2.531,,39.9526375,,-113.475976,-2.5330300331115723,-0.004548266064375639,-0.026160525158047676,-1,MISSION,,,,,,ACTIVE,8.999777555465698,0.03,0.0,-1.39,12,1,15,0,17760384,128,2
1733424261.8977902,0.0,True,static_gps_spoofer,-0.006498147267848253,0.003002273617312312,0.16411960124969482,-1.0,91,16.003,0,0,False,,,,0,0,3,10,0.036704644560813904,9,28.499,,39.952638,,-113.4759759,False,0.7522873790003359,31.177,,38.897938937808796,,-77.03660968171353,2.677,,39.9526375,,-113.475976,-2.668252944946289,-0.005135578103363514,-0.02351926825940609,-1,MISSION,,,,,,ACTIVE,1733424252.8980126,0.03,0.0,-1.4,12,1,15,0,17760384,128,2
1733424262.0040581,0.0,True,static_gps_spoofer,-0.006098083220422268,0.00307490979321301,0.16322867572307587,-1.0,91,16.003,0,0,False,,,,0,0,3,10,0.037413664162158966,9,28.499,,39.952638,,-113.4759759,False,0.8583780170010868,31.29,,38.89811765217325,,-77.03676421006308,2.79,,39.9526376,,-113.475976,-2.815561532974243,-0.0056845638900995255,-0.020492473617196083,-1,MISSION,,,,,,ACTIVE,9.106045484542847,0.03,0.0,-1.41,12,1,15,0,17760384,128,2
1733424262.1008973,0.0,True,static_gps_spoofer,-0.005923544522374868,0.003241718513891101,0.16201655566692352,-1.0,91,15.996,0,0,False,,,,0,0,3,10,0.0359485037624836,9,28.499,,39.952638,,-113.4759759,False,0.9560529049922479,31.426,,38.897971196354725,,-77.03662879821118,2.927,,39.9526376,,-113.475976,-2.9294512271881104,-0.00604993524029851,-0.018189791589975357,-1,MISSION,,,,,,ACTIVE,1733424252.9948518,0.03,0.0,-1.41,12,1,15,0,17760384,128,2
1733424262.2005086,0.0,True,static_gps_spoofer,-0.005645344499498606,0.0034582277294248343,0.1607082486152649,-1.0,91,15.993,0,0,False,,,,0,0,3,10,0.03505847603082657,9,28.499,,39.952638,,-113.4759759,False,0.03956079500494525,31.541,,38.89788672416666,,-77.03659361836274,3.042,,39.9526376,,-113.475976,-3.0439443588256836,-0.0063431584276258945,-0.015999650582671165,-1,MISSION,,,,,,ACTIVE,9.20565676689148,0.03,0.0,-1.42,12,1,15,0,17760384,128,2
1733424262.300518,0.0,True,static_gps_spoofer,-0.005543479695916176,0.0033214481081813574,0.16011595726013184,-1.0,91,15.99,0,0,False,,,,0,0,3,10,0.034885529428720474,9,28.499,,39.952638,,-113.4759759,False,0.04449933901196346,31.69,,38.89781065683144,,-77.03662579741665,3.191,,39.9526376,,-113.475976,-3.193453073501587,-0.0064751142635941505,-0.01308057177811861,-1,MISSION,,,,,,ACTIVE,1733424253.0948613,0.03,0.0,-1.42,12,1,15,0,17760384,128,2
1733424262.404663,0.0,True,static_gps_spoofer,-0.004928340669721365,0.003175698919221759,0.15937170386314392,-1.0,91,15.99,0,0,False,,,,0,0,3,10,0.03479956090450287,9,28.499,,39.952638,,-113.4759759,False,0.1469993190112291,31.806,,38.89777393263756,,-77.03651909469102,3.306,,39.9526377,,-113.475976,-3.3320322036743164,-0.006564845331013203,-0.010099668055772781,-1,MISSION,,,,,,ACTIVE,9.309801816940308,0.03,0.0,-1.43,12,1,15,0,17760384,128,2
1733424262.5015898,0.0,True,static_gps_spoofer,-0.004553946666419506,0.0031609968282282352,0.15915851294994354,-1.0,90,15.984,0,0,False,,,,0,0,3,10,0.03567086532711983,9,28.499,,39.952638,,-113.4759759,False,0.2451940180035308,31.945,,38.89774148875916,,-77.03676901828538,3.445,,39.9526377,,-113.475976,-3.4478681087493896,-0.00680776871740818,-0.00700088357552886,-1,MISSION,,,,,,ACTIVE,1733424253.191788,0.03,0.0,-1.43,12,1,15,0,17760384,128,2
1733424262.601285,0.0,True,static_gps_spoofer,-0.003995572682470083,0.0033753265161067247,0.1587037593126297,-1.0,90,15.984,0,0,False,,,,0,0,3,10,0.03458864241838455,9,28.499,,39.952638,,-113.4759759,False,0.3430068330053473,32.061,,38.897971437480344,,-77.03641453147249,3.562,,39.9526377,,-113.475976,-3.5757193565368652,-0.007257894147187471,-0.0032587028108537197,-1,MISSION,,,,,,ACTIVE,9.409497022628784,0.03,0.0,-1.43,12,1,15,0,17760384,128,2
1733424262.707469,0.0,True,static_gps_spoofer,-0.003475258592516184,0.003415842307731509,0.15905170142650604,-1.0,90,15.978,0,0,False,,,,0,0,3,10,0.03530774638056755,9,28.499,,39.952638,,-113.4759759,False,0.45296153001254424,32.213,,38.897899645874425,,-77.03663688178833,3.713,,39.9526378,,-113.475976,-3.7156362533569336,-0.007754648569971323,0.001195369753986597,-1,MISSION,,,,,,ACTIVE,1733424253.297972,0.03,0.0,-1.44,12,1,15,0,17760384,128,2
1733424262.8045788,0.0,True,static_gps_spoofer,-0.0026741172187030315,0.00336459674872458,0.15921899676322937,-1.0,90,15.978,0,0,False,,,,0,0,3,10,0.03537182882428169,9,28.499,,39.952638,,-113.4759759,False,0.548261354007991,32.33,,38.89793114953293,,-77.03660482374993,3.83,,39.9526378,,-113.475976,-3.8561155796051025,-0.008138248696923256,0.0059653837233781815,-1,MISSION,,,,,,ACTIVE,9.506606817245483,0.03,0.0,-1.44,12,1,15,0,17760384,128,2
1733424262.9083493,0.0,True,static_gps_spoofer,-0.001943686744198203,0.003307146718725562,0.15959575772285461,-1.0,90,15.978,0,0,False,,,,0,0,3,10,0.03426725044846535,9,28.499,,39.952638,,-113.4759759,False,0.6461605670046993,32.47,,38.89791503510928,,-77.036531237346,3.971,,39.9526378,,-113.475976,-3.973468542098999,-0.008381388150155544,0.010137309320271015,-1,MISSION,,,,,,ACTIVE,1733424253.4017425,0.03,0.0,-1.45,12,1,15,0,17760384,128,2
1733424263.008789,0.0,True,static_gps_spoofer,-0.0014307808596640825,0.003377496963366866,0.15995989739894867,-1.0,90,15.972,0,0,False,,,,0,0,3,10,0.030999179929494858,9,28.499,,39.952638,,-113.4759759,False,0.7534891520044766,32.624,,38.89799232062619,,-77.03663231911784,4.124,,39.9526379,,-113.475976,-4.1148271560668945,-0.008436989970505238,0.014896695502102375,-1,MISSION,,,,,,ACTIVE,9.607046604156494,0.02,0.0,-1.45,12,1,15,0,17760384,128,2
1733424263.1106846,0.0,True,static_gps_spoofer,-0.0009983647614717484,0.0034322745632380247,0.16025298833847046,-1.0,90,15.972,0,0,False,,,,0,0,3,10,0.03059982880949974,9,28.499,,39.952638,,-113.4759759,False,0.855982903012773,32.742,,38.89801831794389,,-77.03673269642853,4.242,,39.9526379,,-113.475976,-4.256510257720947,-0.008231214247643948,0.019426001235842705,-1,MISSION,,,,,,ACTIVE,1733424253.503638,0.02,0.0,-1.45,12,1,15,0,17760384,128,2
1733424263.2089865,0.0,True,static_gps_spoofer,-0.0005628343787975609,0.00347034796141088,0.1601899266242981,-1.0,89,15.967,0,0,False,,,,0,0,3,10,0.0286328736692667,9,28.499,,39.952638,,-113.4759759,False,0.9528042580059264,32.884,,38.898046328471885,,-77.03653158728193,4.384,,39.952638,,-113.475976,-4.38655948638916,-0.007716957479715347,0.023277049884200096,-1,MISSION,,,,,,ACTIVE,9.705348491668701,0.02,0.01,-1.46,12,1,15,0,17760384,128,2
1733424263.3100939,0.0,True,static_gps_spoofer,-0.0002198604488512501,0.0035092730540782213,0.15991324186325073,-1.0,89,15.963,0,0,False,,,,0,0,3,10,0.026008842512965202,9,28.499,,39.952638,,-113.4759759,False,0.04060144099639729,33.002,,38.89809611169044,,-77.03664674090393,4.503,,39.952638,,-113.475976,-4.505305767059326,-0.00703987292945385,0.026560377329587936,-1,MISSION,,,,,,ACTIVE,1733424253.6047454,0.02,0.01,-1.46,12,1,15,0,17760384,128,2
1733424263.4091012,0.0,True,static_gps_spoofer,-0.0001797308650566265,0.0033865119330585003,0.1600152999162674,-1.0,89,15.961,0,0,False,,,,0,0,3,10,0.023763002827763557,9,28.499,,39.952638,,-113.4759759,False,0.04069577399059199,33.121,,38.89792964104586,,-77.03659167314245,4.622,,39.952638,,-113.475976,-4.648369789123535,-0.005753427278250456,0.03019997663795948,-1,MISSION,,,,,,ACTIVE,9.80435585975647,0.01,0.01,-1.46,12,1,15,0,17760384,128,2
1733424263.5110068,0.0,True,static_gps_spoofer,-6.857512926217169e-05,0.002430289750918746,0.15962395071983337,-1.0,89,15.961,0,0,False,,,,0,0,3,10,0.0205246489495039,9,28.499,,39.952638,,-113.4759759,False,0.14398284099297598,33.277,,38.89795039996099,,-77.03657774853531,4.777,,39.952638,,-113.475976,-4.767726421356201,-0.004399463534355164,0.03306455910205841,-1,MISSION,,,,,,ACTIVE,1733424253.706651,0.01,0.01,-1.47,12,1,15,0,17760384,128,2
1733424263.612082,0.0,True,static_gps_spoofer,-1.4279125025495887e-05,0.0022888928651809692,0.15955345332622528,-1.0,89,15.955,0,0,False,,,,0,0,3,10,0.017875056713819504,9,28.499,,39.952638,,-113.4759759,False,0.2452932149899425,33.396,,38.89795979298587,,-77.03658475538644,4.897,,39.9526381,,-113.475976,-4.92305850982666,-0.002661417704075575,0.03635573014616966,-1,MISSION,,,,,,ACTIVE,9.905431032180786,0.01,0.01,-1.47,12,1,15,0,17760384,128,2
1733424263.7117345,0.0,True,static_gps_spoofer,-0.0001893738517537713,0.0018377614906057715,0.15918508172035217,-1.0,89,15.955,0,0,False,,,,0,0,3,10,0.015882141888141632,9,28.499,,39.952638,,-113.4759759,False,0.3446781539969379,33.539,,38.89787121224958,,-77.03648215540119,5.04,,39.9526381,,-113.475976,-5.054449558258057,-0.0013411343097686768,0.038813043385744095,-1,MISSION,,,,,,ACTIVE,1733424253.8063035,0.0,0.01,-1.47,12,1,15,0,17760384,128,2
1733424263.811729,0.0,True,static_gps_spoofer,-0.0002552343939896673,0.0019021665211766958,0.15924999117851257,-1.0,89,15.955,0,0,False,,,,0,0,3,10,0.015882141888141632,9,28.499,,39.952638,,-113.4759759,False,0.4446445350040449,33.659,,38.89790340303464,,-77.03660954668442,5.16,,39.9526381,,-113.475976,-5.18578577041626,-1.4539800758939236e-06,0.04081309959292412,-1,MISSION,,,,,,ACTIVE,10.005425453186035,0.0,0.01,-1.47,12,1,15,0,17760384,128,2
1733424263.915691,0.0,True,static_gps_spoofer,-0.00026220735162496567,0.0014488386223092675,0.15909315645694733,-1.0,88,15.948,0,0,False,,,,0,0,3,10,0.014147389680147171,9,28.499,,39.952638,,-113.4759759,False,0.5479553189943545,33.814,,38.89795792114064,,-77.03662795284788,5.315,,39.9526381,,-113.4759759,-5.305144309997559,0.0014460344100371003,0.04246218502521515,-1,MISSION,,,,,,ACTIVE,1733424253.9102654,0.0,0.01,-1.47,12,1,15,0,17760384,128,2
1733424264.0119884,0.0,True,static_gps_spoofer,0.00010457561438670382,0.0012427554465830326,0.15887336432933807,-1.0,88,15.948,0,0,False,,,,0,0,3,10,0.015002393163740635,9,28.499,,39.952638,,-113.4759759,False,0.6445349470013753,33.934,,38.8981198850117,,-77.0366133932392,5.434,,39.9526381,,-113.4759759,-5.460509300231934,0.003561988938599825,0.04456588998436928,-1,MISSION,,,,,,ACTIVE,10.101722955703735,0.0,0.01,-1.47,12,1,15,0,17760384,128,2
1733424264.1121132,0.0,True,static_gps_spoofer,0.00023463292745873332,0.0009850211208686233,0.15873926877975464,-1.0,88,15.942,0,0,False,,,,0,0,3,10,0.0150804677978158,9,28.499,,39.952638,,-113.4759759,False,0.7424643379927147,34.077,,38.898006496017,,-77.03661346242716,5.578,,39.9526382,,-113.4759759,-5.580195426940918,0.005498239304870367,0.04596696421504021,-1,MISSION,,,,,,ACTIVE,1733424254.0103903,0.0,0.01,-1.47,12,1,15,0,17760384,128,2
1733424264.2155845,0.0,True,static_gps_spoofer,-4.7667097533121705e-05,0.0004306923656258732,0.15869693458080292,-1.0,88,15.942,0,0,False,,,,0,0,3,10,0.015466136857867241,9,28.499,,39.952638,,-113.4759759,False,0.8465353729989147,34.197,,38.89788679415171,,-77.03654592612055,5.698,,39.9526382,,-113.4759759,-5.7240705490112305,0.008041190914809704,0.04733148217201233,-1,MISSION,,,,,,ACTIVE,10.205194234848022,0.0,0.01,-1.48,12,1,15,0,17760384,128,2
1733424264.3177366,0.0,True,static_gps_spoofer,-0.00019987238920293748,0.00037004909245297313,0.15877051651477814,-1.0,88,15.937,0,0,False,,,,0,0,3,10,0.016102395951747894,9,28.499,,39.952638,,-113.4759759,False,0.9511536310019437,34.353,,38.897882131674635,,-77.03677466313435,5.854,,39.9526382,,-113.4759758,-5.856258392333984,0.010523534379899502,0.048460669815540314,-1,MISSION,,,,,,ACTIVE,1733424254.1125424,0.0,0.01,-1.48,12,1,15,0,17760384,128,2
1733424264.4173765,0.0,True,static_gps_spoofer,-2.4630517145851627e-05,-0.00038869475247338414,0.15864163637161255,-1.0,87,15.933,0,0,False,,,,0,0,3,10,0.016384532675147057,9,28.499,,39.952638,,-113.4759759,False,0.028639053998631425,34.498,,38.89791698774515,,-77.03635594749623,5.998,,39.9526382,,-113.4759758,-6.000760555267334,0.013271689414978027,0.0497196801006794,-1,MISSION,,,,,,ACTIVE,10.304834127426147,-0.01,0.01,-1.48,12,1,15,0,17760384,128,2
1733424264.5167117,0.0,True,static_gps_spoofer,-0.0001801820908440277,-0.0004905634559690952,0.15855059027671814,-1.0,87,15.93,0,0,False,,,,0,0,3,10,0.017833465710282326,9,28.499,,39.952638,,-113.4759759,False,0.022506950990646146,34.618,,38.89801257116146,,-77.03654148471702,6.119,,39.9526382,,-113.4759758,-6.121410846710205,0.015564784407615662,0.05053006485104561,-1,MISSION,,,,,,ACTIVE,1733424254.2118776,-0.01,0.01,-1.48,12,1,15,0,17760384,128,2
1733424264.620715,0.0,True,static_gps_spoofer,-0.0005690333200618625,-0.000668585707899183,0.1580083668231964,-1.0,87,15.93,0,0,False,,,,0,0,3,10,0.019593507051467896,9,28.499,,39.952638,,-113.4759759,False,0.12479180400259793,34.739,,38.89788096887684,,-77.03662827293718,6.24,,39.9526382,,-113.4759757,-6.266507625579834,0.01817084290087223,0.05128529667854309,-1,MISSION,,,,,,ACTIVE,10.40883731842041,-0.01,0.01,-1.48,12,1,15,0,17760384,128,2
1733424264.7170942,0.0,True,static_gps_spoofer,-0.0007450130069628358,-0.0010251867352053523,0.1578529328107834,-1.0,87,15.924,0,0,False,,,,0,0,3,10,0.020645668730139732,9,28.499,,39.952638,,-113.4759759,False,0.22492550099559594,34.897,,38.89802419744974,,-77.0365696858726,6.397,,39.9526382,,-113.4759757,-6.3998703956604,0.02057456225156784,0.051844291388988495,-1,MISSION,,,,,,ACTIVE,1733424254.3082569,-0.01,0.0,-1.49,12,1,15,0,17760384,128,2
1733424264.8205214,0.0,True,static_gps_spoofer,-0.00086377770639956,-0.001455724355764687,0.15771716833114624,-1.0,87,15.924,0,0,False,,,,0,0,3,10,0.020645668730139732,9,28.499,,39.952638,,-113.4759759,False,0.3295629380008904,35.042,,38.898073400353525,,-77.03641062413038,6.543,,39.9526382,,-113.4759757,-6.54546594619751,0.0232709851115942,0.05255499109625816,-1,MISSION,,,,,,ACTIVE,10.512264490127563,-0.02,0.0,-1.49,12,1,15,0,17760384,128,2
1733424264.9214115,0.0,True,static_gps_spoofer,-0.0008346223039552569,-0.00195513479411602,0.1578996628522873,-1.0,87,15.924,0,0,False,,,,0,0,3,10,0.022928694263100624,9,28.499,,39.952638,,-113.4759759,False,0.4282165030017495,35.164,,38.897897668065816,,-77.03642917968915,6.664,,39.9526382,,-113.4759756,-6.666837215423584,0.025576287880539894,0.05308496952056885,-1,MISSION,,,,,,ACTIVE,1733424254.409147,-0.02,0.0,-1.49,12,1,15,0,17760384,128,2
1733424265.023284,0.0,True,static_gps_spoofer,-0.0011384525569155812,-0.002141266129910946,0.15800048410892487,-1.0,87,15.919,0,0,False,,,,0,0,3,10,0.02311442233622074,9,28.499,,39.952638,,-113.4759759,False,0.5294032370002242,35.322,,38.89788989195521,,-77.03657751310756,6.822,,39.9526382,,-113.4759756,-6.812531471252441,0.028334936127066612,0.05345916748046875,-1,MISSION,,,,,,ACTIVE,10.614136934280396,-0.02,0.0,-1.49,12,1,15,0,17760384,128,2
1733424265.125667,0.0,True,static_gps_spoofer,-0.0008406431879848242,-0.002202555537223816,0.15811127424240112,-1.0,87,15.919,0,0,False,,,,0,0,3,10,0.023306280374526978,9,28.499,,39.952638,,-113.4759759,False,0.6348245989938732,35.443,,38.89769906826153,,-77.0366378375571,6.944,,39.9526382,,-113.4759756,-6.95807409286499,0.030958540737628937,0.053660519421100616,-1,MISSION,,,,,,ACTIVE,1733424254.5115302,-0.02,0.0,-1.49,12,1,15,0,17760384,128,2
1733424265.2255287,0.0,True,static_gps_spoofer,-0.0010182616533711553,-0.0021739164367318153,0.1585017293691635,-1.0,86,15.913,0,0,False,,,,0,0,3,10,0.024448856711387634,9,28.499,,39.952638,,-113.4759759,False,0.7348442119982792,35.589,,38.8980426835028,,-77.0364741091392,7.089,,39.9526382,,-113.4759756,-7.091641426086426,0.03309358283877373,0.053485117852687836,-1,MISSION,,,,,,ACTIVE,10.713998556137085,-0.02,0.0,-1.49,12,1,15,0,17760384,128,2
1733424265.323748,0.0,True,static_gps_spoofer,-0.0012253995519131422,-0.0020806293468922377,0.1586608737707138,-1.0,86,15.913,0,0,False,,,,0,0,3,10,0.025542594492435455,9,28.499,,39.952638,,-113.4759759,False,0.8323207429930335,35.71,,38.89792541051962,,-77.03662239043555,7.211,,39.9526382,,-113.4759755,-7.2132134437561035,0.03498513624072075,0.0529874786734581,-1,MISSION,,,,,,ACTIVE,1733424254.6097496,-0.02,0.0,-1.5,12,1,15,0,17760384,128,2
1733424265.4253776,0.0,True,static_gps_spoofer,-0.0013880538754165173,-0.0022687583696097136,0.15874521434307098,-1.0,86,15.907,0,0,False,,,,0,0,3,10,0.026945510879158974,9,28.499,,39.952638,,-113.4759759,False,0.9341892359952908,35.868,,38.897747094340765,,-77.03666938259414,7.369,,39.9526382,,-113.4759755,-7.371420860290527,0.03722045570611954,0.05190929025411606,-1,MISSION,,,,,,ACTIVE,10.815628051757812,-0.02,0.0,-1.5,12,1,15,0,17760384,128,2
1733424265.5263863,0.0,True,static_gps_spoofer,-0.001740104635246098,-0.0025174987968057394,0.15907502174377441,-1.0,86,15.903,0,0,False,,,,0,0,3,10,0.02993432991206646,9,28.499,,39.952638,,-113.4759759,False,0.01830591500038281,35.99,,38.89776742056982,,-77.03654876092685,7.491,,39.9526382,,-113.4759755,-7.481113433837891,0.03857337683439255,0.05076872557401657,-1,MISSION,,,,,,ACTIVE,1733424254.7107582,-0.02,0.0,-1.5,12,1,15,0,17760384,128,2
1733424265.6254532,0.0,True,static_gps_spoofer,-0.0023658229038119316,-0.002744240453466773,0.15952067077159882,-1.0,86,15.901,0,0,False,,,,0,0,3,10,0.032139722257852554,9,28.499,,39.952638,,-113.4759759,False,0.018507777000195347,36.136,,38.89808399154174,,-77.03664734949574,7.637,,39.9526382,,-113.4759755,-7.639461994171143,0.040118467062711716,0.04876869171857834,-1,MISSION,,,,,,ACTIVE,10.914695024490356,-0.03,0.0,-1.5,12,1,15,0,17760384,128,2
1733424265.7262518,0.0,True,static_gps_spoofer,-0.002860276959836483,-0.002624892396852374,0.15964120626449585,-1.0,86,15.901,0,0,False,,,,0,0,3,10,0.034639496356248856,9,28.499,,39.952638,,-113.4759759,False,0.12027648100047372,36.258,,38.898000298589615,,-77.0365160216241,7.759,,39.9526382,,-113.4759755,-7.773355960845947,0.04107097163796425,0.04680177941918373,-1,MISSION,,,,,,ACTIVE,1733424254.8115568,-0.03,-0.01,-1.5,12,1,15,0,17760384,128,2
1733424265.825814,0.0,True,static_gps_spoofer,-0.0035939014051109552,-0.0025575407780706882,0.15942353010177612,-1.0,86,15.901,0,0,False,,,,0,0,3,10,0.035475533455610275,9,28.499,,39.952638,,-113.4759759,False,0.21812862699152902,36.38,,38.89801094898843,,-77.03650727497353,7.88,,39.9526382,,-113.4759755,-7.90723180770874,0.041637685149908066,0.04459281265735626,-1,MISSION,,,,,,ACTIVE,11.014257192611694,-0.03,-0.01,-1.5,12,1,15,0,17760384,128,2
1733424265.928186,0.0,True,static_gps_spoofer,-0.0037899028975516558,-0.002408922417089343,0.15953406691551208,-1.0,85,15.895,0,0,False,,,,0,0,3,10,0.034513238817453384,9,28.499,,39.952638,,-113.4759759,False,0.32120245399710257,36.538,,38.89797111783631,,-77.0364606614261,8.039,,39.9526381,,-113.4759755,-8.028992652893066,0.0419735461473465,0.04255479946732521,-1,MISSION,,,,,,ACTIVE,1733424254.9139287,-0.03,-0.01,-1.5,12,1,15,0,17760384,128,2
1733424266.0288928,0.0,True,static_gps_spoofer,-0.004186149220913649,-0.0022799090947955847,0.15958240628242493,-1.0,85,15.895,0,0,False,,,,0,0,3,10,0.036723241209983826,9,28.499,,39.952638,,-113.4759759,False,0.41952460299944505,36.66,,38.89792937350407,,-77.03676303141845,8.161,,39.9526381,,-113.4759755,-8.175080299377441,0.04187929630279541,0.039983440190553665,-1,MISSION,,,,,,ACTIVE,11.114964008331299,-0.03,-0.01,-1.5,12,1,15,0,17760384,128,2
1733424266.1290271,0.0,True,static_gps_spoofer,-0.004675918258726597,-0.00217618839815259,0.1595035046339035,-1.0,85,15.889,0,0,False,,,,0,0,3,10,0.03731580451130867,9,28.499,,39.952638,,-113.4759759,False,0.5197159520030254,36.782,,38.89801773675437,,-77.03656572519382,8.282,,39.9526381,,-113.4759755,-8.284751892089844,0.04162227362394333,0.03794148191809654,-1,MISSION,,,,,,ACTIVE,1733424255.0140631,-0.03,-0.01,-1.5,12,1,15,0,17760384,128,2
1733424266.2348638,0.0,True,static_gps_spoofer,-0.0048805358819663525,-0.0020048655569553375,0.15986056625843048,-1.0,85,15.889,0,0,False,,,,0,0,3,10,0.036469679325819016,9,28.499,,39.952638,,-113.4759759,False,0.6289339170034509,36.904,,38.89785142282617,,-77.03657939343012,8.404,,39.9526381,,-113.4759755,-8.431143760681152,0.04106992855668068,0.035076458007097244,-1,MISSION,,,,,,ACTIVE,11.220800638198853,-0.03,-0.02,-1.5,12,1,15,0,17760384,128,2
1733424266.3301451,0.0,True,static_gps_spoofer,-0.00508685689419508,-0.0018167787929996848,0.15968310832977295,-1.0,85,15.882,0,0,False,,,,0,0,3,10,0.03604310750961304,9,28.499,,39.952638,,-113.4759759,False,0.722559709000052,37.05,,38.897994467257604,,-77.03652496171668,8.551,,39.952638,,-113.4759755,-8.553121566772461,0.04046785831451416,0.03265993297100067,-1,MISSION,,,,,,ACTIVE,1733424255.1093445,-0.02,-0.02,-1.5,12,1,15,0,17760384,128,2
1733424266.4305515,0.0,True,static_gps_spoofer,-0.005304014775902033,-0.0018797792727127671,0.15949390828609467,-1.0,85,15.882,0,0,False,,,,0,0,3,10,0.03516978770494461,9,28.499,,39.952638,,-113.4759759,False,0.8226953499979572,37.172,,38.897836472384455,,-77.03662731277963,8.673,,39.952638,,-113.4759755,-8.687297821044922,0.03957388177514076,0.0301407128572464,-1,MISSION,,,,,,ACTIVE,11.321207046508789,-0.02,-0.02,-1.5,12,1,15,0,17760384,128,2
1733424266.5295572,0.0,True,static_gps_spoofer,-0.005730814766138792,-0.0013360480079427361,0.15957236289978027,-1.0,85,15.882,0,0,False,,,,0,0,3,10,0.03516978770494461,9,28.499,,39.952638,,-113.4759759,False,0.9209855849912856,37.294,,38.897767435953995,,-77.03660114803624,8.795,,39.952638,,-113.4759755,-8.797146797180176,0.03858976438641548,0.027971811592578888,-1,MISSION,,,,,,ACTIVE,1733424255.2083502,-0.02,-0.02,-1.5,12,1,15,0,17760384,128,2
1733424266.630485,0.0,True,static_gps_spoofer,-0.006259211339056492,-0.0011755124432966113,0.1592215746641159,-1.0,84,15.876,0,0,False,,,,0,0,3,10,0.034825485199689865,9,28.499,,39.952638,,-113.4759759,False,1.0235292180004762,37.453,,38.89793985010269,,-77.03658710464993,8.953,,39.952638,,-113.4759755,-8.943604469299316,0.03705773875117302,0.02495766431093216,-1,MISSION,,,,,,ACTIVE,11.42213487625122,-0.02,-0.02,-1.5,12,1,15,0,17760384,128,2
1733424266.7327127,0.0,True,static_gps_spoofer,-0.006612525787204504,-0.0007066031685099006,0.15891942381858826,-1.0,84,15.873,0,0,False,,,,0,0,3,10,0.036125071346759796,9,28.499,,39.952638,,-113.4759759,False,0.05963583500124514,37.575,,38.89809340404244,,-77.03640471059849,9.075,,39.9526379,,-113.4759755,-9.089986801147461,0.03506159409880638,0.021500810980796814,-1,MISSION,,,,,,ACTIVE,1733424255.3105779,-0.02,-0.02,-1.5,12,1,15,0,17760384,128,2
1733424266.8356864,0.0,True,static_gps_spoofer,-0.007348102517426014,5.555110692512244e-05,0.15879854559898376,-1.0,84,15.87,0,0,False,,,,0,0,3,10,0.037035804241895676,9,28.499,,39.952638,,-113.4759759,False,0.0673162089951802,37.721,,38.89794970279043,,-77.03675064302246,9.221,,39.9526379,,-113.4759756,-9.22389030456543,0.032796576619148254,0.018125759437680244,-1,MISSION,,,,,,ACTIVE,11.525108575820923,-0.02,-0.02,-1.5,12,1,15,0,17760384,128,2
1733424266.9381664,0.0,True,static_gps_spoofer,-0.008049081079661846,0.00045141010195948184,0.15849775075912476,-1.0,84,15.87,0,0,False,,,,0,0,3,10,0.03720999136567116,9,28.499,,39.952638,,-113.4759759,False,0.17013977099850308,37.879,,38.89796191023135,,-77.03667792345662,9.38,,39.9526379,,-113.4759756,-9.369813919067383,0.030198408290743828,0.014187305234372616,-1,MISSION,,,,,,ACTIVE,1733424255.4130578,-0.02,-0.02,-1.5,12,1,15,0,17760384,128,2
1733424267.0364616,0.0,True,static_gps_spoofer,-0.008506056852638721,0.0007540905498899519,0.1582966148853302,-1.0,84,15.864,0,0,False,,,,0,0,3,10,0.035883981734514236,9,28.499,,39.952638,,-113.4759759,False,0.2665374719945248,38.001,,38.898029018619106,,-77.03662429658823,9.501,,39.9526378,,-113.4759756,-9.503687858581543,0.027729127556085587,0.01051235105842352,-1,MISSION,,,,,,ACTIVE,11.623403787612915,-0.02,-0.02,-1.51,12,1,15,0,17760384,128,2
1733424267.1400611,0.0,True,static_gps_spoofer,-0.00857106875628233,0.0007342086173593998,0.15829138457775116,-1.0,84,15.864,0,0,False,,,,0,0,3,10,0.03318614512681961,9,28.499,,39.952638,,-113.4759759,False,0.3728635379957268,38.147,,38.89794572204584,,-77.03654984861343,9.647,,39.9526378,,-113.4759757,-9.649739265441895,0.024976063519716263,0.006728868465870619,-1,MISSION,,,,,,ACTIVE,1733424255.5166574,-0.02,-0.02,-1.51,12,1,15,0,17760384,128,2
1733424267.2406945,0.0,True,static_gps_spoofer,-0.00919131375849247,0.0007903904188424349,0.1584092080593109,-1.0,83,15.859,0,0,False,,,,0,0,3,10,0.031746894121170044,9,28.499,,39.952638,,-113.4759759,False,0.47228109299612697,38.269,,38.89812780686546,,-77.03672522287931,9.769,,39.9526378,,-113.4759757,-9.771546363830566,0.022347422316670418,0.0035612445790320635,-1,MISSION,,,,,,ACTIVE,11.724037170410156,-0.01,-0.02,-1.51,12,1,15,0,17760384,128,2
1733424267.33912,0.0,True,static_gps_spoofer,-0.009528121910989285,0.0017122220015153289,0.15864533185958862,-1.0,83,15.859,0,0,False,,,,0,0,3,10,0.030231794342398643,9,28.499,,39.952638,,-113.4759759,False,0.5687073479930405,38.427,,38.898062542717135,,-77.03677395829827,9.928,,39.9526377,,-113.4759757,-9.917737007141113,0.0186507236212492,-9.150724508799613e-06,-1,MISSION,,,,,,ACTIVE,1733424255.6150827,-0.01,-0.02,-1.51,12,1,15,0,17760384,128,2
1733424267.4392774,0.0,True,static_gps_spoofer,-0.009901854209601879,0.001923956093378365,0.15893098711967468,-1.0,83,15.853,0,0,False,,,,0,0,3,10,0.028605123981833458,9,28.499,,39.952638,,-113.4759759,False,0.6710964160010917,38.549,,38.897791020993644,,-77.0365166802081,10.049,,39.9526377,,-113.4759758,-10.05164623260498,0.015019802376627922,-0.00309306220151484,-1,MISSION,,,,,,ACTIVE,11.82419466972351,-0.01,-0.02,-1.51,12,1,15,0,17760384,128,2
1733424267.5397284,0.0,True,static_gps_spoofer,-0.010203050449490547,0.002534730825573206,0.15882402658462524,-1.0,83,15.853,0,0,False,,,,0,0,3,10,0.027713410556316376,9,28.499,,39.952638,,-113.4759759,False,0.768700914006331,38.695,,38.89789679447675,,-77.03657110917266,10.195,,39.9526377,,-113.4759758,-10.197874069213867,0.010821224190294743,-0.006206981372088194,-1,MISSION,,,,,,ACTIVE,1733424255.7155337,0.0,-0.02,-1.52,12,1,15,0,17760384,128,2
1733424267.6394696,0.0,True,static_gps_spoofer,-0.010309893637895584,0.0031536570750176907,0.1586885005235672,-1.0,83,15.853,0,0,False,,,,0,0,3,10,0.026766810566186905,9,28.499,,39.952638,,-113.4759759,False,0.8699960950034438,38.819,,38.89800356754143,,-77.03663153688845,10.319,,39.9526377,,-113.4759759,-10.32180118560791,0.00714987562969327,-0.008607570081949234,-1,MISSION,,,,,,ACTIVE,11.923935890197754,0.0,-0.02,-1.56,12,1,15,0,17760384,128,2
1733424267.7406735,0.0,True,static_gps_spoofer,-0.010405105538666248,0.003536586184054613,0.15853184461593628,-1.0,83,15.846,0,0,False,,,,0,0,3,10,0.023335304111242294,9,28.499,,39.952638,,-113.4759759,False,0.9728285669989418,38.986,,38.89797278634708,,-77.03637317990795,10.487,,39.9526376,,-113.4759759,-10.476211547851562,0.0028808237984776497,-0.011159100569784641,-1,MISSION,,,,,,ACTIVE,1733424255.8167377,0.0,-0.02,-1.65,12,1,15,0,17760384,128,2
1733424267.8399465,0.0,True,static_gps_spoofer,-0.010172544047236443,0.003918446134775877,0.15862785279750824,-1.0,82,15.843,0,0,False,,,,0,0,3,10,0.020283503457903862,9,28.499,,39.952638,,-113.4759759,False,0.06217688300239388,39.123,,38.89801501817932,,-77.03683172533633,10.624,,39.9526376,,-113.475976,-10.640101432800293,-0.0011625944171100855,-0.013146755285561085,-1,MISSION,,,,,,ACTIVE,12.023208856582642,0.0,-0.01,-1.75,12,1,15,0,17760384,128,2
1733424267.9452522,0.0,True,static_gps_spoofer,-0.009935066103935242,0.004644780419766903,0.15848106145858765,-1.0,82,15.84,0,0,False,,,,0,0,3,10,0.017815222963690758,9,28.499,,39.952638,,-113.4759759,False,0.07148496199806686,39.298,,38.8980529074509,,-77.03662090914149,10.799,,39.9526376,,-113.475976,-10.801193237304688,-0.00489089684560895,-0.014328026212751865,-1,MISSION,,,,,,ACTIVE,1733424255.9220433,0.0,-0.01,-1.9,12,1,15,0,17760384,128,2
1733424268.0470858,0.0,True,static_gps_spoofer,-0.009307355619966984,0.004276716150343418,0.15816202759742737,-1.0,82,15.84,0,0,False,,,,0,0,3,10,0.015103545039892197,9,28.499,,39.952638,,-113.4759759,False,0.17397174600046128,39.505,,38.89799922608441,,-77.0364434268485,11.006,,39.9526376,,-113.4759761,-10.991755485534668,-0.008840749971568584,-0.015018606558442116,-1,MISSION,,,,,,ACTIVE,12.12504243850708,0.01,0.0,-2.1,12,1,15,0,17760384,128,2
1733424268.1477153,0.0,True,static_gps_spoofer,-0.008497649803757668,0.004105984698981047,0.15759055316448212,-1.0,82,15.834,0,0,False,,,,0,0,3,10,0.015715334564447403,9,28.499,,39.952638,,-113.4759759,False,0.2741387120040599,39.68,,38.89799598916071,,-77.03667515188876,11.18,,39.9526376,,-113.4759761,-11.182547569274902,-0.012210937216877937,-0.015210448764264584,-1,MISSION,,,,,,ACTIVE,1733424256.022673,0.01,0.0,-2.29,12,1,15,0,17760384,128,2
1733424268.2483425,0.0,True,static_gps_spoofer,-0.00833151862025261,0.004285290837287903,0.15688642859458923,-1.0,82,15.834,0,0,False,,,,0,0,3,10,0.017865464091300964,9,28.499,,39.952638,,-113.4759759,False,0.37444132499513216,39.907,,38.89799467028969,,-77.03661300132026,11.407,,39.9526376,,-113.4759761,-11.409879684448242,-0.01568702608346939,-0.015102377161383629,-1,MISSION,,,,,,ACTIVE,12.225669622421265,0.01,0.0,-2.5,12,1,15,0,17760384,128,2
1733424268.3536742,0.0,True,static_gps_spoofer,-0.0076240370981395245,0.00472251744940877,0.15593665838241577,-1.0,82,15.828,0,0,False,,,,0,0,3,10,0.022307520732283592,8,28.499,,39.952638,,-113.4759759,False,0.4758242850075476,40.11,,38.898024705708785,,-77.03654888755388,11.61,,39.9526376,,-113.4759762,-11.612593650817871,-0.018639719113707542,-0.014832519926130772,-1,MISSION,,,,,,ACTIVE,1733424256.1280046,0.02,0.0,-2.65,12,1,15,0,17760384,128,2
1733424268.4488196,0.0,True,static_gps_spoofer,-0.00721856439486146,0.005246991291642189,0.15529422461986542,-1.0,82,15.828,0,0,False,,,,0,0,3,10,0.023443464189767838,8,28.499,,39.952638,,-113.4759759,False,0.5741769860032946,40.387,,38.89792018625725,,-77.03658779409207,11.888,,39.9526376,,-113.4759762,-11.868552207946777,-0.022059904411435127,-0.014388063922524452,-1,MISSION,,,,,,ACTIVE,12.320815086364746,0.02,0.0,-2.81,12,1,15,0,17760384,128,2
1733424268.553042,0.0,True,static_gps_spoofer,-0.0071477084420621395,0.005331636872142553,0.15543140470981598,-1.0,81,15.822,0,0,False,,,,0,0,3,10,0.02466135285794735,8,28.499,,39.952638,,-113.4759759,False,0.6799060710036429,40.61,,38.89795228923671,,-77.03660262824445,12.11,,39.9526376,,-113.4759762,-12.112737655639648,-0.025113193318247795,-0.013877877965569496,-1,MISSION,,,,,,ACTIVE,1733424256.2322268,0.02,0.0,-2.89,12,1,15,0,17760384,128,2
1733424268.65855,0.0,True,static_gps_spoofer,-0.00708684092387557,0.005376188084483147,0.15536034107208252,-1.0,81,15.822,0,0,False,,,,0,0,3,10,0.026231620460748672,8,28.499,,39.952638,,-113.4759759,False,0.7849493560061092,40.884,,38.89797892071169,,-77.03645716520667,12.384,,39.9526376,,-113.4759763,-12.409850120544434,-0.028474584221839905,-0.013286209665238857,-1,MISSION,,,,,,ACTIVE,12.426323175430298,0.02,0.0,-2.96,12,1,15,0,17760384,128,2
1733424268.7588089,0.0,True,static_gps_spoofer,-0.006804312113672495,0.005224853754043579,0.15570735931396484,-1.0,81,15.822,0,0,False,,,,0,0,3,10,0.026231620460748672,8,28.499,,39.952638,,-113.4759759,False,0.8848521080071805,41.116,,38.8979319377847,,-77.0364398465826,12.617,,39.9526376,,-113.4759763,-12.666180610656738,-0.030865555629134178,-0.012753942050039768,-1,MISSION,,,,,,ACTIVE,1733424256.3324857,0.02,0.01,-2.99,12,1,15,0,17760384,128,2
