timestamp,airspeed,armed,attitude.pitch,attitude.roll,attitude.yaw,battery.current,battery.level,battery.voltage,commands.count,commands.next,ekf_ok,gimbal.pitch,gimbal.roll,gimbal.yaw,gps_0.eph,gps_0.epv,gps_0.fix_type,gps_0.satellites_visible,groundspeed,heading,home_location.alt,home_location.global_frame,home_location.lat,home_location.local_frame,home_location.lon,is_armable,last_heartbeat,location.global_frame.alt,location.global_frame.global_frame,location.global_frame.lat,location.global_frame.local_frame,location.global_frame.lon,location.global_relative_frame.alt,location.global_relative_frame.global_frame,location.global_relative_frame.lat,location.global_relative_frame.local_frame,location.global_relative_frame.lon,location.local_frame.down,location.local_frame.east,location.local_frame.north,ml_verdict,mode.name,mount_status[0],mount_status[1],mount_status[2],rangefinder.distance,rangefinder.voltage,system_status.state,timedelta,velocity[0],velocity[1],velocity[2],version.autopilot_type,version.major,version.minor,version.patch,version.raw_version,version.release,version.vehicle_type
1732729749.591646,0.0,True,0.03545122966170311,-0.03355852887034416,-3.13130784034729,0.26,37,15.017,0,0,False,,,,62,89,4,21,0.2697812020778656,180,76.493,,39.1424083,,-76.7304791,False,0.019210240999200323,77.245,,39.14241,,-76.730483,0.088,,39.14241,,-76.730483,12.778446197509766,6.402864456176758,-23.404769897460938,value_here,POSCTL,,,,8,,ACTIVE,1732729674.6477618,0.1,0.23,-0.13,12,1,15,2,17760768,0,13
1732729749.6861517,0.0,True,0.03548494726419449,-0.03338242694735527,-3.131312608718872,0.26,37,15.017,0,0,False,,,,62,89,4,21,0.26076406240463257,180,76.493,,39.1424083,,-76.7304791,False,0.1065650189993903,77.268,,39.1424101,,-76.730483,0.111,,39.1424101,,-76.730483,12.778446197509766,6.402864456176758,-23.404769897460938,value_here,POSCTL,,,,8,,ACTIVE,75.03838992118835,0.1,0.24,-0.12,12,1,15,2,17760768,0,13
1732729749.7876062,0.0,True,0.03535206988453865,-0.03295442461967468,-3.1313729286193848,0.26,37,15.017,0,0,False,,,,62,89,4,20,0.26076406240463257,180,76.493,,39.1424083,,-76.7304791,False,0.21732885199980956,77.278,,39.1424101,,-76.730483,0.121,,39.1424101,,-76.730483,12.762182235717773,6.403763294219971,-23.399765014648438,value_here,POSCTL,,,,9,,ACTIVE,1732729674.7492163,0.09,0.24,-0.12,12,1,15,2,17760768,0,13
1732729749.8865938,0.0,True,0.034650254994630814,-0.03239942342042923,-3.131617784500122,0.26,37,15.017,0,0,False,,,,64,94,4,20,0.26076406240463257,180,76.493,,39.1424083,,-76.7304791,False,0.3043882219999432,77.303,,39.1424101,,-76.7304832,0.145,,39.1424101,,-76.7304832,12.741291999816895,6.389463901519775,-23.40003204345703,value_here,POSCTL,,,,9,,ACTIVE,75.13737750053406,0.09,0.22,-0.13,12,1,15,2,17760768,0,13
1732729749.986757,0.0,True,0.034561872482299805,-0.031877025961875916,-3.132021427154541,1.22,37,15.006,0,0,False,,,,64,94,4,20,0.2532305121421814,180,76.493,,39.1424083,,-76.7304791,False,0.40615209299994603,77.317,,39.1424101,,-76.7304832,0.159,,39.1424101,,-76.7304832,12.719744682312012,6.382134914398193,-23.398956298828125,value_here,POSCTL,,,,9,,ACTIVE,1732729674.8493795,0.09,0.23,-0.14,12,1,15,2,17760768,0,13
1732729750.0868757,0.0,True,0.03425000235438347,-0.0314004085958004,-3.131997585296631,1.22,37,15.006,0,0,False,,,,64,94,4,21,0.2532305121421814,180,76.493,,39.1424083,,-76.7304791,False,0.5109505559994432,77.342,,39.1424101,,-76.7304834,0.185,,39.1424101,,-76.7304834,12.697367668151855,6.374972820281982,-23.39881134033203,value_here,POSCTL,,,,9,,ACTIVE,75.23749613761902,0.08,0.23,-0.15,12,1,15,2,17760768,0,13
1732729750.1871107,0.0,True,0.0341336689889431,-0.03102472797036171,-3.132021427154541,1.22,37,15.006,0,0,False,,,,64,94,4,22,0.2532305121421814,180,76.493,,39.1424083,,-76.7304791,False,0.6138508699996237,77.357,,39.1424101,,-76.7304834,0.2,,39.1424101,,-76.7304834,12.673502922058105,6.3678412437438965,-23.396835327148438,value_here,POSCTL,,,,8,,ACTIVE,1732729674.9496145,0.08,0.23,-0.15,12,1,15,2,17760768,0,13
1732729750.2874975,0.0,True,0.033949095755815506,-0.03050173446536064,-3.1319403648376465,1.22,37,15.006,0,0,False,,,,62,89,4,22,0.2532305121421814,180,76.493,,39.1424083,,-76.7304791,False,0.71465320399966,77.383,,39.1424102,,-76.7304835,0.225,,39.1424102,,-76.7304835,12.653746604919434,6.362008571624756,-23.39501190185547,value_here,POSCTL,,,,8,,ACTIVE,75.33788299560547,0.08,0.23,-0.15,12,1,15,2,17760768,0,13
1732729750.3880205,0.0,True,0.03361411392688751,-0.029940515756607056,-3.131866216659546,1.22,37,15.006,0,0,False,,,,62,89,4,21,0.2503789961338043,180,76.493,,39.1424083,,-76.7304791,False,0.8175096850000045,77.394,,39.1424102,,-76.7304835,0.237,,39.1424102,,-76.7304835,12.635454177856445,6.360434055328369,-23.392192840576172,value_here,POSCTL,,,,8,,ACTIVE,1732729675.0501375,0.07,0.23,-0.14,12,1,15,2,17760768,0,13
1732729750.4874294,0.0,True,0.033384572714567184,-0.02965564839541912,-3.132286310195923,1.22,37,15.006,0,0,False,,,,62,89,4,21,0.2503789961338043,180,76.493,,39.1424083,,-76.7304791,False,0.9091662589999032,77.417,,39.1424102,,-76.7304836,0.26,,39.1424102,,-76.7304836,12.635454177856445,6.360434055328369,-23.392192840576172,value_here,POSCTL,,,,9,,ACTIVE,75.43729186058044,0.07,0.22,-0.16,12,1,15,2,17760768,0,13
1732729750.5876205,0.0,True,0.033176470547914505,-0.028793450444936752,-3.1322593688964844,1.22,37,15.006,0,0,False,,,,64,94,4,21,0.2503789961338043,180,76.493,,39.1424083,,-76.7304791,False,0.010335758999644895,77.43,,39.1424102,,-76.7304836,0.272,,39.1424102,,-76.7304836,12.61546802520752,6.355395317077637,-23.3902587890625,value_here,POSCTL,,,,9,,ACTIVE,1732729675.1503286,0.07,0.22,-0.17,12,1,15,2,17760768,0,13
1732729750.6883347,0.0,True,0.032959144562482834,-0.028462685644626617,-3.132220506668091,1.16,37,15.005,0,0,False,,,,64,94,4,21,0.23443429172039032,180,76.493,,39.1424083,,-76.7304791,False,0.1384178879998217,77.441,,39.1424102,,-76.7304837,0.284,,39.1424102,,-76.7304837,12.595059394836426,6.33968448638916,-23.390661239624023,value_here,POSCTL,,,,9,,ACTIVE,75.538006067276,0.07,0.22,-0.16,12,1,15,2,17760768,0,13
1732729750.7884712,0.0,True,0.032496340572834015,-0.027985969558358192,-3.132080078125,1.16,37,15.005,0,0,False,,,,62,89,4,21,0.23443429172039032,180,76.493,,39.1424083,,-76.7304791,False,0.2316799070003981,77.464,,39.1424102,,-76.7304838,0.307,,39.1424102,,-76.7304838,12.575541496276855,6.332333564758301,-23.389347076416016,value_here,POSCTL,,,,9,,ACTIVE,1732729675.2504652,0.07,0.22,-0.16,12,1,15,2,17760768,0,13
1732729750.8894975,0.0,True,0.03250468894839287,-0.027396928519010544,-3.132066011428833,1.16,37,15.005,0,0,False,,,,62,89,4,22,0.23443429172039032,180,76.493,,39.1424083,,-76.7304791,False,0.3408047960001568,77.474,,39.1424102,,-76.7304839,0.317,,39.1424102,,-76.7304839,12.558935165405273,6.323879241943359,-23.38812828063965,value_here,POSCTL,,,,8,,ACTIVE,75.6390323638916,0.07,0.22,-0.16,12,1,15,2,17760768,0,13
1732729750.988717,0.0,True,0.03225545585155487,-0.027099136263132095,-3.1322808265686035,1.16,37,15.005,0,0,False,,,,62,89,4,22,0.23443429172039032,180,76.493,,39.1424083,,-76.7304791,False,0.4387042219996147,77.493,,39.1424102,,-76.730484,0.336,,39.1424102,,-76.730484,12.544754028320312,6.318784236907959,-23.3861026763916,value_here,POSCTL,,,,8,,ACTIVE,1732729675.3496847,0.07,0.21,-0.17,12,1,15,2,17760768,0,13
1732729751.0898862,0.0,True,0.03177451342344284,-0.026628557592630386,-3.132474660873413,1.16,37,15.005,0,0,False,,,,62,89,4,22,0.22619804739952087,180,76.493,,39.1424083,,-76.7304791,False,0.5411813509999774,77.502,,39.1424103,,-76.730484,0.344,,39.1424103,,-76.730484,12.529709815979004,6.31839656829834,-23.38359832763672,value_here,POSCTL,,,,8,,ACTIVE,75.74020147323608,0.07,0.21,-0.17,12,1,15,2,17760768,0,13
1732729751.1889706,0.0,True,0.031344637274742126,-0.026313291862607002,-3.1330647468566895,1.16,37,15.005,0,0,False,,,,62,89,4,22,0.22619804739952087,180,76.493,,39.1424083,,-76.7304791,False,0.6325009989996033,77.519,,39.1424103,,-76.730484,0.362,,39.1424103,,-76.730484,12.515474319458008,6.317417144775391,-23.383142471313477,value_here,POSCTL,,,,9,,ACTIVE,1732729675.448769,0.06,0.21,-0.17,12,1,15,2,17760768,0,13
1732729751.289227,0.0,True,0.03074987605214119,-0.02559966780245304,-3.1326870918273926,1.16,37,15.005,0,0,False,,,,62,89,4,21,0.22619804739952087,180,76.493,,39.1424083,,-76.7304791,False,0.7313308510001661,77.526,,39.1424102,,-76.7304841,0.368,,39.1424102,,-76.7304841,12.515474319458008,6.317417144775391,-23.383142471313477,value_here,POSCTL,,,,9,,ACTIVE,75.84045791625977,0.05,0.21,-0.17,12,1,15,2,17760768,0,13
1732729751.3893147,0.0,True,0.03094254992902279,-0.025278544053435326,-3.1330320835113525,1.14,38,15.015,0,0,False,,,,64,94,4,22,0.221848726272583,180,76.493,,39.1424083,,-76.7304791,False,0.8330687580000813,77.539,,39.1424102,,-76.7304841,0.381,,39.1424102,,-76.7304841,12.503471374511719,6.308488845825195,-23.385812759399414,value_here,POSCTL,,,,9,,ACTIVE,1732729675.5488567,0.06,0.21,-0.15,12,1,15,2,17760768,0,13
1732729751.4894178,0.0,True,0.030669277533888817,-0.02456037327647209,-3.1330697536468506,1.14,38,15.015,0,0,False,,,,64,94,4,22,0.221848726272583,180,76.493,,39.1424083,,-76.7304791,False,0.9378166289998262,77.545,,39.1424102,,-76.7304841,0.387,,39.1424102,,-76.7304841,12.4938325881958,6.309610366821289,-23.384878158569336,value_here,POSCTL,,,,8,,ACTIVE,75.94056105613708,0.06,0.21,-0.15,12,1,15,2,17760768,0,13
1732729751.590311,0.0,True,0.030087178573012352,-0.024107184261083603,-3.13323974609375,1.14,38,15.015,0,0,False,,,,62,89,4,22,0.221848726272583,180,76.493,,39.1424083,,-76.7304791,False,0.045713907000390464,77.554,,39.1424102,,-76.7304841,0.397,,39.1424102,,-76.7304841,12.485151290893555,6.307316780090332,-23.384984970092773,value_here,POSCTL,,,,8,,ACTIVE,1732729675.64975,0.05,0.21,-0.13,12,1,15,2,17760768,0,13
1732729751.6912756,0.0,True,0.02985270880162716,-0.023553870618343353,-3.13321852684021,1.14,38,15.015,0,0,False,,,,62,89,4,21,0.21735291182994843,180,76.493,,39.1424083,,-76.7304791,False,0.14761374099998648,77.559,,39.1424102,,-76.7304842,0.402,,39.1424102,,-76.7304842,12.477459907531738,6.303578853607178,-23.386579513549805,value_here,POSCTL,,,,8,,ACTIVE,76.0415256023407,0.05,0.2,-0.13,12,1,15,2,17760768,0,13
1732729751.7906327,0.0,True,0.029493965208530426,-0.0233220886439085,-3.1332249641418457,1.14,38,15.015,0,0,False,,,,62,89,4,21,0.21735291182994843,180,76.493,,39.1424083,,-76.7304791,False,0.2378380919999472,77.568,,39.1424102,,-76.7304842,0.411,,39.1424102,,-76.7304842,12.4689302444458,6.299411773681641,-23.388219833374023,value_here,POSCTL,,,,8,,ACTIVE,1732729675.7491071,0.04,0.19,-0.12,12,1,15,2,17760768,0,13
1732729751.890941,0.0,True,0.029017871245741844,-0.02277897298336029,-3.1331117153167725,1.14,38,15.015,0,0,False,,,,62,89,4,22,0.21735291182994843,180,76.493,,39.1424083,,-76.7304791,False,0.3314077400000315,77.573,,39.1424102,,-76.7304843,0.416,,39.1424102,,-76.7304843,12.460999488830566,6.2891926765441895,-23.39110565185547,value_here,POSCTL,,,,9,,ACTIVE,76.14183378219604,0.04,0.19,-0.13,12,1,15,2,17760768,0,13
1732729751.991678,0.0,True,0.02934867888689041,-0.02233019471168518,-3.133089303970337,1.14,38,15.015,0,0,False,,,,62,89,4,22,0.21735291182994843,180,76.493,,39.1424083,,-76.7304791,False,0.4480261110002175,77.582,,39.1424102,,-76.7304844,0.425,,39.1424102,,-76.7304844,12.454132080078125,6.284393787384033,-23.39346694946289,value_here,POSCTL,,,,9,,ACTIVE,1732729675.8498442,0.03,0.18,-0.12,12,1,15,2,17760768,0,13
1732729752.0917664,0.0,True,0.02894224040210247,-0.022061742842197418,-3.1328229904174805,1.13,37,15.012,0,0,False,,,,62,89,4,22,0.18466581404209137,180,76.493,,39.1424083,,-76.7304791,False,0.5474372590006169,77.588,,39.1424101,,-76.7304844,0.43,,39.1424101,,-76.7304844,12.446538925170898,6.274501800537109,-23.39832878112793,value_here,POSCTL,,,,9,,ACTIVE,76.24192214012146,0.02,0.18,-0.12,12,1,15,2,17760768,0,13
1732729752.1911876,0.0,True,0.028382642194628716,-0.02187228389084339,-3.132779359817505,1.13,37,15.012,0,0,False,,,,62,89,4,22,0.18466581404209137,180,76.493,,39.1424083,,-76.7304791,False,0.644972888000666,77.592,,39.1424101,,-76.7304845,0.435,,39.1424101,,-76.7304845,12.446538925170898,6.274501800537109,-23.39832878112793,value_here,POSCTL,,,,9,,ACTIVE,1732729675.9492655,0.02,0.17,-0.11,12,1,15,2,17760768,0,13
1732729752.2913153,0.0,True,0.027753306552767754,-0.021416882053017616,-3.132478713989258,1.13,37,15.012,0,0,False,,,,62,89,4,21,0.18466581404209137,180,76.493,,39.1424083,,-76.7304791,False,0.7299689990004481,77.601,,39.1424101,,-76.7304845,0.444,,39.1424101,,-76.7304845,12.438151359558105,6.274204730987549,-23.401020050048828,value_here,POSCTL,,,,9,,ACTIVE,76.34204983711243,0.01,0.17,-0.11,12,1,15,2,17760768,0,13
1732729752.3914614,0.0,True,0.02659737505018711,-0.020581869408488274,-3.132938861846924,1.13,37,15.012,0,0,False,,,,64,94,4,21,0.16496551036834717,180,76.493,,39.1424083,,-76.7304791,False,0.8328635550005856,77.605,,39.1424101,,-76.7304846,0.447,,39.1424101,,-76.7304846,12.431694984436035,6.268491744995117,-23.405385971069336,value_here,POSCTL,,,,9,,ACTIVE,1732729676.0494115,0.01,0.15,-0.11,12,1,15,2,17760768,0,13
1732729752.4916058,0.0,True,0.0263630673289299,-0.019847853109240532,-3.1325628757476807,1.13,37,15.012,0,0,False,,,,64,94,4,21,0.16496551036834717,180,76.493,,39.1424083,,-76.7304791,False,0.9354209620005349,77.614,,39.14241,,-76.7304846,0.457,,39.14241,,-76.7304846,12.424103736877441,6.265171051025391,-23.409061431884766,value_here,POSCTL,,,,9,,ACTIVE,76.44219422340393,0.0,0.15,-0.12,12,1,15,2,17760768,0,13
1732729752.5918918,0.0,True,0.02600744366645813,-0.01852588541805744,-3.1325109004974365,1.13,37,15.012,0,0,False,,,,64,94,4,21,0.16496551036834717,180,76.493,,39.1424083,,-76.7304791,False,0.0376208140005474,77.619,,39.14241,,-76.7304847,0.461,,39.14241,,-76.7304847,12.41584587097168,6.259531021118164,-23.41327476501465,value_here,POSCTL,,,,8,,ACTIVE,1732729676.1496975,0.0,0.15,-0.12,12,1,15,2,17760768,0,13
1732729752.6919398,0.0,True,0.02533242292702198,-0.01807951182126999,-3.132117509841919,2.13,37,14.983,0,0,False,,,,64,94,4,21,0.16496551036834717,180,76.493,,39.1424083,,-76.7304791,False,0.1454964069998823,77.627,,39.1424099,,-76.7304848,0.469,,39.1424099,,-76.7304848,12.409514427185059,6.252303123474121,-23.417823791503906,value_here,POSCTL,,,,8,,ACTIVE,76.54224228858948,0.0,0.14,-0.12,12,1,15,2,17760768,0,13
1732729752.7925572,0.0,True,0.024781331419944763,-0.017448104918003082,-3.131998300552368,2.13,37,14.983,0,0,False,,,,64,94,4,21,0.14445728063583374,180,77.157,,39.1424099,,-76.7304826,False,0.2477852960000746,77.631,,39.1424099,,-76.7304848,0.474,,39.1424099,,-76.7304848,12.402743339538574,6.247883319854736,-23.42193031311035,value_here,POSCTL,,,,8,,ACTIVE,1732729676.250315,0.0,0.13,-0.12,12,1,15,2,17760768,0,13
1732729752.892254,0.0,True,0.02418389730155468,-0.016584469005465508,-3.1321380138397217,2.13,37,14.983,0,0,False,,,,64,94,4,21,0.14445728063583374,180,77.157,,39.1424099,,-76.7304826,False,0.3395619809998607,77.639,,39.1424099,,-76.7304848,0.006,,39.1424099,,-76.7304848,12.402743339538574,6.247883319854736,-23.42193031311035,value_here,POSCTL,,,,9,,ACTIVE,76.64193916320801,0.0,0.12,-0.13,12,1,15,2,17760768,0,13
1732729752.9925056,0.0,True,0.024398349225521088,-0.015929190441966057,-3.1318130493164062,2.13,37,14.983,0,0,False,,,,64,94,4,21,0.14445728063583374,180,77.157,,39.1424099,,-76.7304826,False,0.41372890700040443,77.643,,39.1424099,,-76.7304849,0.01,,39.1424099,,-76.7304849,12.395508766174316,6.245704174041748,-23.424957275390625,value_here,POSCTL,,,,9,,ACTIVE,1732729676.3505664,0.0,0.1,-0.12,12,1,15,2,17760768,0,13
1732729753.092548,0.0,True,0.024628564715385437,-0.014655038714408875,-3.1314287185668945,2.13,37,14.983,0,0,False,,,,64,94,4,21,0.09906895458698273,180,77.157,,39.1424099,,-76.7304826,False,0.5388818700002957,77.651,,39.1424098,,-76.730485,0.018,,39.1424098,,-76.730485,12.38930606842041,6.236339569091797,-23.42965316772461,value_here,POSCTL,,,,9,,ACTIVE,76.74198150634766,-0.01,0.1,-0.13,12,1,15,2,17760768,0,13
1732729753.1930778,0.0,True,0.024437710642814636,-0.011919853277504444,-3.1311802864074707,2.13,37,14.983,0,0,False,,,,64,94,4,20,0.09906895458698273,180,77.157,,39.1424099,,-76.7304826,False,0.6473513509999975,77.656,,39.1424098,,-76.730485,0.023,,39.1424098,,-76.730485,12.381551742553711,6.2275471687316895,-23.43512725830078,value_here,POSCTL,,,,9,,ACTIVE,1732729676.4510963,-0.01,0.09,-0.13,12,1,15,2,17760768,0,13
1732729753.2931843,0.0,True,0.025355443358421326,-0.010420240461826324,-3.129915475845337,2.13,37,14.983,0,0,False,,,,64,94,4,20,0.09906895458698273,180,77.157,,39.1424099,,-76.7304826,False,0.745837092000329,77.668,,39.1424097,,-76.7304851,0.035,,39.1424097,,-76.7304851,12.371430397033691,6.2236151695251465,-23.439788818359375,value_here,POSCTL,,,,9,,ACTIVE,76.84208798408508,-0.02,0.07,-0.14,12,1,15,2,17760768,0,13
1732729753.3944094,0.0,True,0.026185261085629463,-0.011473407037556171,-3.1284632682800293,7.27,36,14.84,0,0,False,,,,64,94,4,20,0.06782884895801544,180,77.157,,39.1424099,,-76.7304826,False,0.8498712580003485,77.674,,39.1424097,,-76.7304852,0.041,,39.1424097,,-76.7304852,12.361187934875488,6.21243953704834,-23.446386337280273,value_here,POSCTL,,,,9,,ACTIVE,1732729676.5523214,-0.02,0.07,-0.13,12,1,15,2,17760768,0,13
1732729753.4934444,0.0,True,0.02704024873673916,-0.0076858713291585445,-3.128927230834961,7.27,36,14.84,0,0,False,,,,64,94,4,22,0.06782884895801544,180,77.157,,39.1424099,,-76.7304826,False,0.9476007769999342,77.68,,39.1424097,,-76.7304853,0.047,,39.1424097,,-76.7304853,12.351841926574707,6.2031731605529785,-23.45294761657715,value_here,POSCTL,,,,9,,ACTIVE,76.94112300872803,-0.04,0.04,-0.14,12,1,15,2,17760768,0,13
1732729753.5935907,0.0,True,0.02687177062034607,-0.004851415287703276,-3.1281633377075195,7.27,36,14.84,0,0,False,,,,64,94,4,21,0.06782884895801544,180,77.157,,39.1424099,,-76.7304826,False,0.04259114799970121,77.692,,39.1424096,,-76.7304854,0.059,,39.1424096,,-76.7304854,12.34107780456543,6.193976402282715,-23.459915161132812,value_here,POSCTL,,,,9,,ACTIVE,1732729676.6524677,-0.04,0.03,-0.16,12,1,15,2,17760768,0,13
1732729753.6937678,0.0,True,0.029120268300175667,0.0013533064629882574,-3.130124807357788,7.27,36,14.84,0,0,False,,,,64,94,4,21,0.06782884895801544,180,77.157,,39.1424099,,-76.7304826,False,0.13495172199964145,77.698,,39.1424096,,-76.7304855,0.065,,39.1424096,,-76.7304855,12.34107780456543,6.193976402282715,-23.459915161132812,value_here,POSCTL,,,,9,,ACTIVE,77.04130005836487,-0.04,0.02,-0.16,12,1,15,2,17760768,0,13
1732729753.7941403,0.0,True,0.03410353139042854,0.00474711786955595,-3.132114887237549,7.27,36,14.84,0,0,False,,,,64,94,4,21,0.04338592290878296,180,77.157,,39.1424099,,-76.7304826,False,0.23908936999941943,77.712,,39.1424095,,-76.7304856,0.079,,39.1424095,,-76.7304856,12.331571578979492,6.187063694000244,-23.465673446655273,value_here,POSCTL,,,,9,,ACTIVE,1732729676.7528403,-0.03,0.02,-0.2,12,1,15,2,17760768,0,13
1732729753.894237,0.0,True,0.028616931289434433,0.004283934831619263,3.1412081718444824,7.27,36,14.84,0,0,False,,,,64,94,4,22,0.04338592290878296,180,77.157,,39.1424099,,-76.7304826,False,0.3412193699996351,77.725,,39.1424095,,-76.7304856,0.092,,39.1424095,,-76.7304856,12.315424919128418,6.179907321929932,-23.470417022705078,value_here,POSCTL,,,,9,,ACTIVE,77.14139676094055,-0.03,0.01,-0.26,12,1,15,2,17760768,0,13
1732729753.9943411,0.0,True,0.02719970792531967,-0.012506019324064255,3.121537208557129,7.27,36,14.84,0,0,False,,,,64,94,4,22,0.04338592290878296,180,77.157,,39.1424099,,-76.7304826,False,0.4456513699997231,77.764,,39.1424094,,-76.7304857,0.131,,39.1424094,,-76.7304857,12.285385131835938,6.175289630889893,-23.474361419677734,value_here,POSCTL,,,,9,,ACTIVE,1732729676.8529444,-0.02,-0.01,-0.46,12,1,15,2,17760768,0,13
1732729754.0945623,0.0,True,0.023562688380479813,-0.0337551049888134,3.0927083492279053,20.16,33,14.519,0,0,False,,,,62,89,4,22,0.03133632615208626,177,77.157,,39.1424099,,-76.7304826,False,0.5483224069994321,77.796,,39.1424094,,-76.7304858,0.163,,39.1424094,,-76.7304858,12.235640525817871,6.163900375366211,-23.47613525390625,value_here,POSCTL,,,,9,,ACTIVE,77.24161791801453,-0.01,-0.02,-0.59,12,1,15,2,17760768,0,13
1732729754.1956053,0.0,True,0.014609678648412228,-0.04029502347111702,3.0610923767089844,20.16,33,14.519,0,0,False,,,,62,89,4,22,0.03133632615208626,177,77.157,,39.1424099,,-76.7304826,False,0.6519544249995306,77.878,,39.1424094,,-76.7304859,0.245,,39.1424094,,-76.7304859,12.164778709411621,6.152081489562988,-23.475996017456055,value_here,POSCTL,,,,9,,ACTIVE,1732729676.9539874,-0.01,-0.04,-0.8,12,1,15,2,17760768,0,13
1732729754.2959023,0.0,True,0.00539574446156621,-0.0474461205303669,3.0274600982666016,20.16,33,14.519,0,0,False,,,,65,94,4,22,0.03133632615208626,177,77.157,,39.1424099,,-76.7304826,False,0.7522488879994853,77.938,,39.1424094,,-76.730486,0.304,,39.1424094,,-76.730486,12.073976516723633,6.141858100891113,-23.475656509399414,value_here,POSCTL,,,,26,,ACTIVE,77.34191489219666,0.0,-0.03,-0.92,12,1,15,2,17760768,0,13
1732729754.3957,0.0,True,-0.006576291751116514,-0.05022774636745453,3.006621837615967,20.16,33,14.519,0,0,False,,,,65,94,4,22,0.03133632615208626,177,77.157,,39.1424099,,-76.7304826,False,0.8520443879997401,78.064,,39.1424095,,-76.7304861,0.431,,39.1424095,,-76.7304861,12.073976516723633,6.141858100891113,-23.475656509399414,value_here,POSCTL,,,,26,,ACTIVE,1732729677.053785,-0.02,-0.01,-1.12,12,1,15,2,17760768,0,13
1732729754.4950829,0.0,True,-0.008143682032823563,-0.048658717423677444,2.9805707931518555,20.16,33,14.519,0,0,False,,,,65,94,4,22,0.023928482085466385,171,77.157,,39.1424099,,-76.7304826,False,0.9324227950000932,78.132,,39.1424095,,-76.7304861,0.498,,39.1424095,,-76.7304861,11.965445518493652,6.137866020202637,-23.472747802734375,value_here,POSCTL,,,,26,,ACTIVE,77.44129776954651,-0.03,0.0,-1.19,12,1,15,2,17760768,0,13
1732729754.5955937,0.0,True,0.0038937926292419434,-0.04231034219264984,2.9577908515930176,20.16,33,14.519,0,0,False,,,,62,89,4,22,0.023928482085466385,171,77.157,,39.1424099,,-76.7304826,False,0.04834481499983667,78.284,,39.1424094,,-76.7304862,0.651,,39.1424094,,-76.7304862,11.84391975402832,6.130780220031738,-23.474185943603516,value_here,POSCTL,,,,61,,ACTIVE,1732729677.154296,-0.04,0.01,-1.24,12,1,15,2,17760768,0,13
1732729754.6953728,0.0,True,0.007497389800846577,-0.04266313090920448,2.944446086883545,20.16,33,14.519,0,0,False,,,,65,93,4,22,0.023928482085466385,171,77.157,,39.1424099,,-76.7304826,False,0.12883883399990737,78.37,,39.1424095,,-76.7304862,0.737,,39.1424095,,-76.7304862,11.711695671081543,6.126369953155518,-23.47272300720215,value_here,POSCTL,,,,61,,ACTIVE,77.54107689857483,-0.04,0.02,-1.25,12,1,15,2,17760768,0,13
1732729754.7961442,0.0,True,0.003393343882635236,-0.03674608841538429,2.9364898204803467,23.92,29,14.315,0,0,False,,,,65,93,4,22,0.06010641157627106,168,77.157,,39.1424099,,-76.7304826,False,0.2503905739995389,78.438,,39.1424095,,-76.7304862,0.805,,39.1424095,,-76.7304862,11.58129596710205,6.125453472137451,-23.4683780670166,value_here,POSCTL,,,,61,,ACTIVE,1732729677.2550673,-0.05,0.02,-1.27,12,1,15,2,17760768,0,13
1732729754.8961065,0.0,True,0.008558603934943676,-0.03564027324318886,2.933542013168335,23.92,29,14.315,0,0,False,,,,68,98,4,21,0.06010641157627106,168,77.157,,39.1424099,,-76.7304826,False,0.34845475899965095,78.593,,39.1424095,,-76.7304862,0.959,,39.1424095,,-76.7304862,11.450697898864746,6.126173973083496,-23.46534538269043,value_here,POSCTL,,,,61,,ACTIVE,77.6410391330719,-0.06,0.02,-1.28,12,1,15,2,17760768,0,13
1732729754.997216,0.0,True,0.01287420280277729,-0.036708466708660126,2.9356343746185303,23.92,29,14.315,0,0,False,,,,65,93,4,20,0.06010641157627106,168,77.157,,39.1424099,,-76.7304826,False,0.4529717219993472,78.682,,39.1424095,,-76.7304862,1.048,,39.1424095,,-76.7304862,11.324995994567871,6.126895427703857,-23.460927963256836,value_here,POSCTL,,,,101,,ACTIVE,1732729677.3561769,-0.06,0.02,-1.29,12,1,15,2,17760768,0,13
1732729755.0965645,0.0,True,0.013591921888291836,-0.039403822273015976,2.938810110092163,23.92,29,14.315,0,0,False,,,,65,93,4,20,0.06010641157627106,168,77.157,,39.1424099,,-76.7304826,False,0.5478253149994998,78.842,,39.1424096,,-76.7304862,1.209,,39.1424096,,-76.7304862,11.183768272399902,6.126507759094238,-23.454513549804688,value_here,POSCTL,,,,101,,ACTIVE,77.74038767814636,-0.05,0.02,-1.29,12,1,15,2,17760768,0,13
1732729755.1968577,0.0,True,0.012539775110781193,-0.040579259395599365,2.9495797157287598,23.92,29,14.315,0,0,False,,,,68,98,4,21,0.054388098418712616,168,77.157,,39.1424099,,-76.7304826,False,0.6418538889993215,78.92,,39.1424097,,-76.7304862,1.287,,39.1424097,,-76.7304862,11.048190116882324,6.126214981079102,-23.446062088012695,value_here,POSCTL,,,,101,,ACTIVE,1732729677.45647,-0.05,0.02,-1.29,12,1,15,2,17760768,0,13
1732729755.2968757,0.0,True,0.010729529894888401,-0.038133297115564346,2.960547685623169,23.92,29,14.315,0,0,False,,,,65,93,4,21,0.054388098418712616,168,77.157,,39.1424099,,-76.7304826,False,0.7476908700000422,79.089,,39.1424098,,-76.7304862,1.455,,39.1424098,,-76.7304862,11.048190116882324,6.126214981079102,-23.446062088012695,value_here,POSCTL,,,,144,,ACTIVE,77.84040570259094,-0.02,0.02,-1.32,12,1,15,2,17760768,0,13
1732729755.3967366,0.0,True,0.0062422254122793674,-0.03723296895623207,2.972691297531128,23.92,29,14.315,0,0,False,,,,65,93,4,21,0.054388098418712616,168,77.157,,39.1424099,,-76.7304826,False,0.8500074260000474,79.172,,39.1424099,,-76.7304862,1.539,,39.1424099,,-76.7304862,10.906170845031738,6.124507427215576,-23.429649353027344,value_here,POSCTL,,,,144,,ACTIVE,1732729677.556331,-0.02,0.02,-1.32,12,1,15,2,17760768,0,13
1732729755.497107,0.0,True,0.005176182836294174,-0.038307081907987595,2.980604410171509,24.76,25,14.199,0,0,False,,,,65,93,4,21,0.04261375591158867,170,77.157,,39.1424099,,-76.7304826,False,0.9377790549997371,79.335,,39.1424101,,-76.7304862,1.702,,39.1424101,,-76.7304862,10.781533241271973,6.1262078285217285,-23.41672706604004,value_here,POSCTL,,,,144,,ACTIVE,77.94077610969543,-0.02,0.02,-1.34,12,1,15,2,17760768,0,13
1732729755.5969884,0.0,True,0.003990647383034229,-0.03504986688494682,2.993446111679077,24.76,25,14.199,0,0,False,,,,65,93,4,21,0.04261375591158867,170,77.157,,39.1424099,,-76.7304826,False,0.038792629000454326,79.423,,39.1424102,,-76.7304862,1.79,,39.1424102,,-76.7304862,10.631510734558105,6.1286725997924805,-23.39561653137207,value_here,POSCTL,,,,188,,ACTIVE,1732729677.6562123,-0.02,0.02,-1.35,12,1,15,2,17760768,0,13
1732729755.697146,0.0,True,0.003846880979835987,-0.03450319916009903,3.007370710372925,24.76,25,14.199,0,0,False,,,,65,93,4,22,0.04261375591158867,170,77.157,,39.1424099,,-76.7304826,False,0.13299051800004236,79.587,,39.1424103,,-76.7304861,1.954,,39.1424103,,-76.7304861,10.499120712280273,6.134006023406982,-23.381580352783203,value_here,POSCTL,,,,188,,ACTIVE,78.04093360900879,-0.02,0.02,-1.35,12,1,15,2,17760768,0,13
1732729755.7974868,0.0,True,0.0015819690888747573,-0.03453539311885834,3.019516944885254,24.76,25,14.199,0,0,False,,,,62,89,4,22,0.03563003987073898,173,77.157,,39.1424099,,-76.7304826,False,0.24040722199970332,79.675,,39.1424104,,-76.7304861,2.042,,39.1424104,,-76.7304861,10.345797538757324,6.139252662658691,-23.366056442260742,value_here,POSCTL,,,,188,,ACTIVE,1732729677.7565532,-0.02,0.02,-1.36,12,1,15,2,17760768,0,13
1732729755.898299,0.0,True,0.0004229594487696886,-0.03495565801858902,3.0318751335144043,24.76,25,14.199,0,0,False,,,,62,89,4,22,0.03563003987073898,173,77.157,,39.1424099,,-76.7304826,False,0.34237781400042877,79.854,,39.1424106,,-76.730486,2.221,,39.1424106,,-76.730486,10.2137451171875,6.143872261047363,-23.351594924926758,value_here,POSCTL,,,,188,,ACTIVE,78.14174580574036,-0.03,0.01,-1.38,12,1,15,2,17760768,0,13
1732729755.997786,0.0,True,-0.0004863430804107338,-0.03623431548476219,3.0435004234313965,24.76,25,14.199,0,0,False,,,,62,89,4,22,0.03563003987073898,173,77.157,,39.1424099,,-76.7304826,False,0.4280137770001602,79.933,,39.1424106,,-76.7304859,2.3,,39.1424106,,-76.7304859,10.062644958496094,6.1520795822143555,-23.337085723876953,value_here,POSCTL,,,,233,,ACTIVE,1732729677.8560402,-0.04,0.01,-1.38,12,1,15,2,17760768,0,13
1732729756.0979824,0.0,True,-0.0021588176023215055,-0.03860067203640938,3.0532009601593018,24.76,25,14.199,0,0,False,,,,62,89,4,22,0.03563003987073898,173,77.157,,39.1424099,,-76.7304826,False,0.5406205369999952,80.03,,39.1424107,,-76.7304859,2.397,,39.1424107,,-76.7304859,10.062644958496094,6.1520795822143555,-23.337085723876953,value_here,POSCTL,,,,233,,ACTIVE,78.2419421672821,-0.04,0.01,-1.39,12,1,15,2,17760768,0,13
1732729756.198119,0.0,True,7.390804967144504e-05,-0.03624841943383217,3.063349485397339,24.42,23,14.145,0,0,False,,,,66,98,4,19,0.04641525074839592,175,77.157,,39.1424099,,-76.7304826,False,0.6322438139995938,80.209,,39.1424109,,-76.7304858,2.576,,39.1424109,,-76.7304858,9.909452438354492,6.160510540008545,-23.320470809936523,value_here,POSCTL,,,,233,,ACTIVE,1732729677.9561768,-0.03,0.01,-1.39,12,1,15,2,17760768,0,13
1732729756.2982671,0.0,True,-0.002311418764293194,-0.032530155032873154,3.071598768234253,24.42,23,14.145,0,0,False,,,,66,98,4,19,0.04641525074839592,175,77.157,,39.1424099,,-76.7304826,False,0.727367962000244,80.303,,39.142411,,-76.7304857,2.67,,39.142411,,-76.7304857,9.74564266204834,6.171041011810303,-23.30156135559082,value_here,POSCTL,,,,279,,ACTIVE,78.34209036827087,-0.04,0.01,-1.38,12,1,15,2,17760768,0,13
1732729756.3984048,0.0,True,-0.004488470498472452,-0.03224937990307808,3.078105926513672,24.42,23,14.145,0,0,False,,,,66,98,4,21,0.04641525074839592,175,77.157,,39.1424099,,-76.7304826,False,0.8320712220001951,80.489,,39.1424111,,-76.7304855,2.856,,39.1424111,,-76.7304855,9.594058990478516,6.187230587005615,-23.287837982177734,value_here,POSCTL,,,,279,,ACTIVE,1732729678.0563145,-0.04,0.02,-1.38,12,1,15,2,17760768,0,13
1732729756.4994946,0.0,True,-0.003494872944429517,-0.02754606306552887,3.0845863819122314,24.42,23,14.145,0,0,False,,,,66,98,4,20,0.05432179570198059,176,77.157,,39.1424099,,-76.7304826,False,0.9425140359999205,80.595,,39.1424112,,-76.7304853,2.961,,39.1424112,,-76.7304853,9.441682815551758,6.202556610107422,-23.2773494720459,value_here,POSCTL,,,,279,,ACTIVE,78.44318008422852,-0.04,0.02,-1.41,12,1,15,2,17760768,0,13
1732729756.5986762,0.0,True,-0.003823309438303113,-0.027414148673415184,3.088318347930908,24.42,23,14.145,0,0,False,,,,66,98,4,20,0.05432179570198059,176,77.157,,39.1424099,,-76.7304826,False,0.044101092999881075,80.777,,39.1424114,,-76.7304851,3.144,,39.1424114,,-76.7304851,9.275168418884277,6.222639560699463,-23.261783599853516,value_here,POSCTL,,,,279,,ACTIVE,1732729678.1554961,-0.06,0.03,-1.4,12,1,15,2,17760768,0,13
1732729756.698875,0.0,True,-0.004976112395524979,-0.020782362669706345,3.091792106628418,24.42,23,14.145,0,0,False,,,,65,93,4,22,0.05432179570198059,176,77.157,,39.1424099,,-76.7304826,False,0.14446898200003488,80.878,,39.1424114,,-76.7304849,3.244,,39.1424114,,-76.7304849,9.121598243713379,6.246829032897949,-23.250011444091797,value_here,POSCTL,,,,326,,ACTIVE,78.54337882995605,-0.07,0.02,-1.4,12,1,15,2,17760768,0,13
1732729756.7996926,0.0,True,-0.005277888849377632,-0.020010044798254967,3.0938563346862793,24.42,23,14.145,0,0,False,,,,65,93,4,20,0.05432179570198059,176,77.157,,39.1424099,,-76.7304826,False,0.24848277799992502,81.071,,39.1424115,,-76.7304846,3.437,,39.1424115,,-76.7304846,8.965620994567871,6.268280506134033,-23.247060775756836,value_here,POSCTL,,,,326,,ACTIVE,1732729678.2563138,-0.08,0.02,-1.41,12,1,15,2,17760768,0,13
1732729756.8991463,0.0,True,-0.0044632963836193085,-0.01788218878209591,3.0954816341400146,24.11,22,14.117,0,0,False,,,,64,94,4,20,0.0915704146027565,177,77.157,,39.1424099,,-76.7304826,False,0.3190453709994472,81.166,,39.1424115,,-76.7304844,3.533,,39.1424115,,-76.7304844,8.965620994567871,6.268280506134033,-23.247060775756836,value_here,POSCTL,,,,326,,ACTIVE,78.6428325176239,-0.09,0.01,-1.42,12,1,15,2,17760768,0,13
1732729757.0001924,0.0,True,-0.003989504184573889,-0.014958035200834274,3.097966194152832,24.11,22,14.117,0,0,False,,,,64,94,4,21,0.0915704146027565,177,77.157,,39.1424099,,-76.7304826,False,0.4492353149998962,81.347,,39.1424116,,-76.730484,3.714,,39.1424116,,-76.730484,8.795364379882812,6.294817924499512,-23.2374267578125,value_here,POSCTL,,,,370,,ACTIVE,1732729678.35736,-0.11,0.0,-1.42,12,1,15,2,17760768,0,13
1732729757.0993743,0.0,True,-0.0031171191949397326,-0.01175847090780735,3.100027561187744,24.11,22,14.117,0,0,False,,,,64,94,4,21,0.0915704146027565,177,77.157,,39.1424099,,-76.7304826,False,0.5255285369994454,81.452,,39.1424116,,-76.7304838,3.819,,39.1424116,,-76.7304838,8.637062072753906,6.324209213256836,-23.23128890991211,value_here,POSCTL,,,,370,,ACTIVE,78.74201440811157,-0.11,0.0,-1.42,12,1,15,2,17760768,0,13
1732729757.2003434,0.0,True,-0.0021827714517712593,-0.009142085909843445,3.1016931533813477,24.11,22,14.117,0,0,False,,,,64,94,4,19,0.12742020189762115,177,77.157,,39.1424099,,-76.7304826,False,0.6491152039998269,81.649,,39.1424116,,-76.7304835,4.016,,39.1424116,,-76.7304835,8.469904899597168,6.3525519371032715,-23.228485107421875,value_here,POSCTL,,,,370,,ACTIVE,1732729678.458329,-0.12,-0.02,-1.41,12,1,15,2,17760768,0,13
1732729757.2996867,0.0,True,-0.0035269081126898527,-0.01169692911207676,3.1027896404266357,24.11,22,14.117,0,0,False,,,,66,102,4,20,0.12742020189762115,177,77.157,,39.1424099,,-76.7304826,False,0.7458887040002082,81.746,,39.1424116,,-76.7304833,4.113,,39.1424116,,-76.7304833,8.31563663482666,6.375283241271973,-23.23021125793457,value_here,POSCTL,,,,370,,ACTIVE,78.8413577079773,-0.13,-0.03,-1.43,12,1,15,2,17760768,0,13
1732729757.3999755,0.0,True,-0.0007606521248817444,-0.006913392338901758,3.104501247406006,24.11,22,14.117,0,0,False,,,,66,102,4,20,0.12742020189762115,177,77.157,,39.1424099,,-76.7304826,False,0.8470926109994252,81.831,,39.1424116,,-76.7304831,4.198,,39.1424116,,-76.7304831,8.16058349609375,6.402464389801025,-23.22808837890625,value_here,POSCTL,,,,419,,ACTIVE,1732729678.5586178,-0.13,-0.04,-1.43,12,1,15,2,17760768,0,13
1732729757.4999595,0.0,True,0.0001962387323146686,-0.004617469850927591,3.1058523654937744,23.98,20,14.055,0,0,False,,,,66,102,4,20,0.12742020189762115,177,77.157,,39.1424099,,-76.7304826,False,0.9468864069995107,82.037,,39.1424117,,-76.7304827,4.404,,39.1424117,,-76.7304827,7.999289512634277,6.433340549468994,-23.226316452026367,value_here,POSCTL,,,,419,,ACTIVE,78.94134163856506,-0.14,-0.05,-1.43,12,1,15,2,17760768,0,13
1732729757.60001,0.0,True,0.0023322280030697584,-0.003190468531101942,3.1077070236206055,23.98,20,14.055,0,0,False,,,,66,102,4,19,0.1597212851047516,177,77.157,,39.1424099,,-76.7304826,False,0.04337777799992182,82.131,,39.1424117,,-76.7304824,4.497,,39.1424117,,-76.7304824,7.83071756362915,6.467838764190674,-23.2275333404541,value_here,POSCTL,,,,419,,ACTIVE,1732729678.6586683,-0.15,-0.06,-1.44,12,1,15,2,17760768,0,13
1732729757.7010229,0.0,True,0.004411152098327875,0.0019131959415972233,3.109323740005493,23.98,20,14.055,0,0,False,,,,66,102,4,19,0.1597212851047516,177,77.157,,39.1424099,,-76.7304826,False,0.15354446299988922,82.328,,39.1424116,,-76.730482,4.694,,39.1424116,,-76.730482,7.658995151519775,6.502946853637695,-23.23092269897461,value_here,POSCTL,,,,469,,ACTIVE,79.04235458374023,-0.16,-0.08,-1.45,12,1,15,2,17760768,0,13
1732729757.8004632,0.0,True,0.0037519882898777723,0.005973219871520996,3.1106128692626953,23.98,20,14.055,0,0,False,,,,72,104,4,21,0.1597212851047516,177,77.157,,39.1424099,,-76.7304826,False,0.24517870399995445,82.434,,39.1424116,,-76.7304817,4.801,,39.1424116,,-76.7304817,7.658995151519775,6.502946853637695,-23.23092269897461,value_here,POSCTL,,,,469,,ACTIVE,1732729678.7581086,-0.16,-0.08,-1.45,12,1,15,2,17760768,0,13
1732729757.9012933,0.0,True,0.004456823691725731,0.00715287122875452,3.112177610397339,23.98,20,14.055,0,0,False,,,,66,102,4,20,0.19014836847782135,178,77.157,,39.1424099,,-76.7304826,False,0.3537415000000692,82.614,,39.1424116,,-76.7304813,4.98,,39.1424116,,-76.7304813,7.502923488616943,6.533576965332031,-23.234682083129883,value_here,POSCTL,,,,469,,ACTIVE,79.14318466186523,-0.16,-0.11,-1.45,12,1,15,2,17760768,0,13
1732729758.00073,0.0,True,0.007610422093421221,0.009193837642669678,3.1143693923950195,23.98,20,14.055,0,0,False,,,,66,102,4,19,0.19014836847782135,178,77.157,,39.1424099,,-76.7304826,False,0.4464585919995443,82.722,,39.1424115,,-76.7304812,5.088,,39.1424115,,-76.7304812,7.335998058319092,6.557474613189697,-23.23942756652832,value_here,POSCTL,,,,517,,ACTIVE,1732729678.8575454,-0.16,-0.14,-1.45,12,1,15,2,17760768,0,13
1732729758.1008372,0.0,True,0.008647413924336433,0.00550964567810297,3.1149675846099854,23.98,20,14.055,0,0,False,,,,66,102,4,19,0.19014836847782135,178,77.157,,39.1424099,,-76.7304826,False,0.5424877779996677,82.916,,39.1424115,,-76.7304808,5.283,,39.1424115,,-76.7304808,7.172491073608398,6.581398010253906,-23.246448516845703,value_here,POSCTL,,,,517,,ACTIVE,79.2432918548584,-0.16,-0.17,-1.48,12,1,15,2,17760768,0,13
1732729758.20177,0.0,True,0.009800797328352928,0.007668590173125267,3.1160614490509033,25.08,18,13.987,0,0,False,,,,66,102,4,20,0.253471702337265,178,77.157,,39.1424099,,-76.7304826,False,0.654907889000242,83.026,,39.1424115,,-76.7304806,5.393,,39.1424115,,-76.7304806,6.994104862213135,6.6098175048828125,-23.24997329711914,value_here,POSCTL,,,,517,,ACTIVE,1732729678.9584782,-0.15,-0.19,-1.53,12,1,15,2,17760768,0,13
1732729758.3011696,0.0,True,0.0090098287910223,0.008795080706477165,3.116447687149048,25.08,18,13.987,0,0,False,,,,64,101,4,19,0.253471702337265,178,77.157,,39.1424099,,-76.7304826,False,0.7528171849999126,83.12,,39.1424114,,-76.7304805,5.487,,39.1424114,,-76.7304805,6.827282428741455,6.631609916687012,-23.251747131347656,value_here,POSCTL,,,,517,,ACTIVE,79.34269142150879,-0.15,-0.2,-1.57,12,1,15,2,17760768,0,13
1732729758.4014351,0.0,True,0.005888737738132477,0.006574762053787708,3.116844892501831,25.08,18,13.987,0,0,False,,,,66,106,4,20,0.253471702337265,178,77.157,,39.1424099,,-76.7304826,False,0.8360432219997165,83.352,,39.1424114,,-76.7304801,5.719,,39.1424114,,-76.7304801,6.6320414543151855,6.663120746612549,-23.25249671936035,value_here,POSCTL,,,,570,,ACTIVE,1732729679.0587437,-0.14,-0.21,-1.66,12,1,15,2,17760768,0,13
1732729758.5014203,0.0,True,0.005155520513653755,0.007685266435146332,3.117530584335327,25.08,18,13.987,0,0,False,,,,66,106,4,20,0.253471702337265,178,77.157,,39.1424099,,-76.7304826,False,0.9525529439997626,83.575,,39.1424114,,-76.7304799,5.941,,39.1424114,,-76.7304799,6.6320414543151855,6.663120746612549,-23.25249671936035,value_here,POSCTL,,,,570,,ACTIVE,79.44267654418945,-0.14,-0.25,-1.72,12,1,15,2,17760768,0,13
1732729758.6014557,0.0,True,0.0055346377193927765,0.0064337789081037045,3.118215560913086,25.08,18,13.987,0,0,False,,,,64,101,4,20,0.29742735624313354,178,77.157,,39.1424099,,-76.7304826,False,0.04325375900043582,83.704,,39.1424114,,-76.7304798,6.071,,39.1424114,,-76.7304798,6.435909748077393,6.674529075622559,-23.256837844848633,value_here,POSCTL,,,,570,,ACTIVE,1732729679.1587791,-0.14,-0.27,-1.76,12,1,15,2,17760768,0,13
1732729758.7017756,0.0,True,0.006929466500878334,0.0043103937059640884,3.1184747219085693,25.08,18,13.987,0,0,False,,,,64,101,4,20,0.29742735624313354,178,77.157,,39.1424099,,-76.7304826,False,0.15252438900006382,83.831,,39.1424114,,-76.7304796,6.198,,39.1424114,,-76.7304796,6.240269660949707,6.6918463706970215,-23.260089874267578,value_here,POSCTL,,,,626,,ACTIVE,79.54299640655518,-0.14,-0.28,-1.79,12,1,15,2,17760768,0,13
1732729758.8019702,0.0,True,0.00603422150015831,0.006334924604743719,3.1187708377838135,25.08,18,13.987,0,0,False,,,,64,101,4,20,0.29742735624313354,178,77.157,,39.1424099,,-76.7304826,False,0.2421455550002065,84.07,,39.1424113,,-76.7304794,6.437,,39.1424113,,-76.7304794,6.039910316467285,6.713290691375732,-23.26308822631836,value_here,POSCTL,,,,626,,ACTIVE,1732729679.2589738,-0.14,-0.31,-1.85,12,1,15,2,17760768,0,13
1732729758.9024982,0.0,True,0.007875852286815643,0.008830316364765167,3.119224786758423,26.23,17,13.948,0,0,False,,,,64,101,4,20,0.35839909315109253,178,77.157,,39.1424099,,-76.7304826,False,0.3431252959999256,84.191,,39.1424113,,-76.7304793,6.558,,39.1424113,,-76.7304793,5.830146312713623,6.72660493850708,-23.268272399902344,value_here,POSCTL,,,,626,,ACTIVE,79.64352440834045,-0.15,-0.31,-1.88,12,1,15,2,17760768,0,13
1732729759.0022333,0.0,True,0.008964696899056435,0.008052447810769081,3.1204307079315186,26.23,17,13.948,0,0,False,,,,64,101,4,20,0.35839909315109253,178,77.157,,39.1424099,,-76.7304826,False,0.4470828140001686,84.447,,39.1424113,,-76.7304791,6.813,,39.1424113,,-76.7304791,5.601797103881836,6.739721775054932,-23.272563934326172,value_here,POSCTL,,,,626,,ACTIVE,1732729679.3587089,-0.15,-0.35,-1.96,12,1,15,2,17760768,0,13
1732729759.102384,0.0,True,0.010765903629362583,0.003908321261405945,3.1213526725769043,26.23,17,13.948,0,0,False,,,,64,101,4,20,0.35839909315109253,178,77.157,,39.1424099,,-76.7304826,False,0.5492872770000758,84.598,,39.1424112,,-76.730479,6.965,,39.1424112,,-76.730479,5.399694442749023,6.751296520233154,-23.276439666748047,value_here,POSCTL,,,,696,,ACTIVE,79.7436752319336,-0.14,-0.36,-2.01,12,1,15,2,17760768,0,13
1732729759.202668,0.0,True,0.010983087122440338,0.0015851929783821106,3.1225907802581787,26.23,17,13.948,0,0,False,,,,64,101,4,20,0.35839909315109253,178,77.157,,39.1424099,,-76.7304826,False,0.6551014990000112,84.866,,39.1424111,,-76.7304789,7.233,,39.1424111,,-76.7304789,5.15631628036499,6.7542338371276855,-23.285144805908203,value_here,POSCTL,,,,696,,ACTIVE,1732729679.4589927,-0.15,-0.38,-2.1,12,1,15,2,17760768,0,13
1732729759.3026912,0.0,True,0.012616187334060669,0.0029144221916794777,3.123460292816162,26.23,17,13.948,0,0,False,,,,64,101,4,20,0.4191245436668396,178,77.157,,39.1424099,,-76.7304826,False,0.7540034620005827,85.015,,39.1424111,,-76.7304789,7.381,,39.1424111,,-76.7304789,4.927639484405518,6.765124320983887,-23.29255485534668,value_here,POSCTL,,,,696,,ACTIVE,79.84369850158691,-0.14,-0.39,-2.14,12,1,15,2,17760768,0,13
1732729759.4030714,0.0,True,0.012217630632221699,0.003352649975568056,3.124363660812378,26.23,17,13.948,0,0,False,,,,64,100,4,20,0.4191245436668396,178,77.157,,39.1424099,,-76.7304826,False,0.8557510919999913,85.303,,39.142411,,-76.7304787,7.669,,39.142411,,-76.7304787,4.927639484405518,6.765124320983887,-23.29255485534668,value_here,POSCTL,,,,760,,ACTIVE,1732729679.559373,-0.14,-0.4,-2.23,12,1,15,2,17760768,0,13
1732729759.5032425,0.0,True,0.012367057614028454,0.0032565193250775337,3.1261627674102783,26.23,17,13.948,0,0,False,,,,64,100,4,20,0.4191245436668396,178,77.157,,39.1424099,,-76.7304826,False,0.9481714250005098,85.453,,39.142411,,-76.7304787,7.82,,39.142411,,-76.7304787,4.678543567657471,6.771431922912598,-23.298402786254883,value_here,POSCTL,,,,760,,ACTIVE,79.94386959075928,-0.13,-0.4,-2.26,12,1,15,2,17760768,0,13
1732729759.6035202,0.0,True,0.012340258806943893,0.0009934173431247473,3.128173351287842,27.39,16,13.878,0,0,False,,,,64,100,4,20,0.44751468300819397,179,77.157,,39.1424099,,-76.7304826,False,0.03042411099977471,85.758,,39.142411,,-76.7304785,8.124,,39.142411,,-76.7304785,4.409462928771973,6.779937267303467,-23.29983901977539,value_here,POSCTL,,,,760,,ACTIVE,1732729679.6596506,-0.13,-0.42,-2.35,12,1,15,2,17760768,0,13
1732729759.7034981,0.0,True,0.011373758316040039,0.0016012336127460003,3.129559278488159,27.39,16,13.878,0,0,False,,,,64,100,4,19,0.44751468300819397,179,77.633,,39.1424099,,-76.7304848,False,0.12485198200010927,85.918,,39.142411,,-76.7304785,8.284,,39.142411,,-76.7304785,4.164370059967041,6.791244983673096,-23.30348014831543,value_here,POSCTL,,,,760,,ACTIVE,80.04384756088257,-0.13,-0.43,-2.41,12,1,15,2,17760768,0,13
1732729759.8035686,0.0,True,0.01236990187317133,-0.000968532229308039,3.131274461746216,27.39,16,13.878,0,0,False,,,,68,109,4,19,0.44751468300819397,179,77.633,,39.1424099,,-76.7304848,False,0.2317980190000526,86.233,,39.1424109,,-76.7304785,8.6,,39.1424109,,-76.7304785,3.8841798305511475,6.794441223144531,-23.306236267089844,value_here,POSCTL,,,,842,,ACTIVE,1732729679.759721,-0.12,-0.44,-2.49,12,1,15,2,17760768,0,13
1732729759.904761,0.0,True,0.011309865862131119,-0.000606079469434917,3.1318986415863037,27.39,16,13.878,0,0,False,,,,68,109,4,20,0.44751468300819397,179,77.633,,39.1424099,,-76.7304848,False,0.3354292219992203,86.402,,39.1424109,,-76.7304783,8.769,,39.1424109,,-76.7304783,3.603964328765869,6.805963516235352,-23.307336807250977,value_here,POSCTL,,,,842,,ACTIVE,80.1450400352478,-0.11,-0.44,-2.54,12,1,15,2,17760768,0,13
1732729760.0041578,0.0,True,0.008893344551324844,0.0021238040644675493,3.133641242980957,27.39,16,13.878,0,0,False,,,,68,109,4,20,0.4589797258377075,179,77.633,,39.1424099,,-76.7304848,False,0.4318243519992393,86.568,,39.1424109,,-76.7304784,8.935,,39.1424109,,-76.7304784,3.3157424926757812,6.808552265167236,-23.308095932006836,value_here,POSCTL,,,,842,,ACTIVE,1732729679.8591177,-0.11,-0.44,-2.61,12,1,15,2,17760768,0,13
1732729760.104182,0.0,True,0.009762686677277088,0.002037817146629095,3.1345784664154053,27.39,16,13.878,0,0,False,,,,64,100,4,20,0.4589797258377075,179,77.633,,39.1424099,,-76.7304848,False,0.5264505369996186,86.933,,39.1424109,,-76.7304782,9.3,,39.1424109,,-76.7304782,3.0384249687194824,6.819499492645264,-23.30812644958496,value_here,POSCTL,,,,926,,ACTIVE,80.24506425857544,-0.11,-0.45,-2.71,12,1,15,2,17760768,0,13
1732729760.2043226,0.0,True,0.009302355349063873,-0.00034160056384280324,3.135805368423462,27.39,16,13.878,0,0,False,,,,64,100,4,21,0.4589797258377075,179,77.633,,39.1424099,,-76.7304848,False,0.6226021849997778,87.111,,39.1424109,,-76.7304781,9.478,,39.1424109,,-76.7304781,3.0384249687194824,6.819499492645264,-23.30812644958496,value_here,POSCTL,,,,926,,ACTIVE,1732729679.9592583,-0.11,-0.46,-2.72,12,1,15,2,17760768,0,13
1732729760.3045466,0.0,True,0.0077263666316866875,-0.0005565243773162365,3.1376335620880127,27.22,16,13.886,0,0,False,,,,62,94,4,22,0.4846377670764923,179,77.633,,39.1424099,,-76.7304848,False,0.7248042589999386,87.466,,39.1424109,,-76.7304782,9.833,,39.1424109,,-76.7304782,2.7251925468444824,6.821019649505615,-23.311891555786133,value_here,POSCTL,,,,926,,ACTIVE,80.34528827667236,-0.11,-0.47,-2.68,12,1,15,2,17760768,0,13
1732729760.4046633,0.0,True,0.006469263695180416,0.0009780856780707836,3.1395561695098877,27.22,16,13.886,0,0,False,,,,59,89,4,22,0.4846377670764923,179,77.633,,39.1424099,,-76.7304848,False,0.8288163329998497,87.646,,39.1424109,,-76.7304781,10.013,,39.1424109,,-76.7304781,2.4204444885253906,6.823117256164551,-23.31334686279297,value_here,POSCTL,,,,1009,,ACTIVE,1732729680.059375,-0.11,-0.47,-2.66,12,1,15,2,17760768,0,13
1732729760.5056448,0.0,True,0.00696620112285018,0.005303306505084038,3.1414895057678223,27.22,16,13.886,0,0,False,,,,59,89,4,22,0.4846377670764923,179,77.633,,39.1424099,,-76.7304848,False,0.9361945179998656,87.995,,39.1424109,,-76.730478,10.362,,39.1424109,,-76.730478,2.135279893875122,6.834690093994141,-23.31378936767578,value_here,POSCTL,,,,1009,,ACTIVE,80.44626975059509,-0.11,-0.47,-2.65,12,1,15,2,17760768,0,13
1732729760.6049592,0.0,True,0.007654552347958088,0.007280114572495222,-3.1407368183135986,27.22,16,13.886,0,0,False,,,,59,89,4,22,0.5030059814453125,180,77.633,,39.1424099,,-76.7304848,False,0.05677253700014262,88.188,,39.1424109,,-76.730478,10.555,,39.1424109,,-76.730478,1.8478142023086548,6.838263511657715,-23.316923141479492,value_here,POSCTL,,,,1009,,ACTIVE,1732729680.1586895,-0.11,-0.48,-2.66,12,1,15,2,17760768,0,13
1732729760.7050192,0.0,True,0.00915522500872612,0.004435861948877573,-3.139747381210327,27.22,16,13.886,0,0,False,,,,62,93,4,21,0.5030059814453125,180,77.633,,39.1424099,,-76.7304848,False,0.1544336659999317,88.53,,39.1424108,,-76.7304778,10.897,,39.1424108,,-76.7304778,1.5298150777816772,6.851900577545166,-23.320526123046875,value_here,POSCTL,,,,1009,,ACTIVE,80.5463297367096,-0.1,-0.49,-2.68,12,1,15,2,17760768,0,13
1732729760.8052042,0.0,True,0.008586493320763111,0.0022177500650286674,-3.1377530097961426,27.22,16,13.886,0,0,False,,,,62,93,4,22,0.5030059814453125,180,77.633,,39.1424099,,-76.7304848,False,0.26039353700070933,88.722,,39.1424108,,-76.7304777,11.088,,39.1424108,,-76.7304777,1.221078872680664,6.864203929901123,-23.32297134399414,value_here,POSCTL,,,,1096,,ACTIVE,1732729680.2588744,-0.1,-0.49,-2.68,12,1,15,2,17760768,0,13
1732729760.9061272,0.0,True,0.0061553725972771645,0.005146402399986982,-3.1361563205718994,27.22,16,13.886,0,0,False,,,,59,89,4,22,0.5030059814453125,180,77.633,,39.1424099,,-76.7304848,False,0.3625218880006287,88.907,,39.1424108,,-76.7304775,11.274,,39.1424108,,-76.7304775,1.221078872680664,6.864203929901123,-23.32297134399414,value_here,POSCTL,,,,1096,,ACTIVE,80.64725279808044,-0.1,-0.5,-2.68,12,1,15,2,17760768,0,13
1732729761.0061634,0.0,True,0.01009321678429842,0.005666824523359537,-3.1349685192108154,26.99,15,13.876,0,0,False,,,,59,89,4,22,0.5309509038925171,180,77.633,,39.1424099,,-76.7304848,False,0.45983088800039695,89.248,,39.1424107,,-76.7304775,11.615,,39.1424107,,-76.7304775,0.927150547504425,6.874319553375244,-23.32830810546875,value_here,POSCTL,,,,1096,,ACTIVE,1732729680.3589106,-0.12,-0.51,-2.69,12,1,15,2,17760768,0,13
1732729761.106323,0.0,True,0.012472848407924175,0.00576107669621706,-3.1333398818969727,26.99,15,13.876,0,0,False,,,,59,89,4,22,0.5309509038925171,180,77.633,,39.1424099,,-76.7304848,False,0.5583125550001569,89.417,,39.1424107,,-76.7304775,11.784,,39.1424107,,-76.7304775,0.6459285020828247,6.881945610046387,-23.335786819458008,value_here,POSCTL,,,,1180,,ACTIVE,80.74741244316101,-0.11,-0.52,-2.68,12,1,15,2,17760768,0,13
1732729761.2064266,0.0,True,0.011757772415876389,0.0017950001638382673,-3.131657123565674,26.99,15,13.876,0,0,False,,,,59,89,4,22,0.5309509038925171,180,77.633,,39.1424099,,-76.7304848,False,0.6558827030003158,89.75,,39.1424106,,-76.7304776,12.117,,39.1424106,,-76.7304776,0.35315877199172974,6.877457618713379,-23.344728469848633,value_here,POSCTL,,,,1180,,ACTIVE,1732729680.4590142,-0.11,-0.54,-2.55,12,1,15,2,17760768,0,13
1732729761.306779,0.0,True,0.013465221039950848,0.0040592011064291,-3.1288490295410156,26.99,15,13.876,0,0,False,,,,59,89,4,22,0.5457873344421387,180,77.633,,39.1424099,,-76.7304848,False,0.756955814000321,89.922,,39.1424105,,-76.7304775,12.289,,39.1424105,,-76.7304775,0.09283694624900818,6.87792444229126,-23.351694107055664,value_here,POSCTL,,,,1180,,ACTIVE,80.84776473045349,-0.11,-0.53,-2.41,12,1,15,2,17760768,0,13
1732729761.4068081,0.0,True,0.014619368128478527,0.00585276260972023,-3.1250998973846436,26.99,15,13.876,0,0,False,,,,59,89,4,22,0.5457873344421387,180,77.633,,39.1424099,,-76.7304848,False,0.8627897950000261,90.209,,39.1424105,,-76.7304774,12.576,,39.1424105,,-76.7304774,-0.15244756639003754,6.884339809417725,-23.360336303710938,value_here,POSCTL,,,,1180,,ACTIVE,1732729680.5590434,-0.1,-0.52,-2.03,12,1,15,2,17760768,0,13
1732729761.5076702,0.0,True,0.014563803561031818,0.005385409574955702,-3.1191670894622803,26.99,15,13.876,0,0,False,,,,59,89,4,22,0.5457873344421387,180,77.633,,39.1424099,,-76.7304848,False,0.9651277210004992,90.332,,39.1424104,,-76.7304774,12.699,,39.1424104,,-76.7304774,-0.34929272532463074,6.88836669921875,-23.367921829223633,value_here,POSCTL,,,,1240,,ACTIVE,80.94862675666809,-0.09,-0.53,-1.8,12,1,15,2,17760768,0,13
1732729761.6070328,0.0,True,0.014123712666332722,0.005457301624119282,-3.1140103340148926,26.99,15,13.876,0,0,False,,,,59,89,4,22,0.5457873344421387,180,77.633,,39.1424099,,-76.7304848,False,0.05796951899992564,90.433,,39.1424104,,-76.7304773,12.8,,39.1424104,,-76.7304773,-0.34929272532463074,6.88836669921875,-23.367921829223633,value_here,POSCTL,,,,1240,,ACTIVE,1732729680.658406,-0.09,-0.52,-1.58,12,1,15,2,17760768,0,13
1732729761.7073002,0.0,True,0.015189208090305328,0.008858999237418175,-3.1082351207733154,19.72,15,14.017,0,0,False,,,,59,89,4,22,0.5207380056381226,181,77.633,,39.1424099,,-76.7304848,False,0.12997946300038166,90.604,,39.1424103,,-76.7304771,12.97,,39.1424103,,-76.7304771,-0.5081499218940735,6.908730506896973,-23.37240982055664,value_here,POSCTL,,,,1240,,ACTIVE,81.04889416694641,-0.07,-0.51,-1.28,12,1,15,2,17760768,0,13
1732729761.8073318,0.0,True,0.015344538725912571,0.01136193610727787,-3.10573410987854,19.72,15,14.017,0,0,False,,,,59,89,4,22,0.5207380056381226,181,77.633,,39.1424099,,-76.7304848,False,0.2593406670002878,90.765,,39.1424103,,-76.7304771,13.132,,39.1424103,,-76.7304771,-0.6413549780845642,6.917985916137695,-23.378320693969727,value_here,POSCTL,,,,1289,,ACTIVE,1732729680.7584376,-0.05,-0.53,-1.21,12,1,15,2,17760768,0,13
1732729761.9075217,0.0,True,0.01654713600873947,0.008565290831029415,-3.104851245880127,19.72,15,14.017,0,0,False,,,,59,89,4,22,0.5207380056381226,181,77.633,,39.1424099,,-76.7304848,False,0.3441338150005322,90.835,,39.1424102,,-76.7304771,13.201,,39.1424102,,-76.7304771,-0.7637474536895752,6.913318157196045,-23.384536743164062,value_here,POSCTL,,,,1289,,ACTIVE,81.14908409118652,-0.05,-0.54,-1.25,12,1,15,2,17760768,0,13
1732729762.007634,0.0,True,0.014851649291813374,0.004070265218615532,-3.106168508529663,19.72,15,14.017,0,0,False,,,,59,89,4,22,0.5514273047447205,182,77.633,,39.1424099,,-76.7304848,False,0.4597937409998849,90.995,,39.1424102,,-76.7304771,13.362,,39.1424102,,-76.7304771,-0.8978610634803772,6.911466121673584,-23.38877296447754,value_here,POSCTL,,,,1289,,ACTIVE,1732729680.8585498,-0.03,-0.55,-1.35,12,1,15,2,17760768,0,13
1732729762.1086576,0.0,True,0.012230721302330494,0.009334330447018147,-3.1086697578430176,19.72,15,14.017,0,0,False,,,,59,89,4,22,0.5514273047447205,182,77.633,,39.1424099,,-76.7304848,False,0.5617274440000983,91.083,,39.1424102,,-76.7304772,13.45,,39.1424102,,-76.7304772,-1.0368883609771729,6.9033894538879395,-23.393522262573242,value_here,POSCTL,,,,1289,,ACTIVE,81.25010776519775,-0.03,-0.57,-1.38,12,1,15,2,17760768,0,13
1732729762.2088275,0.0,True,0.013207963667809963,0.006574626080691814,-3.110304117202759,19.72,15,14.017,0,0,False,,,,59,89,4,22,0.5514273047447205,182,77.633,,39.1424099,,-76.7304848,False,0.6623457410005358,91.154,,39.1424101,,-76.7304772,13.521,,39.1424101,,-76.7304772,-1.167197823524475,6.895979881286621,-23.398252487182617,value_here,POSCTL,,,,1329,,ACTIVE,1732729680.9587197,-0.03,-0.56,-1.35,12,1,15,2,17760768,0,13
1732729762.3093514,0.0,True,0.015224792063236237,0.0056786444038152695,-3.1109402179718018,20.73,15,13.994,0,0,False,,,,59,89,4,22,0.5514273047447205,182,77.633,,39.1424099,,-76.7304848,False,0.76206822200038,91.306,,39.1424101,,-76.7304773,13.673,,39.1424101,,-76.7304773,-1.167197823524475,6.895979881286621,-23.398252487182617,value_here,POSCTL,,,,1329,,ACTIVE,81.35063171386719,-0.02,-0.57,-1.13,12,1,15,2,17760768,0,13
1732729762.4082325,0.0,True,0.011604777537286282,0.0003473545075394213,-3.10844349861145,20.73,15,13.994,0,0,False,,,,59,89,4,22,0.5759307742118835,181,77.633,,39.1424099,,-76.7304848,False,0.8540935370001534,91.361,,39.1424101,,-76.7304772,13.728,,39.1424101,,-76.7304772,-1.3671228885650635,6.892541408538818,-23.400922775268555,value_here,POSCTL,,,,1329,,ACTIVE,1732729681.0576007,-0.01,-0.57,-0.98,12,1,15,2,17760768,0,13
1732729762.5083413,0.0,True,0.008851860649883747,-0.0019990145228803158,-3.107342004776001,20.73,15,13.994,0,0,False,,,,59,89,4,22,0.5759307742118835,181,77.633,,39.1424099,,-76.7304848,False,0.9603144630000315,91.455,,39.1424101,,-76.7304774,13.822,,39.1424101,,-76.7304774,-1.3671228885650635,6.892541408538818,-23.400922775268555,value_here,POSCTL,,,,1374,,ACTIVE,81.4507405757904,-0.01,-0.57,-0.86,12,1,15,2,17760768,0,13
1732729762.6085591,0.0,True,0.012793675065040588,-0.0029769521206617355,-3.109308958053589,20.73,15,13.994,0,0,False,,,,59,89,4,22,0.5759307742118835,181,77.633,,39.1424099,,-76.7304848,False,0.06070422199991299,91.504,,39.1424101,,-76.7304775,13.871,,39.1424101,,-76.7304775,-1.4399369955062866,6.881514072418213,-23.405044555664062,value_here,POSCTL,,,,1374,,ACTIVE,1732729681.1578186,-0.01,-0.57,-0.89,12,1,15,2,17760768,0,13
1732729762.7086785,0.0,True,0.01165791042149067,-0.004696172662079334,-3.111424446105957,20.73,15,13.994,0,0,False,,,,59,89,4,22,0.5749253034591675,181,77.633,,39.1424099,,-76.7304848,False,0.14907238900013908,91.597,,39.14241,,-76.7304776,13.964,,39.14241,,-76.7304776,-1.5192975997924805,6.874167442321777,-23.40632438659668,value_here,POSCTL,,,,1374,,ACTIVE,81.5508599281311,0.0,-0.57,-0.98,12,1,15,2,17760768,0,13
1732729762.8088572,0.0,True,0.00903296284377575,-0.003142418572679162,-3.115079164505005,20.73,15,13.994,0,0,False,,,,59,89,4,22,0.5749253034591675,181,77.633,,39.1424099,,-76.7304848,False,0.26318396300030145,91.645,,39.14241,,-76.7304776,14.012,,39.14241,,-76.7304776,-1.6003907918930054,6.872143268585205,-23.407852172851562,value_here,POSCTL,,,,1374,,ACTIVE,1732729681.2579973,-0.01,-0.56,-1.0,12,1,15,2,17760768,0,13
1732729762.909313,0.0,True,0.010154271498322487,-3.674330218927935e-05,-3.1172096729278564,20.73,15,13.994,0,0,False,,,,59,89,4,22,0.5749253034591675,181,77.633,,39.1424099,,-76.7304848,False,0.3613808509999217,91.755,,39.14241,,-76.7304778,14.121,,39.14241,,-76.7304778,-1.6928584575653076,6.857086181640625,-23.409818649291992,value_here,POSCTL,,,,1437,,ACTIVE,81.65131568908691,0.0,-0.57,-1.03,12,1,15,2,17760768,0,13
1732729763.0099764,0.0,True,0.008442679420113564,-0.0031924573704600334,-3.1192522048950195,23.13,16,13.962,0,0,False,,,,59,89,4,22,0.5688976645469666,181,77.633,,39.1424099,,-76.7304848,False,0.4655362960002094,91.81,,39.14241,,-76.7304779,14.177,,39.14241,,-76.7304779,-1.78504478931427,6.846487998962402,-23.41122055053711,value_here,POSCTL,,,,1437,,ACTIVE,1732729681.3586607,-0.01,-0.56,-1.02,12,1,15,2,17760768,0,13
1732729763.109104,0.0,True,0.009058328345417976,-0.006156550720334053,-3.1196506023406982,23.13,16,13.962,0,0,False,,,,59,89,4,22,0.5688976645469666,181,77.633,,39.1424099,,-76.7304848,False,0.5593140370001493,91.908,,39.14241,,-76.730478,14.274,,39.14241,,-76.730478,-1.8668073415756226,6.834538459777832,-23.41261863708496,value_here,POSCTL,,,,1437,,ACTIVE,81.75044322013855,-0.01,-0.56,-0.84,12,1,15,2,17760768,0,13
1732729763.2093742,0.0,True,0.012194196693599224,-0.005617676768451929,-3.1181905269622803,23.13,16,13.962,0,0,False,,,,59,89,4,22,0.5688976645469666,181,77.633,,39.1424099,,-76.7304848,False,0.6544348699999318,91.947,,39.14241,,-76.7304781,14.314,,39.14241,,-76.7304781,-1.9330650568008423,6.816113471984863,-23.41391944885254,value_here,POSCTL,,,,1474,,ACTIVE,1732729681.458931,-0.01,-0.55,-0.78,12,1,15,2,17760768,0,13
1732729763.3095613,0.0,True,0.012230738066136837,-0.004755428992211819,-3.1176376342773438,23.13,16,13.962,0,0,False,,,,59,89,4,22,0.5688976645469666,181,77.633,,39.1424099,,-76.7304848,False,0.7632890730001236,91.985,,39.14241,,-76.7304782,14.352,,39.14241,,-76.7304782,-1.9330650568008423,6.816113471984863,-23.41391944885254,value_here,POSCTL,,,,1474,,ACTIVE,81.85063028335571,-0.01,-0.56,-0.75,12,1,15,2,17760768,0,13
1732729763.4095216,0.0,True,0.01230801735073328,-0.00892025139182806,-3.116608142852783,23.13,16,13.962,0,0,False,,,,59,89,4,22,0.5671136379241943,181,77.633,,39.1424099,,-76.7304848,False,0.8479129810002632,92.068,,39.14241,,-76.7304785,14.435,,39.14241,,-76.7304785,-1.9978530406951904,6.798758506774902,-23.413515090942383,value_here,POSCTL,,,,1474,,ACTIVE,1732729681.5588913,0.0,-0.56,-0.78,12,1,15,2,17760768,0,13
1732729763.5098286,0.0,True,0.01117611676454544,-0.010654708370566368,-3.1160216331481934,23.13,16,13.962,0,0,False,,,,59,89,4,22,0.5671136379241943,181,77.633,,39.1424099,,-76.7304848,False,0.9631151100002171,92.109,,39.14241,,-76.7304786,14.475,,39.14241,,-76.7304786,-2.0654444694519043,6.786565780639648,-23.41242218017578,value_here,POSCTL,,,,1502,,ACTIVE,81.95093727111816,0.0,-0.56,-0.81,12,1,15,2,17760768,0,13
