timestamp,airspeed,armed,attitude.pitch,attitude.roll,attitude.yaw,battery.current,battery.level,battery.voltage,commands.count,commands.next,ekf_ok,gimbal.pitch,gimbal.roll,gimbal.yaw,gps_0.eph,gps_0.epv,gps_0.fix_type,gps_0.satellites_visible,groundspeed,heading,home_location.alt,home_location.global_frame,home_location.lat,home_location.local_frame,home_location.lon,is_armable,last_heartbeat,location.global_frame.alt,location.global_frame.global_frame,location.global_frame.lat,location.global_frame.local_frame,location.global_frame.lon,location.global_relative_frame.alt,location.global_relative_frame.global_frame,location.global_relative_frame.lat,location.global_relative_frame.local_frame,location.global_relative_frame.lon,location.local_frame.down,location.local_frame.east,location.local_frame.north,ml_verdict,mode.name,mount_status[0],mount_status[1],mount_status[2],rangefinder.distance,rangefinder.voltage,system_status.state,timedelta,velocity[0],velocity[1],velocity[2],version.autopilot_type,version.major,version.minor,version.patch,version.raw_version,version.release,version.vehicle_type
1732730639.5450017,0.0,True,-0.08324010670185089,0.026200028136372566,3.0988645553588867,1.13,37,14.994,0,0,False,,,,56,75,4,23,0.04951631650328636,177,80.427,,39.1423656,,-76.7305005,False,0.03028692600037175,80.862,,39.1423646,,-76.7304984,0.089,,39.1423646,,-76.7304984,9.183906555175781,5.073575973510742,-28.457311630249023,value_here,POSCTL,,,,11,,ACTIVE,1732730424.1583748,-0.04,0.02,-0.07,12,1,15,2,17760768,0,13
1732730639.6410527,0.0,True,-0.08329496532678604,0.026549000293016434,3.098775625228882,1.13,37,14.994,0,0,False,,,,56,75,4,23,0.04951631650328636,177,80.427,,39.1423656,,-76.7305005,False,0.09336231500037684,80.87,,39.1423646,,-76.7304984,0.096,,39.1423646,,-76.7304984,9.16994857788086,5.075767517089844,-28.458322525024414,value_here,POSCTL,,,,11,,ACTIVE,215.48267793655396,-0.03,0.01,-0.07,12,1,15,2,17760768,0,13
1732730639.7414064,0.0,True,-0.08325330913066864,0.0266730934381485,3.0984935760498047,1.13,37,14.994,0,0,False,,,,56,75,4,24,0.048725761473178864,177,80.427,,39.1423656,,-76.7305005,False,0.21247331500035216,80.887,,39.1423646,,-76.7304984,0.113,,39.1423646,,-76.7304984,9.156129837036133,5.077960968017578,-28.45938491821289,value_here,POSCTL,,,,11,,ACTIVE,1732730424.2587285,-0.04,0.02,-0.07,12,1,15,2,17760768,0,13
1732730639.8412435,0.0,True,-0.08372471481561661,0.027066506445407867,3.0987532138824463,1.13,37,14.994,0,0,False,,,,56,75,4,23,0.048725761473178864,177,80.427,,39.1423656,,-76.7305005,False,0.31637881500046205,80.897,,39.1423646,,-76.7304983,0.123,,39.1423646,,-76.7304983,9.139769554138184,5.079963207244873,-28.46207046508789,value_here,POSCTL,,,,11,,ACTIVE,215.582515001297,-0.04,0.01,-0.07,12,1,15,2,17760768,0,13
1732730639.9416137,0.0,True,-0.08357778191566467,0.027294905856251717,3.098539113998413,1.13,37,14.994,0,0,False,,,,56,75,4,23,0.048725761473178864,177,80.427,,39.1423656,,-76.7305005,False,0.41885857400029636,80.913,,39.1423646,,-76.7304983,0.14,,39.1423646,,-76.7304983,9.126068115234375,5.080838680267334,-28.46430778503418,value_here,POSCTL,,,,11,,ACTIVE,1732730424.3590987,-0.04,0.01,-0.08,12,1,15,2,17760768,0,13
1732730640.0418568,0.0,True,-0.0836113840341568,0.02750403806567192,3.0987753868103027,1.17,37,14.993,0,0,False,,,,56,75,4,23,0.05511447414755821,177,80.427,,39.1423656,,-76.7305005,False,0.5265492400003495,80.923,,39.1423645,,-76.7304983,0.149,,39.1423645,,-76.7304983,9.109657287597656,5.082250595092773,-28.467201232910156,value_here,POSCTL,,,,11,,ACTIVE,215.68275809288025,-0.05,0.01,-0.09,12,1,15,2,17760768,0,13
1732730640.1418386,0.0,True,-0.08391357958316803,0.0280498955398798,3.098778247833252,1.17,37,14.993,0,0,False,,,,56,75,4,23,0.05511447414755821,177,80.427,,39.1423656,,-76.7305005,False,0.6277997590004816,80.944,,39.1423645,,-76.7304983,0.171,,39.1423645,,-76.7304983,9.092385292053223,5.083390712738037,-28.470598220825195,value_here,POSCTL,,,,11,,ACTIVE,1732730424.4590805,-0.05,0.0,-0.08,12,1,15,2,17760768,0,13
1732730640.2422607,0.0,True,-0.08387965708971024,0.028339017182588577,3.0987071990966797,1.17,37,14.993,0,0,False,,,,56,75,4,24,0.05511447414755821,177,80.427,,39.1423656,,-76.7305005,False,0.7275269440006014,80.952,,39.1423645,,-76.7304983,0.179,,39.1423645,,-76.7304983,9.078899383544922,5.083773136138916,-28.47528648376465,value_here,POSCTL,,,,11,,ACTIVE,215.7831802368164,-0.05,0.0,-0.08,12,1,15,2,17760768,0,13
1732730640.3422892,0.0,True,-0.08388427644968033,0.02855774387717247,3.0986599922180176,1.17,37,14.993,0,0,False,,,,56,75,4,23,0.05511447414755821,177,80.427,,39.1423656,,-76.7305005,False,0.8248651109997809,80.96,,39.1423645,,-76.7304983,0.187,,39.1423645,,-76.7304983,9.078899383544922,5.083773136138916,-28.47528648376465,value_here,POSCTL,,,,11,,ACTIVE,1732730424.559109,-0.05,0.0,-0.08,12,1,15,2,17760768,0,13
1732730640.4424384,0.0,True,-0.08306419849395752,0.028818098828196526,3.09885573387146,1.17,37,14.993,0,0,False,,,,56,75,4,23,0.05803637579083443,177,80.427,,39.1423656,,-76.7305005,False,0.9177269990004788,80.976,,39.1423644,,-76.7304983,0.203,,39.1423644,,-76.7304983,9.064961433410645,5.084278106689453,-28.477285385131836,value_here,POSCTL,,,,11,,ACTIVE,215.8833293914795,-0.05,-0.01,-0.07,12,1,15,2,17760768,0,13
1732730640.5425828,0.0,True,-0.08113009482622147,0.029352951794862747,3.0992095470428467,1.17,37,14.993,0,0,False,,,,56,75,4,24,0.05803637579083443,177,80.427,,39.1423656,,-76.7305005,False,0.027696296000613074,80.983,,39.1423644,,-76.7304983,0.21,,39.1423644,,-76.7304983,9.052876472473145,5.083275318145752,-28.47896957397461,value_here,POSCTL,,,,11,,ACTIVE,1732730424.6592534,-0.04,-0.02,-0.07,12,1,15,2,17760768,0,13
1732730640.64291,0.0,True,-0.07949738949537277,0.029421065002679825,3.0992300510406494,1.17,37,14.993,0,0,False,,,,56,75,4,24,0.05803637579083443,177,80.427,,39.1423656,,-76.7305005,False,0.1237494440001683,80.999,,39.1423644,,-76.7304983,0.226,,39.1423644,,-76.7304983,9.039806365966797,5.081506252288818,-28.480052947998047,value_here,POSCTL,,,,11,,ACTIVE,215.98365664482117,-0.04,-0.02,-0.07,12,1,15,2,17760768,0,13
1732730640.7429469,0.0,True,-0.07827048003673553,0.030014822259545326,3.0990264415740967,1.8,37,14.977,0,0,False,,,,56,75,4,23,0.04800690338015556,177,80.427,,39.1423656,,-76.7305005,False,0.2257552030005172,81.007,,39.1423644,,-76.7304983,0.233,,39.1423644,,-76.7304983,9.027006149291992,5.080033779144287,-28.480167388916016,value_here,POSCTL,,,,11,,ACTIVE,1732730424.7592902,-0.04,-0.02,-0.07,12,1,15,2,17760768,0,13
1732730640.8430703,0.0,True,-0.0774209126830101,0.030231431126594543,3.0992491245269775,1.8,37,14.977,0,0,False,,,,56,75,4,24,0.04800690338015556,177,80.427,,39.1423656,,-76.7305005,False,0.3128794989997914,81.021,,39.1423644,,-76.7304984,0.248,,39.1423644,,-76.7304984,9.015231132507324,5.079148769378662,-28.480154037475586,value_here,POSCTL,,,,11,,ACTIVE,216.0837800502777,-0.04,-0.02,-0.07,12,1,15,2,17760768,0,13
1732730640.9431586,0.0,True,-0.07586433738470078,0.03069264255464077,3.099308490753174,1.8,37,14.977,0,0,False,,,,56,75,4,24,0.04800690338015556,177,80.427,,39.1423656,,-76.7305005,False,0.4127810360005242,81.028,,39.1423644,,-76.7304984,0.255,,39.1423644,,-76.7304984,9.00496768951416,5.077164173126221,-28.480812072753906,value_here,POSCTL,,,,11,,ACTIVE,1732730424.8593786,-0.04,-0.03,-0.07,12,1,15,2,17760768,0,13
1732730641.0433247,0.0,True,-0.07439438998699188,0.03119177371263504,3.099377393722534,1.8,37,14.977,0,0,False,,,,56,75,4,24,0.04800690338015556,177,80.427,,39.1423656,,-76.7305005,False,0.5268927030001578,81.041,,39.1423644,,-76.7304984,0.007,,39.1423644,,-76.7304984,9.00496768951416,5.077164173126221,-28.480812072753906,value_here,POSCTL,,,,11,,ACTIVE,216.1839461326599,-0.03,-0.03,-0.07,12,1,15,2,17760768,0,13
1732730641.143521,0.0,True,-0.07269575446844101,0.031264305114746094,3.099426746368408,1.8,37,14.977,0,0,False,,,,56,75,4,24,0.05224083736538887,177,80.427,,39.1423656,,-76.7305005,False,0.6029407030000584,81.05,,39.1423644,,-76.7304984,0.016,,39.1423644,,-76.7304984,8.992249488830566,5.075827598571777,-28.479490280151367,value_here,POSCTL,,,,11,,ACTIVE,1732730424.959575,-0.03,-0.03,-0.07,12,1,15,2,17760768,0,13
1732730641.2436063,0.0,True,-0.06979676336050034,0.031599778681993484,3.0960686206817627,1.8,37,14.977,0,0,False,,,,56,75,4,23,0.05224083736538887,177,80.427,,39.1423656,,-76.7305005,False,0.7182639809998363,81.064,,39.1423644,,-76.7304984,0.03,,39.1423644,,-76.7304984,8.978906631469727,5.07559061050415,-28.477664947509766,value_here,POSCTL,,,,11,,ACTIVE,216.2840313911438,-0.03,-0.04,-0.07,12,1,15,2,17760768,0,13
1732730641.3439016,0.0,True,-0.06658441573381424,0.030878059566020966,3.089531898498535,1.8,37,14.977,0,0,False,,,,56,75,4,23,0.05224083736538887,177,80.427,,39.1423656,,-76.7305005,False,0.8095189989999199,81.075,,39.1423645,,-76.7304984,0.041,,39.1423645,,-76.7304984,8.966238975524902,5.0730156898498535,-28.477121353149414,value_here,POSCTL,,,,11,,ACTIVE,1732730425.0598702,-0.03,-0.04,-0.08,12,1,15,2,17760768,0,13
1732730641.4439037,0.0,True,-0.057119015604257584,0.030865391716361046,3.082590341567993,5.7,37,14.902,0,0,False,,,,56,75,4,23,0.07129549235105515,176,80.427,,39.1423656,,-76.7305005,False,0.924873203000061,81.095,,39.1423645,,-76.7304985,0.061,,39.1423645,,-76.7304985,8.94834041595459,5.0699567794799805,-28.474266052246094,value_here,POSCTL,,,,11,,ACTIVE,216.38403344154358,-0.01,-0.06,-0.09,12,1,15,2,17760768,0,13
1732730641.5440753,0.0,True,-0.048781994730234146,0.02918531373143196,3.076695680618286,5.7,37,14.902,0,0,False,,,,56,75,4,23,0.07129549235105515,176,80.427,,39.1423656,,-76.7305005,False,0.024193795999963186,81.108,,39.1423645,,-76.7304985,0.074,,39.1423645,,-76.7304985,8.928064346313477,5.0660080909729,-28.469345092773438,value_here,POSCTL,,,,11,,ACTIVE,1732730425.1600418,0.0,-0.07,-0.08,12,1,15,2,17760768,0,13
1732730641.6441758,0.0,True,-0.035356130450963974,0.02579430863261223,3.071202039718628,5.7,37,14.902,0,0,False,,,,56,75,4,23,0.07129549235105515,176,80.427,,39.1423656,,-76.7305005,False,0.12698894400000427,81.119,,39.1423645,,-76.7304985,0.085,,39.1423645,,-76.7304985,8.909401893615723,5.062053203582764,-28.46339988708496,value_here,POSCTL,,,,11,,ACTIVE,216.48413395881653,0.0,-0.07,-0.09,12,1,15,2,17760768,0,13
1732730641.7445261,0.0,True,-0.02022816240787506,0.021791798993945122,3.0672011375427246,5.7,37,14.902,0,0,False,,,,56,75,4,24,0.09592904895544052,175,80.427,,39.1423656,,-76.7305005,False,0.22879388900037156,81.144,,39.1423646,,-76.7304986,0.11,,39.1423646,,-76.7304986,8.888059616088867,5.0564351081848145,-28.455293655395508,value_here,POSCTL,,,,11,,ACTIVE,1732730425.2603922,0.01,-0.09,-0.1,12,1,15,2,17760768,0,13
1732730641.8445375,0.0,True,0.0006667491979897022,0.013484206050634384,3.0625174045562744,5.7,37,14.902,0,0,False,,,,56,75,4,24,0.09592904895544052,175,80.427,,39.1423656,,-76.7305005,False,0.32162231500024063,81.158,,39.1423647,,-76.7304986,0.124,,39.1423647,,-76.7304986,8.888059616088867,5.0564351081848145,-28.455293655395508,value_here,POSCTL,,,,11,,ACTIVE,216.5841453075409,0.03,-0.08,-0.12,12,1,15,2,17760768,0,13
1732730641.944697,0.0,True,0.021769559010863304,-0.001938721165060997,3.0549070835113525,5.7,37,14.902,0,0,False,,,,56,75,4,24,0.09592904895544052,175,80.427,,39.1423656,,-76.7305005,False,0.4254616480002369,81.188,,39.1423648,,-76.7304987,0.154,,39.1423648,,-76.7304987,8.864700317382812,5.052115440368652,-28.44597053527832,value_here,POSCTL,,,,12,,ACTIVE,1732730425.3605516,0.03,-0.08,-0.15,12,1,15,2,17760768,0,13
1732730642.0449326,0.0,True,0.027014868333935738,-0.03066168911755085,3.0414376258850098,5.7,37,14.902,0,0,False,,,,53,75,4,24,0.09592904895544052,175,80.427,,39.1423656,,-76.7305005,False,0.5305240919997232,81.206,,39.1423648,,-76.7304987,0.172,,39.1423648,,-76.7304987,8.838606834411621,5.050259113311768,-28.43633460998535,value_here,POSCTL,,,,12,,ACTIVE,216.6843810081482,0.03,-0.07,-0.2,12,1,15,2,17760768,0,13
1732730642.1457503,0.0,True,0.025158168748021126,-0.04909122362732887,3.019498348236084,16.93,35,14.614,0,0,False,,,,53,75,4,24,0.09202504903078079,173,80.427,,39.1423656,,-76.7305005,False,0.6324151660001007,81.254,,39.142365,,-76.7304987,0.22,,39.142365,,-76.7304987,8.801774024963379,5.051624774932861,-28.424787521362305,value_here,POSCTL,,,,12,,ACTIVE,1732730425.4613693,0.05,-0.08,-0.34,12,1,15,2,17760768,0,13
1732730642.2451897,0.0,True,0.01653912290930748,-0.05561436712741852,3.0012190341949463,16.93,35,14.614,0,0,False,,,,58,79,4,24,0.09202504903078079,173,80.427,,39.1423656,,-76.7305005,False,0.7096695179998278,81.289,,39.142365,,-76.7304987,0.255,,39.142365,,-76.7304987,8.746891021728516,5.050723552703857,-28.41145896911621,value_here,POSCTL,,,,18,,ACTIVE,216.7838203907013,0.08,-0.08,-0.46,12,1,15,2,17760768,0,13
1732730642.3453598,0.0,True,-0.005530541762709618,-0.05183326452970505,2.968487501144409,16.93,35,14.614,0,0,False,,,,59,79,4,23,0.09202504903078079,173,80.427,,39.1423656,,-76.7305005,False,0.8150605920000089,81.377,,39.1423652,,-76.7304987,0.343,,39.1423652,,-76.7304987,8.67390251159668,5.051573276519775,-28.39713478088379,value_here,POSCTL,,,,18,,ACTIVE,1732730425.5615394,0.09,-0.06,-0.73,12,1,15,2,17760768,0,13
1732730642.4465609,0.0,True,-0.012292628176510334,-0.0416596457362175,2.933349132537842,16.93,35,14.614,0,0,False,,,,59,79,4,24,0.12801305949687958,168,80.427,,39.1423656,,-76.7305005,False,0.9332442960003391,81.434,,39.1423653,,-76.7304986,0.4,,39.1423653,,-76.7304986,8.57382869720459,5.057595252990723,-28.381084442138672,value_here,POSCTL,,,,18,,ACTIVE,216.88502144813538,0.11,-0.05,-0.86,12,1,15,2,17760768,0,13
1732730642.5456302,0.0,True,-0.016944488510489464,-0.032358501106500626,2.8988265991210938,16.93,35,14.614,0,0,False,,,,58,79,4,24,0.12801305949687958,168,80.427,,39.1423656,,-76.7305005,False,0.02552068600016355,81.577,,39.1423655,,-76.7304985,0.543,,39.1423655,,-76.7304985,8.458908081054688,5.067546844482422,-28.36337661743164,value_here,POSCTL,,,,18,,ACTIVE,1732730425.6606088,0.12,-0.05,-1.04,12,1,15,2,17760768,0,13
1732730642.6462915,0.0,True,-0.022493144497275352,-0.01946435496211052,2.8728363513946533,16.93,35,14.614,0,0,False,,,,57,77,4,23,0.12801305949687958,168,80.427,,39.1423656,,-76.7305005,False,0.1285334630001671,81.654,,39.1423656,,-76.7304984,0.62,,39.1423656,,-76.7304984,8.326250076293945,5.07948637008667,-28.34749984741211,value_here,POSCTL,,,,44,,ACTIVE,216.98568272590637,0.12,-0.06,-1.09,12,1,15,2,17760768,0,13
1732730642.7464473,0.0,True,-0.02834813855588436,-0.011049381457269192,2.8311822414398193,23.36,30,14.353,0,0,False,,,,57,77,4,23,0.12801305949687958,168,80.427,,39.1423656,,-76.7305005,False,0.22763705599936657,81.738,,39.1423656,,-76.7304983,0.704,,39.1423656,,-76.7304983,8.326250076293945,5.07948637008667,-28.34749984741211,value_here,POSCTL,,,,44,,ACTIVE,1732730425.7607646,0.12,-0.05,-1.09,12,1,15,2,17760768,0,13
1732730642.8466551,0.0,True,-0.037067778408527374,-0.009686452336609364,2.7958250045776367,23.36,30,14.353,0,0,False,,,,58,77,4,22,0.1284298151731491,161,80.427,,39.1423656,,-76.7305005,False,0.31553159299983236,81.894,,39.1423658,,-76.7304981,0.86,,39.1423658,,-76.7304981,8.195799827575684,5.094213962554932,-28.3323917388916,value_here,POSCTL,,,,44,,ACTIVE,217.08589053153992,0.08,-0.07,-1.08,12,1,15,2,17760768,0,13
1732730642.9467137,0.0,True,-0.04150449112057686,-0.009473813697695732,2.7690258026123047,23.36,30,14.353,0,0,False,,,,63,85,4,22,0.1284298151731491,161,80.427,,39.1423656,,-76.7305005,False,0.4282594259993857,81.969,,39.1423659,,-76.730498,0.935,,39.1423659,,-76.730498,8.066863059997559,5.1085205078125,-28.31996726989746,value_here,POSCTL,,,,79,,ACTIVE,1732730425.8608232,0.08,-0.08,-1.09,12,1,15,2,17760768,0,13
1732730643.0469499,0.0,True,-0.036910660564899445,-0.011453351937234402,2.746295928955078,23.36,30,14.353,0,0,False,,,,63,85,4,23,0.1284298151731491,161,80.427,,39.1423656,,-76.7305005,False,0.5179632780000247,82.125,,39.142366,,-76.7304978,1.091,,39.142366,,-76.7304978,7.934256076812744,5.122145652770996,-28.31085777282715,value_here,POSCTL,,,,79,,ACTIVE,217.18612670898438,0.04,-0.1,-1.13,12,1,15,2,17760768,0,13
1732730643.147159,0.0,True,-0.0071824053302407265,-0.021593408659100533,2.7284905910491943,23.36,30,14.353,0,0,False,,,,63,85,4,23,0.1180586963891983,156,80.427,,39.1423656,,-76.7305005,False,0.6271830369996678,82.211,,39.142366,,-76.7304977,1.177,,39.142366,,-76.7304977,7.7934651374816895,5.136797904968262,-28.305946350097656,value_here,POSCTL,,,,79,,ACTIVE,1732730425.9610324,0.02,-0.11,-1.14,12,1,15,2,17760768,0,13
1732730643.2471616,0.0,True,0.07075658440589905,-0.043235763907432556,2.7150306701660156,23.36,30,14.353,0,0,False,,,,58,77,4,23,0.1180586963891983,156,80.427,,39.1423656,,-76.7305005,False,0.7246949999998833,82.381,,39.142366,,-76.7304976,1.347,,39.142366,,-76.7304976,7.654947280883789,5.144793510437012,-28.300973892211914,value_here,POSCTL,,,,79,,ACTIVE,217.2861292362213,0.07,-0.14,-1.17,12,1,15,2,17760768,0,13
1732730643.3474274,0.0,True,0.1614978313446045,-0.06816883385181427,2.7047171592712402,23.36,30,14.353,0,0,False,,,,58,77,4,20,0.1180586963891983,156,80.427,,39.1423656,,-76.7305005,False,0.8278385369994794,82.459,,39.1423661,,-76.7304975,1.425,,39.1423661,,-76.7304975,7.5077128410339355,5.154858589172363,-28.2814884185791,value_here,POSCTL,,,,115,,ACTIVE,1732730426.0612981,0.13,-0.15,-1.17,12,1,15,2,17760768,0,13
1732730643.4476707,0.0,True,0.20804576575756073,-0.07527970522642136,2.7007832527160645,25.01,25,14.198,0,0,False,,,,63,79,4,22,0.1180586963891983,156,80.427,,39.1423656,,-76.7305005,False,0.9297812409995458,82.639,,39.1423665,,-76.7304974,1.605,,39.1423665,,-76.7304974,7.5077128410339355,5.154858589172363,-28.2814884185791,value_here,POSCTL,,,,115,,ACTIVE,217.38637256622314,0.36,-0.21,-1.19,12,1,15,2,17760768,0,13
1732730643.5478177,0.0,True,0.24792207777500153,-0.07804393768310547,2.699927806854248,25.01,25,14.198,0,0,False,,,,59,77,4,23,0.4891701638698578,154,80.427,,39.1423656,,-76.7305005,False,0.009351556000183336,82.733,,39.1423668,,-76.7304973,1.699,,39.1423668,,-76.7304973,7.376313209533691,5.164045333862305,-28.244701385498047,value_here,POSCTL,,,,115,,ACTIVE,1732730426.1614451,0.53,-0.25,-1.2,12,1,15,2,17760768,0,13
1732730643.6478515,0.0,True,0.24385423958301544,-0.07098133862018585,2.7096590995788574,25.01,25,14.198,0,0,False,,,,58,77,4,21,0.4891701638698578,154,80.427,,39.1423656,,-76.7305005,False,0.13028551900060847,82.906,,39.1423676,,-76.7304972,1.872,,39.1423676,,-76.7304972,7.226334571838379,5.170994758605957,-28.179325103759766,value_here,POSCTL,,,,157,,ACTIVE,217.48640632629395,0.84,-0.32,-1.18,12,1,15,2,17760768,0,13
1732730643.748061,0.0,True,0.19314859807491302,-0.05652836337685585,2.7284932136535645,25.01,25,14.198,0,0,False,,,,58,77,4,21,0.4891701638698578,154,80.427,,39.1423656,,-76.7305005,False,0.21281679599997005,83.002,,39.1423683,,-76.7304972,1.968,,39.1423683,,-76.7304972,7.077753067016602,5.175985813140869,-28.08355712890625,value_here,POSCTL,,,,157,,ACTIVE,1732730426.2616546,0.99,-0.36,-1.17,12,1,15,2,17760768,0,13
1732730643.848203,0.0,True,0.12372474372386932,-0.04432948678731918,2.760169267654419,25.01,25,14.198,0,0,False,,,,61,79,4,23,1.200765609741211,157,80.427,,39.1423656,,-76.7305005,False,0.32500192600036826,83.161,,39.1423696,,-76.7304972,2.127,,39.1423696,,-76.7304972,6.929708480834961,5.176887035369873,-27.957454681396484,value_here,POSCTL,,,,157,,ACTIVE,217.58654832839966,1.21,-0.39,-1.2,12,1,15,2,17760768,0,13
1732730643.9483812,0.0,True,0.11788784712553024,-0.038608431816101074,2.809847831726074,25.01,25,14.198,0,0,False,,,,59,78,4,22,1.200765609741211,157,81.034,,39.1423644,,-76.7304984,False,0.4294141110003693,83.258,,39.1423705,,-76.7304972,2.224,,39.1423705,,-76.7304972,6.778207302093506,5.181944370269775,-27.806907653808594,value_here,POSCTL,,,,193,,ACTIVE,1732730426.3618329,1.32,-0.38,-1.23,12,1,15,2,17760768,0,13
1732730644.0498016,0.0,True,0.13447438180446625,-0.03491736948490143,2.867833375930786,25.01,25,14.198,0,0,False,,,,61,79,4,22,1.200765609741211,157,81.034,,39.1423644,,-76.7304984,False,0.5351192960006301,83.44,,39.1423723,,-76.7304969,2.406,,39.1423723,,-76.7304969,6.623764514923096,5.1967549324035645,-27.633468627929688,value_here,POSCTL,,,,193,,ACTIVE,217.6879687309265,1.51,-0.35,-1.24,12,1,15,2,17760768,0,13
1732730644.1489382,0.0,True,0.18023231625556946,-0.028753504157066345,2.930079936981201,25.2,23,14.121,0,0,False,,,,61,79,4,22,1.7252658605575562,167,81.034,,39.1423644,,-76.7304984,False,0.6303303330005292,83.543,,39.1423735,,-76.7304966,2.509,,39.1423735,,-76.7304966,6.466475009918213,5.241301536560059,-27.437969207763672,value_here,POSCTL,,,,193,,ACTIVE,1732730426.4609694,1.65,-0.31,-1.25,12,1,15,2,17760768,0,13
1732730644.249908,0.0,True,0.2629958689212799,-0.015859877690672874,3.0013365745544434,25.2,23,14.121,0,0,False,,,,59,77,4,22,1.7252658605575562,167,81.034,,39.1423644,,-76.7304984,False,0.7352761110005304,83.643,,39.1423747,,-76.7304962,2.609,,39.1423747,,-76.7304962,6.302461624145508,5.2956461906433105,-27.20915985107422,value_here,POSCTL,,,,193,,ACTIVE,217.78893852233887,1.8,-0.28,-1.27,12,1,15,2,17760768,0,13
1732730644.3492248,0.0,True,0.32866451144218445,-0.021635042503476143,3.0540614128112793,25.2,23,14.121,0,0,False,,,,59,77,4,21,1.7252658605575562,167,81.034,,39.1423644,,-76.7304984,False,0.8229094440002882,83.826,,39.1423772,,-76.7304955,2.792,,39.1423772,,-76.7304955,6.302461624145508,5.2956461906433105,-27.20915985107422,value_here,POSCTL,,,,239,,ACTIVE,1732730426.5602863,2.17,-0.23,-1.26,12,1,15,2,17760768,0,13
1732730644.4501154,0.0,True,0.36592021584510803,-0.03426436334848404,3.108675718307495,25.2,23,14.121,0,0,False,,,,59,78,4,22,1.7252658605575562,167,81.034,,39.1423644,,-76.7304984,False,0.9348680180000883,83.917,,39.1423785,,-76.7304951,2.883,,39.1423785,,-76.7304951,6.149694919586182,5.345663547515869,-26.964738845825195,value_here,POSCTL,,,,239,,ACTIVE,217.88982915878296,2.38,-0.21,-1.24,12,1,15,2,17760768,0,13
1732730644.5494819,0.0,True,0.35535043478012085,-0.04059050977230072,-3.1307804584503174,25.2,23,14.121,0,0,False,,,,56,75,4,23,2.732931137084961,178,81.034,,39.1423644,,-76.7304984,False,0.03266270299991447,84.112,,39.142382,,-76.7304943,3.078,,39.142382,,-76.7304943,5.992110252380371,5.4033355712890625,-26.67034912109375,value_here,POSCTL,,,,239,,ACTIVE,1732730426.6596527,2.86,-0.11,-1.21,12,1,15,2,17760768,0,13
1732730644.6494734,0.0,True,0.3194936215877533,-0.03894505277276039,-3.0956785678863525,25.2,23,14.121,0,0,False,,,,56,75,4,23,2.732931137084961,178,81.034,,39.1423644,,-76.7304984,False,0.13534562899985758,84.2,,39.1423838,,-76.7304939,3.166,,39.1423838,,-76.7304939,5.83614444732666,5.465209007263184,-26.327068328857422,value_here,POSCTL,,,,283,,ACTIVE,217.98982071876526,3.09,-0.06,-1.21,12,1,15,2,17760768,0,13
1732730644.7499714,0.0,True,0.271267831325531,-0.03152303025126457,-3.0622684955596924,25.2,23,14.121,0,0,False,,,,56,75,4,23,2.732931137084961,178,81.034,,39.1423644,,-76.7304984,False,0.2371255359994393,84.396,,39.1423882,,-76.7304926,3.362,,39.1423882,,-76.7304926,5.667532444000244,5.56022834777832,-25.91054344177246,value_here,POSCTL,,,,283,,ACTIVE,1732730426.7601507,3.51,0.08,-1.2,12,1,15,2,17760768,0,13
1732730644.8501437,0.0,True,0.2338925004005432,-0.022920478135347366,-3.043339490890503,25.88,21,14.064,0,0,False,,,,56,75,4,23,3.726086378097534,185,81.034,,39.1423644,,-76.7304984,False,0.3314297219994842,84.491,,39.1423905,,-76.730492,3.457,,39.1423905,,-76.730492,5.519876003265381,5.638419151306152,-25.51285743713379,value_here,POSCTL,,,,283,,ACTIVE,218.08999300003052,3.67,0.14,-1.2,12,1,15,2,17760768,0,13
1732730644.9501035,0.0,True,0.15980692207813263,-0.00733941188082099,-3.016371250152588,25.88,21,14.064,0,0,False,,,,56,75,4,23,3.726086378097534,185,81.034,,39.1423644,,-76.7304984,False,0.43086249899988616,84.675,,39.1423953,,-76.7304907,3.641,,39.1423953,,-76.7304907,5.361293792724609,5.735391616821289,-25.0504093170166,value_here,POSCTL,,,,283,,ACTIVE,1732730426.8601105,3.9,0.23,-1.19,12,1,15,2,17760768,0,13
1732730645.0504017,0.0,True,0.08866789937019348,0.0021228003315627575,-2.995579719543457,25.88,21,14.064,0,0,False,,,,58,77,4,22,3.726086378097534,185,81.034,,39.1423644,,-76.7304984,False,0.5267426660002457,84.767,,39.1423978,,-76.7304901,3.733,,39.1423978,,-76.7304901,5.21082878112793,5.821713447570801,-24.589696884155273,value_here,POSCTL,,,,302,,ACTIVE,218.19029116630554,3.98,0.26,-1.21,12,1,15,2,17760768,0,13
1732730645.1507761,0.0,True,0.0035672702360898256,-0.0011301871854811907,-2.976341724395752,25.88,21,14.064,0,0,False,,,,58,77,4,22,3.726086378097534,185,81.034,,39.1423644,,-76.7304984,False,0.6378642210001999,84.856,,39.1424002,,-76.7304895,3.822,,39.1424002,,-76.7304895,5.21082878112793,5.821713447570801,-24.589696884155273,value_here,POSCTL,,,,302,,ACTIVE,1732730426.960485,4.01,0.27,-1.23,12,1,15,2,17760768,0,13
1732730645.2508266,0.0,True,-0.07718566805124283,-0.01498053316026926,-2.9609909057617188,25.88,21,14.064,0,0,False,,,,57,77,4,23,3.999035358428955,189,81.034,,39.1423644,,-76.7304984,False,0.7207200920001924,85.034,,39.1424051,,-76.7304884,4.0,,39.1424051,,-76.7304884,5.062648773193359,5.9060468673706055,-24.142711639404297,value_here,POSCTL,,,,302,,ACTIVE,218.29034161567688,3.95,0.27,-1.24,12,1,15,2,17760768,0,13
1732730645.3509655,0.0,True,-0.15570171177387238,-0.02288014627993107,-2.9460272789001465,25.88,21,14.064,0,0,False,,,,57,77,4,24,3.999035358428955,189,81.034,,39.1423644,,-76.7304984,False,0.8369408689995907,85.222,,39.1424099,,-76.7304874,4.188,,39.1424099,,-76.7304874,4.918389797210693,5.975543022155762,-23.712350845336914,value_here,POSCTL,,,,332,,ACTIVE,1732730427.060624,3.76,0.26,-1.27,12,1,15,2,17760768,0,13
1732730645.4512222,0.0,True,-0.2348552942276001,-0.0316142812371254,-2.9318885803222656,25.88,21,14.064,0,0,False,,,,57,77,4,23,3.999035358428955,189,81.034,,39.1423644,,-76.7304984,False,0.9265831100001378,85.326,,39.1424123,,-76.7304868,4.292,,39.1424123,,-76.7304868,4.750002384185791,6.057925224304199,-23.25726890563965,value_here,POSCTL,,,,332,,ACTIVE,218.39059829711914,3.59,0.23,-1.29,12,1,15,2,17760768,0,13
1732730645.5513241,0.0,True,-0.307309091091156,-0.04368176683783531,-2.920712947845459,25.27,19,14.017,0,0,False,,,,56,77,4,23,3.3536570072174072,192,81.034,,39.1423644,,-76.7304984,False,0.030950313999710488,85.421,,39.1424144,,-76.7304863,4.387,,39.1424144,,-76.7304863,4.578822612762451,6.129103183746338,-22.82927894592285,value_here,POSCTL,,,,332,,ACTIVE,1732730427.1607258,3.41,0.21,-1.31,12,1,15,2,17760768,0,13
1732730645.652186,0.0,True,-0.36156579852104187,-0.05470489710569382,-2.911830425262451,25.27,19,14.017,0,0,False,,,,56,77,4,23,3.3536570072174072,192,81.034,,39.1423644,,-76.7304984,False,0.13356998099970951,85.627,,39.1424187,,-76.7304855,4.593,,39.1424187,,-76.7304855,4.408911228179932,6.184936046600342,-22.44965362548828,value_here,POSCTL,,,,397,,ACTIVE,218.49146008491516,2.92,0.14,-1.35,12,1,15,2,17760768,0,13
1732730645.7514803,0.0,True,-0.35967034101486206,-0.05796394124627113,-2.902670383453369,25.27,19,14.017,0,0,False,,,,56,77,4,23,3.3536570072174072,192,81.034,,39.1423644,,-76.7304984,False,0.2279070739996314,85.719,,39.1424203,,-76.7304852,4.685,,39.1424203,,-76.7304852,4.241683483123779,6.236055374145508,-22.12940216064453,value_here,POSCTL,,,,397,,ACTIVE,1732730427.2600203,2.69,0.1,-1.37,12,1,15,2,17760768,0,13
1732730645.8516712,0.0,True,-0.3302578628063202,-0.059417974203825,-2.8984920978546143,25.27,19,14.017,0,0,False,,,,57,78,4,24,2.146826982498169,194,81.034,,39.1423644,,-76.7304984,False,0.33228459200017824,85.928,,39.1424236,,-76.7304845,4.894,,39.1424236,,-76.7304845,4.078796863555908,6.279199123382568,-21.855148315429688,value_here,POSCTL,,,,397,,ACTIVE,218.5916509628296,2.21,0.03,-1.32,12,1,15,2,17760768,0,13
1732730645.9517548,0.0,True,-0.2711958587169647,-0.0699075385928154,-2.893718719482422,25.27,19,14.017,0,0,False,,,,57,78,4,24,2.146826982498169,194,81.034,,39.1423644,,-76.7304984,False,0.4291072219994021,86.027,,39.142425,,-76.7304842,4.993,,39.142425,,-76.7304842,4.078796863555908,6.279199123382568,-21.855148315429688,value_here,POSCTL,,,,397,,ACTIVE,1732730427.3601038,1.99,0.0,-1.28,12,1,15,2,17760768,0,13
1732730646.0527408,0.0,True,-0.2335936725139618,-0.07047466933727264,-2.8947367668151855,25.27,19,14.017,0,0,False,,,,53,75,4,24,2.146826982498169,194,81.034,,39.1423644,,-76.7304984,False,0.5346169069998723,86.218,,39.1424274,,-76.7304836,5.184,,39.1424274,,-76.7304836,3.9142823219299316,6.320867538452148,-21.607858657836914,value_here,POSCTL,,,,425,,ACTIVE,218.69263696670532,1.62,-0.03,-1.27,12,1,15,2,17760768,0,13
1732730646.1521354,0.0,True,-0.2131212204694748,-0.06577596068382263,-2.8972244262695312,25.27,19,14.017,0,0,False,,,,53,75,4,24,2.146826982498169,194,81.034,,39.1423644,,-76.7304984,False,0.607591035999576,86.307,,39.1424283,,-76.7304834,5.273,,39.1424283,,-76.7304834,3.763690948486328,6.361086368560791,-21.4148006439209,value_here,POSCTL,,,,425,,ACTIVE,1732730427.4594984,1.47,-0.05,-1.27,12,1,15,2,17760768,0,13
1732730646.2522204,0.0,True,-0.18800128996372223,-0.06245383247733116,-2.901296854019165,25.47,19,14.012,0,0,False,,,,53,75,4,24,1.265285849571228,193,81.034,,39.1423644,,-76.7304984,False,0.7198811660000501,86.493,,39.14243,,-76.7304828,5.459,,39.14243,,-76.7304828,3.6102638244628906,6.401872158050537,-21.251708984375,value_here,POSCTL,,,,425,,ACTIVE,218.79272198677063,1.18,-0.06,-1.28,12,1,15,2,17760768,0,13
1732730646.3524885,0.0,True,-0.157106414437294,-0.055417250841856,-2.911479949951172,25.47,19,14.012,0,0,False,,,,53,75,4,21,1.265285849571228,193,81.034,,39.1423644,,-76.7304984,False,0.817950202999782,86.592,,39.1424308,,-76.7304824,5.558,,39.1424308,,-76.7304824,3.4447336196899414,6.4540839195251465,-21.104007720947266,value_here,POSCTL,,,,454,,ACTIVE,1732730427.5597665,1.06,-0.06,-1.3,12,1,15,2,17760768,0,13
1732730646.452507,0.0,True,-0.14171376824378967,-0.044524841010570526,-2.926025152206421,25.47,19,14.012,0,0,False,,,,59,78,4,23,1.265285849571228,193,81.034,,39.1423644,,-76.7304984,False,0.9329694250000102,86.794,,39.142432,,-76.7304814,5.76,,39.142432,,-76.7304814,3.2870121002197266,6.52095890045166,-20.993959426879883,value_here,POSCTL,,,,454,,ACTIVE,218.89274048805237,0.82,-0.01,-1.3,12,1,15,2,17760768,0,13
1732730646.5527925,0.0,True,-0.13476936519145966,-0.03615083917975426,-2.9458210468292236,25.47,19,14.012,0,0,False,,,,58,77,4,23,0.7286012172698975,191,81.034,,39.1423644,,-76.7304984,False,0.01620509199983644,86.876,,39.1424324,,-76.7304808,5.842,,39.1424324,,-76.7304808,3.135291814804077,6.612302303314209,-20.909160614013672,value_here,POSCTL,,,,454,,ACTIVE,1732730427.660052,0.74,0.01,-1.31,12,1,15,2,17760768,0,13
1732730646.6526618,0.0,True,-0.1278938502073288,-0.020707115530967712,-2.9649672508239746,25.47,19,14.012,0,0,False,,,,58,77,4,23,0.7286012172698975,191,81.034,,39.1423644,,-76.7304984,False,0.12066368499927194,87.06,,39.1424331,,-76.7304794,6.026,,39.1424331,,-76.7304794,2.9762537479400635,6.7149457931518555,-20.840776443481445,value_here,POSCTL,,,,454,,ACTIVE,218.9926097393036,0.57,0.06,-1.31,12,1,15,2,17760768,0,13
1732730646.7529945,0.0,True,-0.11961675435304642,-0.008542420342564583,-2.986201047897339,25.47,19,14.012,0,0,False,,,,56,75,4,23,0.7286012172698975,191,81.034,,39.1423644,,-76.7304984,False,0.22061388799920678,87.162,,39.1424334,,-76.7304787,6.128,,39.1424334,,-76.7304787,2.8251779079437256,6.810629367828369,-20.791000366210938,value_here,POSCTL,,,,492,,ACTIVE,1732730427.7603848,0.48,0.07,-1.32,12,1,15,2,17760768,0,13
1732730646.853484,0.0,True,-0.10673245042562485,-0.0015399117255583405,-3.007655620574951,25.47,19,14.012,0,0,False,,,,56,75,4,24,0.7286012172698975,191,81.034,,39.1423644,,-76.7304984,False,0.32162733299992396,87.252,,39.1424337,,-76.7304779,6.218,,39.1424337,,-76.7304779,2.8251779079437256,6.810629367828369,-20.791000366210938,value_here,POSCTL,,,,492,,ACTIVE,219.09309911727905,0.42,0.09,-1.33,12,1,15,2,17760768,0,13
1732730646.9535336,0.0,True,-0.09268710017204285,0.009759658947587013,-3.029888868331909,25.3,18,13.976,0,0,False,,,,56,75,4,23,0.3543073534965515,187,81.034,,39.1423644,,-76.7304984,False,0.4114227589998336,87.436,,39.142434,,-76.7304762,6.402,,39.142434,,-76.7304762,2.659719944000244,6.945840358734131,-20.754680633544922,value_here,POSCTL,,,,492,,ACTIVE,1732730427.8604345,0.29,0.12,-1.4,12,1,15,2,17760768,0,13
1732730647.0536742,0.0,True,-0.07707464694976807,0.02130778878927231,-3.0526440143585205,25.3,18,13.976,0,0,False,,,,56,75,4,23,0.3543073534965515,187,81.034,,39.1423644,,-76.7304984,False,0.5167628509998394,87.539,,39.1424341,,-76.7304751,6.505,,39.1424341,,-76.7304751,2.497002601623535,7.0830078125,-20.736656188964844,value_here,POSCTL,,,,532,,ACTIVE,219.1932396888733,0.22,0.14,-1.44,12,1,15,2,17760768,0,13
1732730647.1538835,0.0,True,-0.06049485132098198,0.02744031511247158,-3.074044942855835,25.3,18,13.976,0,0,False,,,,56,75,4,23,0.3543073534965515,187,81.034,,39.1423644,,-76.7304984,False,0.6186575729998367,87.731,,39.1424341,,-76.7304732,6.697,,39.1424341,,-76.7304732,2.3342928886413574,7.231337070465088,-20.730871200561523,value_here,POSCTL,,,,532,,ACTIVE,1732730427.9606438,0.13,0.15,-1.52,12,1,15,2,17760768,0,13
1732730647.2541952,0.0,True,-0.04289202019572258,0.028359118849039078,-3.089967966079712,25.3,18,13.976,0,0,False,,,,56,75,4,23,0.16588717699050903,183,81.034,,39.1423644,,-76.7304984,False,0.7195629249999911,87.826,,39.1424341,,-76.7304724,6.792,,39.1424341,,-76.7304724,2.161346197128296,7.343520164489746,-20.72889518737793,value_here,POSCTL,,,,532,,ACTIVE,219.29355144500732,0.1,0.14,-1.54,12,1,15,2,17760768,0,13
1732730647.3549423,0.0,True,-0.024272436276078224,0.021380417048931122,-3.110532283782959,25.3,18,13.976,0,0,False,,,,56,75,4,24,0.16588717699050903,183,81.034,,39.1423644,,-76.7304984,False,0.8243448139992324,88.052,,39.1424341,,-76.7304704,7.018,,39.1424341,,-76.7304704,1.9844930171966553,7.488227844238281,-20.734804153442383,value_here,POSCTL,,,,532,,ACTIVE,1732730428.0613909,0.06,0.14,-1.63,12,1,15,2,17760768,0,13
1732730647.4543676,0.0,True,-0.012405550107359886,0.025801371783018112,-3.1215462684631348,25.3,18,13.976,0,0,False,,,,56,75,4,23,0.16588717699050903,183,81.034,,39.1423644,,-76.7304984,False,0.9067997769998328,88.145,,39.142434,,-76.7304694,7.111,,39.142434,,-76.7304694,1.8125075101852417,7.6356306076049805,-20.74264907836914,value_here,POSCTL,,,,579,,ACTIVE,219.39297676086426,0.05,0.14,-1.67,12,1,15,2,17760768,0,13
1732730647.5548153,0.0,True,2.4950402803369798e-05,0.04752866551280022,-3.1413052082061768,25.3,18,13.976,0,0,False,,,,56,75,4,23,0.16588717699050903,183,81.034,,39.1423644,,-76.7304984,False,0.04292392600018502,88.377,,39.1424339,,-76.7304675,7.343,,39.1424339,,-76.7304675,1.8125075101852417,7.6356306076049805,-20.74264907836914,value_here,POSCTL,,,,579,,ACTIVE,1732730428.1618385,0.05,0.11,-1.74,12,1,15,2,17760768,0,13
1732730647.655966,0.0,True,-8.49277712404728e-05,0.06299661844968796,3.1264655590057373,26.52,16,13.916,0,0,False,,,,56,75,4,23,0.1190841794013977,179,81.034,,39.1423644,,-76.7304984,False,0.14459270400038804,88.494,,39.1424339,,-76.7304665,7.46,,39.1424339,,-76.7304665,1.6220897436141968,7.767795085906982,-20.754369735717773,value_here,POSCTL,,,,579,,ACTIVE,219.49412751197815,0.04,0.11,-1.78,12,1,15,2,17760768,0,13
1732730647.755869,0.0,True,-0.0010402777697890997,0.07800228893756866,3.113924264907837,26.52,16,13.916,0,0,False,,,,56,75,4,23,0.1190841794013977,179,81.034,,39.1423644,,-76.7304984,False,0.24514805499984504,88.731,,39.1424338,,-76.7304648,7.697,,39.1424338,,-76.7304648,1.4366235733032227,7.895042896270752,-20.76251220703125,value_here,POSCTL,,,,633,,ACTIVE,1732730428.2617414,0.05,0.01,-1.85,12,1,15,2,17760768,0,13
1732730647.8552668,0.0,True,-0.003079288871958852,0.08401261270046234,3.103503942489624,26.52,16,13.916,0,0,False,,,,56,75,4,24,0.1190841794013977,179,81.034,,39.1423644,,-76.7304984,False,0.32476644399957877,88.843,,39.1424338,,-76.7304642,7.809,,39.1424338,,-76.7304642,1.2359235286712646,8.005624771118164,-20.76881217956543,value_here,POSCTL,,,,633,,ACTIVE,219.5935254096985,0.06,-0.03,-1.89,12,1,15,2,17760768,0,13
1732730647.9553607,0.0,True,-0.0037848702631890774,0.0850733146071434,3.094137668609619,26.52,16,13.916,0,0,False,,,,56,75,4,23,0.12006429582834244,177,81.034,,39.1423644,,-76.7304984,False,0.4423921289999271,88.975,,39.1424337,,-76.7304634,7.941,,39.1424337,,-76.7304634,1.0275424718856812,8.112310409545898,-20.77446937561035,value_here,POSCTL,,,,633,,ACTIVE,1732730428.3618352,0.07,-0.07,-1.94,12,1,15,2,17760768,0,13
1732730648.0553641,0.0,True,-0.0029193535447120667,0.09031302481889725,3.087292432785034,26.52,16,13.916,0,0,False,,,,56,75,4,24,0.12006429582834244,177,81.034,,39.1423644,,-76.7304984,False,0.5408300369999779,89.21,,39.1424337,,-76.7304619,8.176,,39.1424337,,-76.7304619,0.8262293934822083,8.22123908996582,-20.78102684020996,value_here,POSCTL,,,,695,,ACTIVE,219.69352889060974,0.06,-0.16,-2.02,12,1,15,2,17760768,0,13
1732730648.1564476,0.0,True,-5.084899385110475e-05,0.0924755409359932,3.0794005393981934,26.52,16,13.916,0,0,False,,,,56,75,4,24,0.12006429582834244,177,81.034,,39.1423644,,-76.7304984,False,0.645713369999612,89.338,,39.1424336,,-76.7304615,8.304,,39.1424336,,-76.7304615,0.6023383140563965,8.28616714477539,-20.783885955810547,value_here,POSCTL,,,,695,,ACTIVE,1732730428.4629188,0.06,-0.23,-2.08,12,1,15,2,17760768,0,13
1732730648.2558317,0.0,True,-0.0004892692086286843,0.08568817377090454,3.0743000507354736,27.99,16,13.873,0,0,False,,,,56,75,4,23,0.12006429582834244,177,81.034,,39.1423644,,-76.7304984,False,0.7439024630002677,89.62,,39.1424336,,-76.7304608,8.586,,39.1424336,,-76.7304608,0.3741789162158966,8.331108093261719,-20.784120559692383,value_here,POSCTL,,,,695,,ACTIVE,219.7929129600525,0.08,-0.37,-2.18,12,1,15,2,17760768,0,13
1732730648.3558388,0.0,True,-0.004783501382917166,0.07523944228887558,3.0692949295043945,27.99,16,13.873,0,0,False,,,,56,75,4,24,0.40338608622550964,176,81.034,,39.1423644,,-76.7304984,False,0.8390270370000508,89.756,,39.1424336,,-76.7304604,8.722,,39.1424336,,-76.7304604,0.3741789162158966,8.331108093261719,-20.784120559692383,value_here,POSCTL,,,,695,,ACTIVE,1732730428.5629258,0.08,-0.43,-2.23,12,1,15,2,17760768,0,13
1732730648.4560826,0.0,True,-0.007427831646054983,0.07329878956079483,3.06549334526062,27.99,16,13.873,0,0,False,,,,53,75,4,24,0.40338608622550964,176,81.034,,39.1423644,,-76.7304984,False,0.9400289249997513,90.047,,39.1424337,,-76.7304598,9.013,,39.1424337,,-76.7304598,0.14589279890060425,8.38278579711914,-20.78171730041504,value_here,POSCTL,,,,770,,ACTIVE,219.89315676689148,0.09,-0.53,-2.32,12,1,15,2,17760768,0,13
1732730648.556253,0.0,True,-0.00898005161434412,0.07018387317657471,3.0629427433013916,27.99,16,13.873,0,0,False,,,,53,75,4,24,0.40338608622550964,176,81.034,,39.1423644,,-76.7304984,False,0.04255024099984439,90.185,,39.1424337,,-76.7304596,9.15,,39.1424337,,-76.7304596,-0.10417012870311737,8.417184829711914,-20.77618980407715,value_here,POSCTL,,,,770,,ACTIVE,1732730428.6630962,0.09,-0.57,-2.36,12,1,15,2,17760768,0,13
1732730648.6564384,0.0,True,-0.008104130625724792,0.06438831984996796,3.061570882797241,27.99,16,13.873,0,0,False,,,,53,75,4,24,0.6607853770256042,175,81.034,,39.1423644,,-76.7304984,False,0.13761673999943014,90.533,,39.1424338,,-76.7304594,9.499,,39.1424338,,-76.7304594,-0.3794161379337311,8.432901382446289,-20.769756317138672,value_here,POSCTL,,,,770,,ACTIVE,219.9933421611786,0.08,-0.68,-2.46,12,1,15,2,17760768,0,13
1732730648.756364,0.0,True,-0.010321001522243023,0.05311589315533638,3.060868740081787,27.99,16,13.873,0,0,False,,,,53,75,4,24,0.6607853770256042,175,81.034,,39.1423644,,-76.7304984,False,0.24426701799984585,90.701,,39.1424338,,-76.7304594,9.667,,39.1424338,,-76.7304594,-0.6651966571807861,8.43861198425293,-20.762704849243164,value_here,POSCTL,,,,851,,ACTIVE,1732730428.763022,0.09,-0.72,-2.52,12,1,15,2,17760768,0,13
1732730648.8574197,0.0,True,-0.012432008050382137,0.04589420184493065,3.0608105659484863,27.99,16,13.873,0,0,False,,,,53,75,4,24,0.6607853770256042,175,81.034,,39.1423644,,-76.7304984,False,0.3459450549999019,91.035,,39.142434,,-76.7304594,10.001,,39.142434,,-76.7304594,-0.9523792266845703,8.436690330505371,-20.75086212158203,value_here,POSCTL,,,,851,,ACTIVE,220.09439778327942,0.11,-0.79,-2.62,12,1,15,2,17760768,0,13
1732730648.9568262,0.0,True,-0.019179925322532654,0.039664193987846375,3.061673402786255,28.47,15,13.832,0,0,False,,,,53,75,4,24,0.8351088166236877,175,81.034,,39.1423644,,-76.7304984,False,0.43936153699996794,91.191,,39.142434,,-76.7304595,10.157,,39.142434,,-76.7304595,-1.2358318567276,8.42248821258545,-20.734027862548828,value_here,POSCTL,,,,851,,ACTIVE,1732730428.8624284,0.12,-0.81,-2.67,12,1,15,2,17760768,0,13
1732730649.0570545,0.0,True,-0.025314686819911003,0.03560257330536842,3.0633530616760254,28.47,15,13.832,0,0,False,,,,58,83,4,23,0.8351088166236877,175,81.034,,39.1423644,,-76.7304984,False,0.5449773699992875,91.382,,39.1424342,,-76.7304596,10.348,,39.1424342,,-76.7304596,-1.2358318567276,8.42248821258545,-20.734027862548828,value_here,POSCTL,,,,851,,ACTIVE,220.19462609291077,0.12,-0.83,-2.66,12,1,15,2,17760768,0,13
1732730649.1571002,0.0,True,-0.0317542739212513,0.028662357479333878,3.066518783569336,28.47,15,13.832,0,0,False,,,,58,83,4,23,0.8351088166236877,175,81.034,,39.1423644,,-76.7304984,False,0.6394963879993156,91.72,,39.1424344,,-76.73046,10.686,,39.1424344,,-76.73046,-1.5184434652328491,8.4032621383667,-20.715120315551758,value_here,POSCTL,,,,932,,ACTIVE,1732730428.962474,0.14,-0.86,-2.5,12,1,15,2,17760768,0,13
1732730649.257239,0.0,True,-0.03555503860116005,0.02390255406498909,3.069164276123047,28.47,15,13.832,0,0,False,,,,58,83,4,24,0.8351088166236877,175,81.034,,39.1423644,,-76.7304984,False,0.7452744439997332,91.879,,39.1424345,,-76.7304602,10.845,,39.1424345,,-76.7304602,-1.7969344854354858,8.374725341796875,-20.693830490112305,value_here,POSCTL,,,,932,,ACTIVE,220.29476499557495,0.14,-0.88,-2.36,12,1,15,2,17760768,0,13
1732730649.357399,0.0,True,-0.04199229180812836,0.018818354234099388,3.074125051498413,28.47,15,13.832,0,0,False,,,,53,75,4,23,0.8940429091453552,176,81.034,,39.1423644,,-76.7304984,False,0.8355135729998437,92.164,,39.1424347,,-76.7304606,11.13,,39.1424347,,-76.7304606,-2.034515857696533,8.345573425292969,-20.672292709350586,value_here,POSCTL,,,,932,,ACTIVE,1732730429.062634,0.15,-0.88,-1.97,12,1,15,2,17760768,0,13
1732730649.458724,0.0,True,-0.051152437925338745,0.015428407117724419,3.08000111579895,28.47,15,13.832,0,0,False,,,,58,83,4,24,0.8940429091453552,176,81.034,,39.1423644,,-76.7304984,False,0.9481411839997236,92.294,,39.1424349,,-76.7304608,11.26,,39.1424349,,-76.7304608,-2.257744550704956,8.319863319396973,-20.64541244506836,value_here,POSCTL,,,,1001,,ACTIVE,220.39609003067017,0.15,-0.86,-1.69,12,1,15,2,17760768,0,13
1732730649.5576735,0.0,True,-0.05558894947171211,0.013204219751060009,3.0850718021392822,28.47,15,13.832,0,0,False,,,,53,75,4,24,0.8940429091453552,176,81.034,,39.1423644,,-76.7304984,False,0.03706029599925387,92.471,,39.1424351,,-76.7304611,11.437,,39.1424351,,-76.7304611,-2.4171457290649414,8.293620109558105,-20.62010955810547,value_here,POSCTL,,,,1001,,ACTIVE,1732730429.1615834,0.15,-0.86,-1.16,12,1,15,2,17760768,0,13
1732730649.6579266,0.0,True,-0.05556057393550873,0.011337259784340858,3.094162702560425,17.59,14,14.033,0,0,False,,,,53,75,4,24,0.8656349182128906,177,81.034,,39.1423644,,-76.7304984,False,0.1416258889994424,92.545,,39.1424353,,-76.7304614,11.511,,39.1424353,,-76.7304614,-2.5218899250030518,8.264534950256348,-20.596893310546875,value_here,POSCTL,,,,1001,,ACTIVE,220.49634313583374,0.15,-0.86,-0.9,12,1,15,2,17760768,0,13
1732730649.7581124,0.0,True,-0.04916556924581528,0.00616522878408432,3.10084867477417,17.59,14,14.033,0,0,False,,,,57,77,4,23,0.8656349182128906,177,81.034,,39.1423644,,-76.7304984,False,0.23899831399921823,92.637,,39.1424355,,-76.7304619,11.603,,39.1424355,,-76.7304619,-2.600736618041992,8.225452423095703,-20.573137283325195,value_here,POSCTL,,,,1001,,ACTIVE,1732730429.2617693,0.14,-0.86,-0.62,12,1,15,2,17760768,0,13
1732730649.8581657,0.0,True,-0.043492257595062256,0.04617557302117348,3.1040267944335938,17.59,14,14.033,0,0,False,,,,57,77,4,24,0.8656349182128906,177,81.034,,39.1423644,,-76.7304984,False,0.3454186849994585,92.673,,39.1424357,,-76.7304621,11.639,,39.1424357,,-76.7304621,-2.6633033752441406,8.195686340332031,-20.548768997192383,value_here,POSCTL,,,,1037,,ACTIVE,220.59639644622803,0.14,-0.89,-0.57,12,1,15,2,17760768,0,13
1732730649.9583912,0.0,True,-0.04329510033130646,0.13964974880218506,3.1013457775115967,17.59,14,14.033,0,0,False,,,,53,75,4,24,0.8656349182128906,177,81.034,,39.1423644,,-76.7304984,False,0.4459848509995936,92.743,,39.1424359,,-76.7304626,11.709,,39.1424359,,-76.7304626,-2.6633033752441406,8.195686340332031,-20.548768997192383,value_here,POSCTL,,,,1037,,ACTIVE,1732730429.3619947,0.11,-1.02,-0.62,12,1,15,2,17760768,0,13
1732730650.0585592,0.0,True,-0.04790078476071358,0.22099219262599945,3.0951550006866455,17.59,14,14.033,0,0,False,,,,53,75,4,24,1.0921953916549683,177,81.034,,39.1423644,,-76.7304984,False,0.5261633699992672,92.786,,39.142436,,-76.7304631,11.752,,39.142436,,-76.7304631,-2.7250568866729736,8.14261531829834,-20.52899742126465,value_here,POSCTL,,,,1037,,ACTIVE,220.69656443595886,0.09,-1.15,-0.7,12,1,15,2,17760768,0,13
1732730650.1592052,0.0,True,-0.049170006066560745,0.26697853207588196,3.0885164737701416,17.59,14,14.033,0,0,False,,,,53,75,4,24,1.0921953916549683,177,81.034,,39.1423644,,-76.7304984,False,0.6468663699997705,92.872,,39.1424361,,-76.7304644,11.838,,39.1424361,,-76.7304644,-2.7940142154693604,8.062087059020996,-20.516590118408203,value_here,POSCTL,,,,1086,,ACTIVE,1732730429.4626408,0.05,-1.49,-0.79,12,1,15,2,17760768,0,13
1732730650.2593813,0.0,True,-0.05086841806769371,0.24328164756298065,3.082796812057495,17.59,14,14.033,0,0,False,,,,53,75,4,24,1.0921953916549683,177,81.034,,39.1423644,,-76.7304984,False,0.7339904439995735,92.916,,39.1424361,,-76.7304653,11.882,,39.1424361,,-76.7304653,-2.865936040878296,7.958381175994873,-20.50653839111328,value_here,POSCTL,,,,1086,,ACTIVE,220.7967405319214,0.03,-1.65,-0.78,12,1,15,2,17760768,0,13
1732730650.3604844,0.0,True,-0.04947659373283386,0.1982818990945816,3.0780715942382812,23.73,15,13.933,0,0,False,,,,53,75,4,24,1.9049954414367676,176,81.034,,39.1423644,,-76.7304984,False,0.8484178509997946,92.962,,39.1424362,,-76.7304663,11.928,,39.1424362,,-76.7304663,-2.935241460800171,7.825311183929443,-20.49796485900879,value_here,POSCTL,,,,1086,,ACTIVE,1732730429.5637438,0.0,-1.82,-0.78,12,1,15,2,17760768,0,13
1732730650.4596293,0.0,True,-0.04576794058084488,0.17357055842876434,3.072744369506836,23.73,15,13.933,0,0,False,,,,53,75,4,24,1.9049954414367676,176,81.034,,39.1423644,,-76.7304984,False,0.9444271659995138,93.039,,39.1424363,,-76.7304683,12.005,,39.1424363,,-76.7304683,-3.0023038387298584,7.673612117767334,-20.493206024169922,value_here,POSCTL,,,,1096,,ACTIVE,220.8958854675293,-0.02,-2.06,-0.78,12,1,15,2,17760768,0,13
1732730650.5597913,0.0,True,-0.04349051043391228,0.14167100191116333,3.070093870162964,23.73,15,13.933,0,0,False,,,,53,75,4,24,1.9049954414367676,176,81.034,,39.1423644,,-76.7304984,False,0.03450535200045124,93.083,,39.1424363,,-76.7304696,12.049,,39.1424363,,-76.7304696,-3.0739901065826416,7.4855756759643555,-20.487682342529297,value_here,POSCTL,,,,1096,,ACTIVE,1732730429.6639059,-0.04,-2.17,-0.79,12,1,15,2,17760768,0,13
1732730650.6599636,0.0,True,-0.042516037821769714,0.10096781700849533,3.068632125854492,23.73,15,13.933,0,0,False,,,,53,75,4,24,1.9049954414367676,176,81.034,,39.1423644,,-76.7304984,False,0.1315510180002093,93.168,,39.1424363,,-76.7304724,12.134,,39.1424363,,-76.7304724,-3.1437225341796875,7.28545618057251,-20.481853485107422,value_here,POSCTL,,,,1096,,ACTIVE,220.99605774879456,-0.05,-2.3,-0.78,12,1,15,2,17760768,0,13
1732730650.7599945,0.0,True,-0.04377111792564392,-0.011026233434677124,3.0733840465545654,23.73,15,13.933,0,0,False,,,,53,75,4,24,2.32297420501709,175,81.034,,39.1423644,,-76.7304984,False,0.23844507400008297,93.208,,39.1424364,,-76.7304737,12.173,,39.1424364,,-76.7304737,-3.1437225341796875,7.28545618057251,-20.481853485107422,value_here,POSCTL,,,,1096,,ACTIVE,1732730429.7639368,-0.05,-2.33,-0.79,12,1,15,2,17760768,0,13
1732730650.8602304,0.0,True,-0.04408886283636093,-0.07316672056913376,3.0826869010925293,23.73,15,13.933,0,0,False,,,,53,75,4,24,2.32297420501709,175,81.034,,39.1423644,,-76.7304984,False,0.33521796300010465,93.298,,39.1424365,,-76.7304765,12.264,,39.1424365,,-76.7304765,-3.2170329093933105,7.079855442047119,-20.47427749633789,value_here,POSCTL,,,,1120,,ACTIVE,221.09629368782043,-0.05,-2.27,-0.85,12,1,15,2,17760768,0,13
1732730650.960367,0.0,True,-0.04135071858763695,-0.15264269709587097,3.108706474304199,23.73,15,13.933,0,0,False,,,,53,75,4,24,2.32297420501709,175,81.034,,39.1423644,,-76.7304984,False,0.4378468140002951,93.346,,39.1424366,,-76.7304778,12.312,,39.1424366,,-76.7304778,-3.2955057621002197,6.882252216339111,-20.46234130859375,value_here,POSCTL,,,,1120,,ACTIVE,1732730429.8640733,-0.04,-2.18,-0.86,12,1,15,2,17760768,0,13
1732730651.0603762,0.0,True,-0.039477214217185974,-0.22300954163074493,-3.128262996673584,24.96,15,13.894,0,0,False,,,,53,75,4,24,1.9941517114639282,180,81.034,,39.1423644,,-76.7304984,False,0.5331586480006081,93.444,,39.1424367,,-76.7304803,12.41,,39.1424367,,-76.7304803,-3.375072717666626,6.702814102172852,-20.449064254760742,value_here,POSCTL,,,,1120,,ACTIVE,221.1963028907776,-0.03,-1.92,-0.91,12,1,15,2,17760768,0,13
1732730651.1606686,0.0,True,-0.03434189781546593,-0.2505955100059509,-3.0549771785736084,24.96,15,13.894,0,0,False,,,,53,75,4,24,1.9941517114639282,180,81.034,,39.1423644,,-76.7304984,False,0.6362924249997377,93.501,,39.1424368,,-76.7304814,12.467,,39.1424368,,-76.7304814,-3.465019702911377,6.544300556182861,-20.436525344848633,value_here,POSCTL,,,,1185,,ACTIVE,1732730429.9643657,-0.04,-1.73,-0.98,12,1,15,2,17760768,0,13
1732730651.2607868,0.0,True,-0.029763102531433105,-0.2093464881181717,-2.9729950428009033,24.96,15,13.894,0,0,False,,,,53,75,4,24,1.9941517114639282,180,81.034,,39.1423644,,-76.7304984,False,0.7349668329998167,93.616,,39.1424369,,-76.730483,12.582,,39.1424369,,-76.730483,-3.5642213821411133,6.4182000160217285,-20.423933029174805,value_here,POSCTL,,,,1185,,ACTIVE,221.2964210510254,-0.05,-1.44,-1.07,12,1,15,2,17760768,0,13
1732730651.3609715,0.0,True,-0.024705292657017708,-0.15571929514408112,-2.8683297634124756,24.96,15,13.894,0,0,False,,,,53,75,4,24,1.2646231651306152,196,81.034,,39.1423644,,-76.7304984,False,0.8298525740001423,93.688,,39.1424369,,-76.7304839,12.654,,39.1424369,,-76.7304839,-3.6719512939453125,6.305966854095459,-20.41456413269043,value_here,POSCTL,,,,1185,,ACTIVE,1732730430.0645504,-0.06,-1.3,-1.07,12,1,15,2,17760768,0,13
1732730651.461136,0.0,True,-0.04192425310611725,-0.12821334600448608,-2.7550885677337646,24.96,15,13.894,0,0,False,,,,53,75,4,23,1.2646231651306152,196,81.034,,39.1423644,,-76.7304984,False,0.940298888000143,93.748,,39.142437,,-76.7304846,12.714,,39.142437,,-76.7304846,-3.7721383571624756,6.205526351928711,-20.410253524780273,value_here,POSCTL,,,,1185,,ACTIVE,221.39658570289612,-0.07,-1.21,-1.02,12,1,15,2,17760768,0,13
1732730651.5611985,0.0,True,-0.09408387541770935,-0.13348166644573212,-2.649695634841919,24.96,15,13.894,0,0,False,,,,57,77,4,24,1.2646231651306152,196,81.034,,39.1423644,,-76.7304984,False,0.03631327799939754,93.859,,39.142437,,-76.7304858,12.825,,39.142437,,-76.7304858,-3.7721383571624756,6.205526351928711,-20.410253524780273,value_here,POSCTL,,,,1196,,ACTIVE,1732730430.1646128,-0.14,-1.09,-0.88,12,1,15,2,17760768,0,13
1732730651.6613677,0.0,True,-0.16515205800533295,-0.14451804757118225,-2.5311129093170166,26.29,14,13.844,0,0,False,,,,57,77,4,24,1.2646231651306152,196,81.034,,39.1423644,,-76.7304984,False,0.14824957399923733,93.909,,39.142437,,-76.7304862,12.875,,39.142437,,-76.7304862,-3.854128360748291,6.138800144195557,-20.41233253479004,value_here,POSCTL,,,,1196,,ACTIVE,221.49675488471985,-0.19,-1.05,-0.87,12,1,15,2,17760768,0,13
1732730651.761396,0.0,True,-0.20759299397468567,-0.12175186723470688,-2.4040322303771973,26.29,14,13.844,0,0,False,,,,57,77,4,23,1.0647695064544678,217,81.034,,39.1423644,,-76.7304984,False,0.2449522219994833,94.006,,39.1424367,,-76.7304869,12.972,,39.1424367,,-76.7304869,-3.9380953311920166,6.083141326904297,-20.427202224731445,value_here,POSCTL,,,,1196,,ACTIVE,1732730430.264641,-0.35,-1.0,-0.86,12,1,15,2,17760768,0,13
1732730651.8618438,0.0,True,-0.1755302995443344,-0.07164880633354187,-2.3029515743255615,26.29,14,13.844,0,0,False,,,,53,75,4,24,1.0647695064544678,217,81.034,,39.1423644,,-76.7304984,False,0.34684127799937414,94.058,,39.1424365,,-76.7304872,13.024,,39.1424365,,-76.7304872,-4.025882244110107,6.036172866821289,-20.463333129882812,value_here,POSCTL,,,,1228,,ACTIVE,221.59720277786255,-0.44,-1.0,-0.85,12,1,15,2,17760768,0,13
1732730651.9625723,0.0,True,-0.1273927539587021,-0.03253442049026489,-2.210958957672119,26.29,14,13.844,0,0,False,,,,53,75,4,24,1.0647695064544678,217,81.034,,39.1423644,,-76.7304984,False,0.45031120399926294,94.151,,39.142436,,-76.7304878,13.117,,39.142436,,-76.7304878,-4.100870609283447,5.999063491821289,-20.511802673339844,value_here,POSCTL,,,,1228,,ACTIVE,1732730430.3653696,-0.55,-1.04,-0.75,12,1,15,2,17760768,0,13
1732730652.0624204,0.0,True,-0.11168031394481659,-0.021196851506829262,-2.13600754737854,26.29,14,13.844,0,0,False,,,,53,75,4,24,1.221626877784729,236,81.034,,39.1423644,,-76.7304984,False,0.5498865370000203,94.189,,39.1424357,,-76.7304881,13.155,,39.1424357,,-76.7304881,-4.164059162139893,5.951735973358154,-20.56613540649414,value_here,POSCTL,,,,1228,,ACTIVE,221.69705080986023,-0.58,-1.06,-0.7,12,1,15,2,17760768,0,13
1732730652.1625092,0.0,True,-0.10827081650495529,-0.023162351921200752,-2.0900840759277344,26.29,14,13.844,0,0,False,,,,53,75,4,24,1.221626877784729,236,81.034,,39.1423644,,-76.7304984,False,0.6402131109998663,94.264,,39.142435,,-76.7304889,13.23,,39.142435,,-76.7304889,-4.227859020233154,5.897974491119385,-20.630306243896484,value_here,POSCTL,,,,1228,,ACTIVE,1732730430.4654584,-0.59,-1.09,-0.68,12,1,15,2,17760768,0,13
1732730652.2627854,0.0,True,-0.12116110324859619,-0.027985649183392525,-2.0378577709198,26.29,14,13.844,0,0,False,,,,53,75,4,24,1.221626877784729,236,81.034,,39.1423644,,-76.7304984,False,0.7406128149996221,94.304,,39.1424346,,-76.7304893,13.27,,39.1424346,,-76.7304893,-4.293698310852051,5.831384658813477,-20.699115753173828,value_here,POSCTL,,,,1235,,ACTIVE,221.79732704162598,-0.6,-1.12,-0.65,12,1,15,2,17760768,0,13
1732730652.3628275,0.0,True,-0.17715686559677124,-0.03434404730796814,-2.000894069671631,24.58,13,13.865,0,0,False,,,,53,75,4,24,1.221626877784729,236,81.034,,39.1423644,,-76.7304984,False,0.8503024809997441,94.38,,39.1424339,,-76.7304903,13.346,,39.1424339,,-76.7304903,-4.293698310852051,5.831384658813477,-20.699115753173828,value_here,POSCTL,,,,1235,,ACTIVE,1732730430.5655005,-0.63,-1.23,-0.65,12,1,15,2,17760768,0,13
1732730652.4627912,0.0,True,-0.26829609274864197,-0.039966147392988205,-1.9643596410751343,24.58,13,13.865,0,0,False,,,,53,75,4,24,1.4354993104934692,246,81.034,,39.1423644,,-76.7304984,False,0.9261212769997655,94.42,,39.1424335,,-76.730491,13.386,,39.1424335,,-76.730491,-4.356042861938477,5.753579139709473,-20.76706886291504,value_here,POSCTL,,,,1235,,ACTIVE,221.89729070663452,-0.66,-1.34,-0.67,12,1,15,2,17760768,0,13
1732730652.5630336,0.0,True,-0.35411256551742554,-0.04438544437289238,-1.9361101388931274,24.58,13,13.865,0,0,False,,,,53,75,4,24,1.4354993104934692,246,81.034,,39.1423644,,-76.7304984,False,0.043404091999946104,94.506,,39.1424326,,-76.7304925,13.472,,39.1424326,,-76.7304925,-4.424747467041016,5.655888080596924,-20.84355354309082,value_here,POSCTL,,,,1266,,ACTIVE,1732730430.6657429,-0.77,-1.65,-0.73,12,1,15,2,17760768,0,13
1732730652.6631632,0.0,True,-0.42509958148002625,-0.04432440549135208,-1.911266565322876,24.58,13,13.865,0,0,False,,,,53,75,4,24,1.4354993104934692,246,81.034,,39.1423644,,-76.7304984,False,0.13894968499971583,94.553,,39.1424321,,-76.7304935,13.519,,39.1424321,,-76.7304935,-4.501729488372803,5.530703067779541,-20.933391571044922,value_here,POSCTL,,,,1266,,ACTIVE,221.99742031097412,-0.85,-1.85,-0.75,12,1,15,2,17760768,0,13
1732730652.7632077,0.0,True,-0.45544132590293884,-0.047136273235082626,-1.888835072517395,24.58,13,13.865,0,0,False,,,,53,75,4,24,2.426854133605957,251,81.034,,39.1423644,,-76.7304984,False,0.24525594399983675,94.598,,39.1424316,,-76.7304945,13.564,,39.1424316,,-76.7304945,-4.582637786865234,5.363962650299072,-21.032367706298828,value_here,POSCTL,,,,1266,,ACTIVE,1732730430.7657874,-0.92,-2.07,-0.78,12,1,15,2,17760768,0,13
1732730652.8635597,0.0,True,-0.4354073405265808,-0.043045539408922195,-1.8702657222747803,24.58,13,13.865,0,0,False,,,,53,75,4,24,2.426854133605957,251,81.034,,39.1423644,,-76.7304984,False,0.33847742499983724,94.699,,39.1424305,,-76.7304973,13.665,,39.1424305,,-76.7304973,-4.663010597229004,5.1705451011657715,-21.13772201538086,value_here,POSCTL,,,,1353,,ACTIVE,222.09777235984802,-1.05,-2.52,-0.79,12,1,15,2,17760768,0,13
1732730652.9635866,0.0,True,-0.38355401158332825,-0.046395715326070786,-1.8537870645523071,24.58,13,13.865,0,0,False,,,,53,75,4,24,2.426854133605957,251,81.034,,39.1423644,,-76.7304984,False,0.4460341479998533,94.753,,39.1424298,,-76.7304991,13.719,,39.1424298,,-76.7304991,-4.753004550933838,4.906180381774902,-21.267452239990234,value_here,POSCTL,,,,1353,,ACTIVE,1732730430.8658142,-1.12,-2.74,-0.77,12,1,15,2,17760768,0,13
1732730653.0639467,0.0,True,-0.31266817450523376,-0.05456716939806938,-1.841048240661621,25.81,14,13.855,0,0,False,,,,53,75,4,24,2.426854133605957,251,81.034,,39.1423644,,-76.7304984,False,0.5452363699996567,94.855,,39.1424284,,-76.730503,13.821,,39.1424284,,-76.730503,-4.832908630371094,4.632979393005371,-21.384065628051758,value_here,POSCTL,,,,1353,,ACTIVE,222.1981325149536,-1.2,-3.09,-0.78,12,1,15,2,17760768,0,13
1732730653.1640413,0.0,True,-0.22738803923130035,-0.05477378889918327,-1.8314458131790161,25.81,14,13.855,0,0,False,,,,53,75,4,24,3.3895771503448486,254,81.034,,39.1423644,,-76.7304984,False,0.6421558140000343,94.901,,39.1424278,,-76.7305048,13.867,,39.1424278,,-76.7305048,-4.832908630371094,4.632979393005371,-21.384065628051758,value_here,POSCTL,,,,1353,,ACTIVE,1732730430.9659088,-1.22,-3.21,-0.81,12,1,15,2,17760768,0,13
1732730653.264154,0.0,True,-0.14475910365581512,-0.053902871906757355,-1.8244580030441284,25.81,14,13.855,0,0,False,,,,53,75,4,24,3.3895771503448486,254,81.034,,39.1423644,,-76.7304984,False,0.7468468140004916,95.014,,39.1424264,,-76.7305096,13.98,,39.1424264,,-76.7305096,-4.923670768737793,4.310052871704102,-21.51102638244629,value_here,POSCTL,,,,1346,,ACTIVE,222.2982451915741,-1.25,-3.34,-0.8,12,1,15,2,17760768,0,13
1732730653.3644373,0.0,True,-0.0906343162059784,-0.0525420643389225,-1.8210676908493042,25.81,14,13.855,0,0,False,,,,53,75,4,24,3.3895771503448486,254,81.034,,39.1423644,,-76.7304984,False,0.8453706290001719,95.063,,39.1424258,,-76.7305117,14.029,,39.1424258,,-76.7305117,-5.013624668121338,3.9742958545684814,-21.637378692626953,value_here,POSCTL,,,,1346,,ACTIVE,1732730431.0661922,-1.24,-3.35,-0.8,12,1,15,2,17760768,0,13
1732730653.464358,0.0,True,-0.013647979125380516,-0.05512275919318199,-1.816504716873169,25.81,14,13.855,0,0,False,,,,53,75,4,24,3.509566068649292,255,81.034,,39.1423644,,-76.7304984,False,0.9324834440003542,95.171,,39.1424246,,-76.7305163,14.137,,39.1424246,,-76.7305163,-5.101287364959717,3.6510355472564697,-21.74909210205078,value_here,POSCTL,,,,1346,,ACTIVE,222.3981659412384,-1.18,-3.26,-0.8,12,1,15,2,17760768,0,13
