timestamp,airspeed,armed,attitude.pitch,attitude.roll,attitude.yaw,battery.current,battery.level,battery.voltage,commands.count,commands.next,ekf_ok,gimbal.pitch,gimbal.roll,gimbal.yaw,gps_0.eph,gps_0.epv,gps_0.fix_type,gps_0.satellites_visible,groundspeed,heading,home_location.alt,home_location.global_frame,home_location.lat,home_location.local_frame,home_location.lon,is_armable,last_heartbeat,location.global_frame.alt,location.global_frame.global_frame,location.global_frame.lat,location.global_frame.local_frame,location.global_frame.lon,location.global_relative_frame.alt,location.global_relative_frame.global_frame,location.global_relative_frame.lat,location.global_relative_frame.local_frame,location.global_relative_frame.lon,location.local_frame.down,location.local_frame.east,location.local_frame.north,ml_verdict,mode.name,mount_status[0],mount_status[1],mount_status[2],rangefinder.distance,rangefinder.voltage,system_status.state,timedelta,velocity[0],velocity[1],velocity[2],version.autopilot_type,version.major,version.minor,version.patch,version.raw_version,version.release,version.vehicle_type
1732730370.6557236,0.0,True,-0.0585869736969471,-0.015134405344724655,2.7732789516448975,0.23,78,16.164,0,0,False,,,,58,78,4,22,0.03512408584356308,158,86.08,,39.1423712,,-76.7304738,False,0.0833036660005746,86.43,,39.1423708,,-76.7304717,0.044,,39.1423708,,-76.7304717,3.6136088371276855,7.373763084411621,-27.77581024169922,value_here,POSCTL,,,,9,,ACTIVE,1732730242.2143888,0.0,0.02,-0.02,12,1,15,2,17760768,0,13
1732730370.7490625,0.0,True,-0.05789920687675476,-0.015011971816420555,2.7729690074920654,0.23,78,16.164,0,0,False,,,,58,78,4,22,0.03512408584356308,158,86.08,,39.1423712,,-76.7304738,False,0.17006550000041898,86.437,,39.1423708,,-76.7304717,0.051,,39.1423708,,-76.7304717,3.5998284816741943,7.378005504608154,-27.77369499206543,value_here,POSCTL,,,,9,,ACTIVE,128.5346736907959,0.0,0.02,-0.02,12,1,15,2,17760768,0,13
1732730370.849135,0.0,True,-0.05775638669729233,-0.015100319869816303,2.773085594177246,0.23,78,16.164,0,0,False,,,,58,78,4,23,0.024956107139587402,158,86.08,,39.1423712,,-76.7304738,False,0.2734078330004195,86.443,,39.1423708,,-76.7304717,0.057,,39.1423708,,-76.7304717,3.5940780639648438,7.380189418792725,-27.77189826965332,value_here,POSCTL,,,,9,,ACTIVE,1732730242.3144612,0.0,0.02,-0.01,12,1,15,2,17760768,0,13
1732730370.9495547,0.0,True,-0.05801462009549141,-0.015042820014059544,2.773127555847168,0.23,78,16.164,0,0,False,,,,58,78,4,22,0.024956107139587402,158,86.08,,39.1423712,,-76.7304738,False,0.36377390699999523,86.454,,39.1423708,,-76.7304716,0.068,,39.1423708,,-76.7304716,3.5839359760284424,7.386429309844971,-27.769086837768555,value_here,POSCTL,,,,9,,ACTIVE,128.63509345054626,0.0,0.03,-0.02,12,1,15,2,17760768,0,13
1732730371.04955,0.0,True,-0.057813651859760284,-0.014816245064139366,2.773264169692993,0.23,78,16.164,0,0,False,,,,58,78,4,23,0.024956107139587402,158,86.08,,39.1423712,,-76.7304738,False,0.4471090550005101,86.46,,39.1423708,,-76.7304716,0.074,,39.1423708,,-76.7304716,3.573862314224243,7.392251968383789,-27.765092849731445,value_here,POSCTL,,,,9,,ACTIVE,1732730242.4144566,0.0,0.02,-0.03,12,1,15,2,17760768,0,13
1732730371.1496756,0.0,True,-0.05785832554101944,-0.014463298954069614,2.7729620933532715,1.19,78,16.143,0,0,False,,,,58,78,4,23,0.024956107139587402,158,86.08,,39.1423712,,-76.7304738,False,0.5724589250003191,86.466,,39.1423709,,-76.7304715,0.08,,39.1423709,,-76.7304715,3.573862314224243,7.392251968383789,-27.765092849731445,value_here,POSCTL,,,,9,,ACTIVE,128.73521900177002,0.0,0.02,-0.03,12,1,15,2,17760768,0,13
1732730371.2498868,0.0,True,-0.058113809674978256,-0.013830631971359253,2.7729389667510986,1.19,78,16.143,0,0,False,,,,58,78,4,22,0.021336831152439117,158,86.08,,39.1423712,,-76.7304738,False,0.6698500920001607,86.478,,39.1423709,,-76.7304714,0.092,,39.1423709,,-76.7304714,3.553248882293701,7.405745983123779,-27.7614688873291,value_here,POSCTL,,,,9,,ACTIVE,1732730242.5146677,0.0,0.02,-0.04,12,1,15,2,17760768,0,13
1732730371.3500433,0.0,True,-0.05805737525224686,-0.013608498498797417,2.772632598876953,1.19,78,16.143,0,0,False,,,,58,78,4,23,0.021336831152439117,158,86.08,,39.1423712,,-76.7304738,False,0.7663550730003408,86.492,,39.1423709,,-76.7304713,0.106,,39.1423709,,-76.7304713,3.553248882293701,7.405745983123779,-27.7614688873291,value_here,POSCTL,,,,9,,ACTIVE,128.83537554740906,-0.01,0.01,-0.03,12,1,15,2,17760768,0,13
1732730371.4501274,0.0,True,-0.05809236690402031,-0.013545789755880833,2.772486448287964,1.19,78,16.143,0,0,False,,,,58,78,4,22,0.021336831152439117,158,86.08,,39.1423712,,-76.7304738,False,0.8450844810004128,86.498,,39.1423709,,-76.7304713,0.112,,39.1423709,,-76.7304713,3.5419387817382812,7.41239070892334,-27.760818481445312,value_here,POSCTL,,,,9,,ACTIVE,1732730242.6147518,-0.01,0.0,-0.04,12,1,15,2,17760768,0,13
1732730371.550308,0.0,True,-0.05820696800947189,-0.013521336019039154,2.7724626064300537,1.19,78,16.143,0,0,False,,,,58,78,4,23,0.01509830728173256,158,86.08,,39.1423712,,-76.7304738,False,0.021088481999868236,86.51,,39.1423709,,-76.7304712,0.124,,39.1423709,,-76.7304712,3.5317156314849854,7.418190956115723,-27.75987434387207,value_here,POSCTL,,,,9,,ACTIVE,128.93555617332458,0.0,0.01,-0.03,12,1,15,2,17760768,0,13
1732730371.65046,0.0,True,-0.058072324842214584,-0.013269194401800632,2.7724573612213135,1.19,78,16.143,0,0,False,,,,59,79,4,22,0.01509830728173256,158,86.08,,39.1423712,,-76.7304738,False,0.10788088900062576,86.517,,39.1423709,,-76.7304711,0.131,,39.1423709,,-76.7304711,3.5213463306427,7.425114631652832,-27.75807762145996,value_here,POSCTL,,,,9,,ACTIVE,1732730242.7149038,-0.01,0.0,-0.03,12,1,15,2,17760768,0,13
1732730371.7508264,0.0,True,-0.05825240537524223,-0.012995892204344273,2.7720282077789307,1.19,78,16.143,0,0,False,,,,59,79,4,22,0.01509830728173256,158,86.08,,39.1423712,,-76.7304738,False,0.22433525900032691,86.523,,39.1423709,,-76.7304711,0.138,,39.1423709,,-76.7304711,3.5086140632629395,7.433788299560547,-27.756576538085938,value_here,POSCTL,,,,9,,ACTIVE,129.03592252731323,-0.01,0.0,-0.03,12,1,15,2,17760768,0,13
1732730371.8506103,0.0,True,-0.058270663022994995,-0.012908808887004852,2.7716853618621826,1.15,78,16.137,0,0,False,,,,59,79,4,22,0.014882066287100315,158,86.08,,39.1423712,,-76.7304738,False,0.3234047220003049,86.54,,39.1423709,,-76.730471,0.154,,39.1423709,,-76.730471,3.496309995651245,7.441125869750977,-27.75536346435547,value_here,POSCTL,,,,9,,ACTIVE,1732730242.8146877,-0.01,0.0,-0.04,12,1,15,2,17760768,0,13
1732730371.9508927,0.0,True,-0.05773504078388214,-0.012546331621706486,2.771428108215332,1.15,78,16.137,0,0,False,,,,59,79,4,22,0.014882066287100315,158,86.08,,39.1423712,,-76.7304738,False,0.4104624629999307,86.546,,39.1423709,,-76.7304709,0.16,,39.1423709,,-76.7304709,3.485084295272827,7.447784423828125,-27.75432014465332,value_here,POSCTL,,,,9,,ACTIVE,129.13620495796204,-0.01,0.0,-0.04,12,1,15,2,17760768,0,13
1732730372.0509706,0.0,True,-0.0580330528318882,-0.01267929095774889,2.771515369415283,1.15,78,16.137,0,0,False,,,,59,79,4,22,0.014882066287100315,158,86.08,,39.1423712,,-76.7304738,False,0.5222997589999068,86.563,,39.142371,,-76.7304708,0.177,,39.142371,,-76.7304708,3.469367027282715,7.457278251647949,-27.751117706298828,value_here,POSCTL,,,,9,,ACTIVE,1732730242.9147656,-0.01,0.0,-0.04,12,1,15,2,17760768,0,13
1732730372.1511488,0.0,True,-0.057662174105644226,-0.012423364445567131,2.7714996337890625,1.15,78,16.137,0,0,False,,,,59,79,4,22,0.014882066287100315,158,86.08,,39.1423712,,-76.7304738,False,0.6238536480004768,86.574,,39.142371,,-76.7304707,0.188,,39.142371,,-76.7304707,3.469367027282715,7.457278251647949,-27.751117706298828,value_here,POSCTL,,,,9,,ACTIVE,129.23638319969177,-0.01,0.01,-0.03,12,1,15,2,17760768,0,13
1732730372.2512918,0.0,True,-0.05776446312665939,-0.012208187021315098,2.7715249061584473,1.15,78,16.137,0,0,False,,,,59,79,4,23,0.021784773096442223,158,86.08,,39.1423712,,-76.7304738,False,0.7180975179999223,86.591,,39.142371,,-76.7304706,0.205,,39.142371,,-76.7304706,3.4523143768310547,7.468715667724609,-27.748092651367188,value_here,POSCTL,,,,9,,ACTIVE,1732730243.0149086,-0.01,0.0,-0.03,12,1,15,2,17760768,0,13
1732730372.3514001,0.0,True,-0.058012399822473526,-0.011826318688690662,2.771331787109375,1.15,78,16.137,0,0,False,,,,58,78,4,23,0.021784773096442223,158,86.08,,39.1423712,,-76.7304738,False,0.8197838880005293,86.602,,39.142371,,-76.7304705,0.216,,39.142371,,-76.7304705,3.4394054412841797,7.475751876831055,-27.74570655822754,value_here,POSCTL,,,,9,,ACTIVE,129.33649158477783,-0.01,0.01,-0.03,12,1,15,2,17760768,0,13
1732730372.4515357,0.0,True,-0.057885874062776566,-0.011767584830522537,2.7711005210876465,1.14,78,16.137,0,0,False,,,,58,78,4,23,0.021784773096442223,158,86.08,,39.1423712,,-76.7304738,False,0.9229821290000473,86.617,,39.1423711,,-76.7304704,0.231,,39.1423711,,-76.7304704,3.423417568206787,7.484683513641357,-27.743120193481445,value_here,POSCTL,,,,9,,ACTIVE,1732730243.115044,-0.01,0.0,-0.04,12,1,15,2,17760768,0,13
1732730372.5517485,0.0,True,-0.05804380774497986,-0.011255559511482716,2.7708914279937744,1.14,78,16.137,0,0,False,,,,58,78,4,23,0.014630028046667576,158,86.08,,39.1423712,,-76.7304738,False,0.01382577799995488,86.629,,39.1423711,,-76.7304704,0.243,,39.1423711,,-76.7304704,3.4057776927948,7.493802547454834,-27.73883819580078,value_here,POSCTL,,,,9,,ACTIVE,129.43670439720154,0.0,0.01,-0.03,12,1,15,2,17760768,0,13
1732730372.6518786,0.0,True,-0.05789174139499664,-0.011133364401757717,2.7706995010375977,1.14,78,16.137,0,0,False,,,,58,78,4,23,0.014630028046667576,158,86.08,,39.1423712,,-76.7304738,False,0.11089764799999102,86.652,,39.1423711,,-76.7304703,0.266,,39.1423711,,-76.7304703,3.387970209121704,7.501420497894287,-27.733732223510742,value_here,POSCTL,,,,9,,ACTIVE,1732730243.2151742,0.0,0.0,-0.04,12,1,15,2,17760768,0,13
1732730372.7520292,0.0,True,-0.05778473988175392,-0.010920541360974312,2.7706706523895264,1.14,78,16.137,0,0,False,,,,58,78,4,23,0.014630028046667576,158,86.08,,39.1423712,,-76.7304738,False,0.19235844499962695,86.662,,39.1423712,,-76.7304702,0.276,,39.1423712,,-76.7304702,3.36966609954834,7.509496212005615,-27.72917366027832,value_here,POSCTL,,,,9,,ACTIVE,129.5368549823761,0.0,0.0,-0.04,12,1,15,2,17760768,0,13
1732730372.8523188,0.0,True,-0.05817943438887596,-0.010465249419212341,2.7708237171173096,1.14,78,16.137,0,0,False,,,,58,78,4,23,0.014630028046667576,158,86.08,,39.1423712,,-76.7304738,False,0.3146982959997331,86.684,,39.1423712,,-76.7304701,0.298,,39.1423712,,-76.7304701,3.36966609954834,7.509496212005615,-27.72917366027832,value_here,POSCTL,,,,9,,ACTIVE,1732730243.3154638,0.0,0.0,-0.05,12,1,15,2,17760768,0,13
1732730372.9524007,0.0,True,-0.05789009854197502,-0.009809217415750027,2.770427703857422,1.14,78,16.137,0,0,False,,,,58,78,4,23,0.0024530228693038225,158,86.08,,39.1423712,,-76.7304738,False,0.40829305599982035,86.694,,39.1423712,,-76.73047,0.308,,39.1423712,,-76.73047,3.3521151542663574,7.516868591308594,-27.724679946899414,value_here,POSCTL,,,,9,,ACTIVE,129.63693690299988,-0.01,0.0,-0.05,12,1,15,2,17760768,0,13
1732730373.0529022,0.0,True,-0.05809421464800835,-0.009580234065651894,2.7703027725219727,1.14,78,16.137,0,0,False,,,,58,78,4,23,0.0024530228693038225,158,86.08,,39.1423712,,-76.7304738,False,0.5152310369994666,86.705,,39.1423713,,-76.73047,0.319,,39.1423713,,-76.73047,3.3337559700012207,7.52398681640625,-27.719022750854492,value_here,POSCTL,,,,9,,ACTIVE,1732730243.4159653,0.0,0.0,-0.05,12,1,15,2,17760768,0,13
1732730373.1530101,0.0,True,-0.057652004063129425,-0.00930333323776722,2.7702934741973877,1.13,77,16.125,0,0,False,,,,58,78,4,23,0.0024530228693038225,158,86.08,,39.1423712,,-76.7304738,False,0.5962130929992782,86.727,,39.1423713,,-76.7304699,0.342,,39.1423713,,-76.7304699,3.315279722213745,7.531603813171387,-27.713546752929688,value_here,POSCTL,,,,9,,ACTIVE,129.73704481124878,0.0,-0.01,-0.05,12,1,15,2,17760768,0,13
1732730373.2532268,0.0,True,-0.05770847201347351,-0.00894939061254263,2.770111322402954,1.13,77,16.125,0,0,False,,,,58,78,4,23,0.01780528947710991,158,86.08,,39.1423712,,-76.7304738,False,0.7016601669993179,86.737,,39.1423714,,-76.7304699,0.351,,39.1423714,,-76.7304699,3.297915458679199,7.5376057624816895,-27.70885467529297,value_here,POSCTL,,,,9,,ACTIVE,1732730243.516182,0.0,-0.01,-0.05,12,1,15,2,17760768,0,13
1732730373.3532968,0.0,True,-0.0578463152050972,-0.0088296327739954,2.7698235511779785,1.13,77,16.125,0,0,False,,,,58,78,4,23,0.01780528947710991,158,86.08,,39.1423712,,-76.7304738,False,0.8016815000000861,86.756,,39.1423714,,-76.7304698,0.371,,39.1423714,,-76.7304698,3.283055305480957,7.543741703033447,-27.703351974487305,value_here,POSCTL,,,,8,,ACTIVE,129.8371148109436,0.0,-0.01,-0.06,12,1,15,2,17760768,0,13
1732730373.4534602,0.0,True,-0.05775129795074463,-0.008349479176104069,2.7693991661071777,1.13,77,16.125,0,0,False,,,,58,78,4,23,0.01780528947710991,158,86.08,,39.1423712,,-76.7304738,False,0.906124221999562,86.764,,39.1423714,,-76.7304697,0.378,,39.1423714,,-76.7304697,3.2695236206054688,7.550276279449463,-27.69788360595703,value_here,POSCTL,,,,8,,ACTIVE,1732730243.6163454,0.0,-0.01,-0.06,12,1,15,2,17760768,0,13
1732730373.5535848,0.0,True,-0.057962942868471146,-0.008406226523220539,2.769221067428589,1.13,77,16.125,0,0,False,,,,58,78,4,22,0.01780528947710991,158,86.08,,39.1423712,,-76.7304738,False,0.00010822199965332402,86.78,,39.1423715,,-76.7304696,0.394,,39.1423715,,-76.7304696,3.2695236206054688,7.550276279449463,-27.69788360595703,value_here,POSCTL,,,,8,,ACTIVE,129.93723940849304,0.0,-0.02,-0.06,12,1,15,2,17760768,0,13
1732730373.65361,0.0,True,-0.05810200050473213,-0.008199574425816536,2.7690324783325195,1.13,77,16.125,0,0,False,,,,59,79,4,22,0.024271538481116295,158,86.08,,39.1423712,,-76.7304738,False,0.09505038899987994,86.79,,39.1423716,,-76.7304696,0.404,,39.1423716,,-76.7304696,3.2397220134735107,7.564926624298096,-27.683090209960938,value_here,POSCTL,,,,9,,ACTIVE,1732730243.7163706,0.0,-0.02,-0.05,12,1,15,2,17760768,0,13
1732730373.7541401,0.0,True,-0.058041926473379135,-0.008356556296348572,2.768970012664795,1.13,77,16.125,0,0,False,,,,59,79,4,22,0.024271538481116295,158,86.08,,39.1423712,,-76.7304738,False,0.2008967029996711,86.806,,39.1423716,,-76.7304695,0.42,,39.1423716,,-76.7304695,3.2397220134735107,7.564926624298096,-27.683090209960938,value_here,POSCTL,,,,9,,ACTIVE,130.03776955604553,0.0,-0.03,-0.04,12,1,15,2,17760768,0,13
1732730373.8552487,0.0,True,-0.057964738458395004,-0.008277402259409428,2.768911361694336,1.12,77,16.114,0,0,False,,,,59,79,4,22,0.024271538481116295,158,86.08,,39.1423712,,-76.7304738,False,0.3026182220000919,86.812,,39.1423717,,-76.7304694,0.426,,39.1423717,,-76.7304694,3.227544069290161,7.572782039642334,-27.675386428833008,value_here,POSCTL,,,,9,,ACTIVE,1732730243.8174791,0.01,-0.03,-0.03,12,1,15,2,17760768,0,13
1732730373.954282,0.0,True,-0.05810756981372833,-0.008256115950644016,2.768709182739258,1.12,77,16.114,0,0,False,,,,59,79,4,23,0.04369128495454788,158,86.08,,39.1423712,,-76.7304738,False,0.39187968500027637,86.823,,39.1423718,,-76.7304693,0.437,,39.1423718,,-76.7304693,3.217829465866089,7.580082416534424,-27.66636085510254,value_here,POSCTL,,,,9,,ACTIVE,130.13680291175842,0.01,-0.04,-0.01,12,1,15,2,17760768,0,13
1732730374.0545654,0.0,True,-0.05789962410926819,-0.008316454477608204,2.7682671546936035,1.12,77,16.114,0,0,False,,,,58,78,4,23,0.04369128495454788,158,86.08,,39.1423712,,-76.7304738,False,0.4700945550002871,86.829,,39.1423718,,-76.7304693,0.444,,39.1423718,,-76.7304693,3.207335948944092,7.588350772857666,-27.655841827392578,value_here,POSCTL,,,,9,,ACTIVE,1732730243.9177625,0.02,-0.04,-0.02,12,1,15,2,17760768,0,13
1732730374.1543524,0.0,True,-0.0576741062104702,-0.008103600703179836,2.7680258750915527,1.12,77,16.114,0,0,False,,,,58,78,4,23,0.04369128495454788,158,86.08,,39.1423712,,-76.7304738,False,0.5957244250002987,86.84,,39.1423719,,-76.7304691,0.455,,39.1423719,,-76.7304691,3.1994028091430664,7.5946502685546875,-27.647390365600586,value_here,POSCTL,,,,9,,ACTIVE,130.23658990859985,0.02,-0.05,-0.01,12,1,15,2,17760768,0,13
1732730374.2546823,0.0,True,-0.05780010670423508,-0.008370799012482166,2.767833948135376,1.12,77,16.114,0,0,False,,,,58,78,4,22,0.06817346066236496,158,86.08,,39.1423712,,-76.7304738,False,0.6890609439997206,86.847,,39.142372,,-76.7304691,0.461,,39.142372,,-76.7304691,3.188122272491455,7.605053901672363,-27.63599395751953,value_here,POSCTL,,,,9,,ACTIVE,1732730244.0180924,0.02,-0.06,-0.01,12,1,15,2,17760768,0,13
1732730374.3547502,0.0,True,-0.05772342160344124,-0.008018286898732185,2.7674691677093506,1.12,77,16.114,0,0,False,,,,59,79,4,22,0.06817346066236496,158,86.08,,39.1423712,,-76.7304738,False,0.8010772210000141,86.853,,39.1423721,,-76.730469,0.467,,39.1423721,,-76.730469,3.17862868309021,7.613014221191406,-27.626834869384766,value_here,POSCTL,,,,9,,ACTIVE,130.33665776252747,0.02,-0.06,-0.02,12,1,15,2,17760768,0,13
1732730374.454925,0.0,True,-0.05794903635978699,-0.007623424753546715,2.767207384109497,1.12,77,16.114,0,0,False,,,,59,79,4,22,0.06817346066236496,158,86.08,,39.1423712,,-76.7304738,False,0.8893978329997481,86.865,,39.1423722,,-76.7304689,0.479,,39.1423722,,-76.7304689,3.16823410987854,7.622065544128418,-27.618457794189453,value_here,POSCTL,,,,9,,ACTIVE,1732730244.1182673,0.02,-0.05,-0.02,12,1,15,2,17760768,0,13
1732730374.555118,0.0,True,-0.05822329595685005,-0.006983743514865637,2.7668509483337402,1.12,77,16.108,0,0,False,,,,59,79,4,23,0.06817346066236496,158,86.08,,39.1423712,,-76.7304738,False,0.03228831500018714,86.872,,39.1423722,,-76.7304688,0.486,,39.1423722,,-76.7304688,3.16823410987854,7.622065544128418,-27.618457794189453,value_here,POSCTL,,,,9,,ACTIVE,130.4368507862091,0.02,-0.05,-0.02,12,1,15,2,17760768,0,13
1732730374.6552339,0.0,True,-0.05821465700864792,-0.006694869138300419,2.7664871215820312,1.12,77,16.108,0,0,False,,,,58,78,4,23,0.06043771281838417,158,86.08,,39.1423712,,-76.7304738,False,0.12085335199935798,86.885,,39.1423723,,-76.7304687,0.499,,39.1423723,,-76.7304687,3.158752918243408,7.632325649261475,-27.610721588134766,value_here,POSCTL,,,,9,,ACTIVE,1732730244.218383,0.02,-0.06,-0.01,12,1,15,2,17760768,0,13
1732730374.7554247,0.0,True,-0.05734673887491226,-0.006479804404079914,2.7664637565612793,1.12,77,16.108,0,0,False,,,,58,78,4,23,0.06043771281838417,158,86.08,,39.1423712,,-76.7304738,False,0.22127433300011035,86.89,,39.1423723,,-76.7304686,0.504,,39.1423723,,-76.7304686,3.148831844329834,7.640030860900879,-27.601757049560547,value_here,POSCTL,,,,8,,ACTIVE,130.53704166412354,0.02,-0.06,-0.02,12,1,15,2,17760768,0,13
1732730374.855756,0.0,True,-0.05748305469751358,-0.006414281670004129,2.7661874294281006,1.12,77,16.108,0,0,False,,,,58,78,4,23,0.06043771281838417,158,86.08,,39.1423712,,-76.7304738,False,0.3252219440000772,86.906,,39.1423725,,-76.7304685,0.52,,39.1423725,,-76.7304685,3.1357836723327637,7.651615142822266,-27.590944290161133,value_here,POSCTL,,,,8,,ACTIVE,1732730244.3187144,0.02,-0.06,-0.02,12,1,15,2,17760768,0,13
1732730374.955728,0.0,True,-0.057186536490917206,-0.006570069119334221,2.7659614086151123,1.12,77,16.108,0,0,False,,,,58,78,4,22,0.06618822365999222,158,86.08,,39.1423712,,-76.7304738,False,0.42910568499974033,86.916,,39.1423725,,-76.7304684,0.53,,39.1423725,,-76.7304684,3.1203832626342773,7.664653778076172,-27.580242156982422,value_here,POSCTL,,,,8,,ACTIVE,130.63701367378235,0.01,-0.06,-0.02,12,1,15,2,17760768,0,13
1732730375.0559173,0.0,True,-0.05687253922224045,-0.006528578232973814,2.7658541202545166,1.12,77,16.108,0,0,False,,,,59,79,4,23,0.06618822365999222,158,86.08,,39.1423712,,-76.7304738,False,0.5290810179994878,86.931,,39.1423726,,-76.7304683,0.545,,39.1423726,,-76.7304683,3.1081180572509766,7.673252582550049,-27.573148727416992,value_here,POSCTL,,,,8,,ACTIVE,1732730244.4189036,0.01,-0.06,-0.02,12,1,15,2,17760768,0,13
1732730375.1560156,0.0,True,-0.05722212791442871,-0.006693524308502674,2.7652807235717773,1.12,77,16.108,0,0,False,,,,59,79,4,23,0.06618822365999222,158,86.08,,39.1423712,,-76.7304738,False,0.6324114999997619,86.938,,39.1423726,,-76.7304682,0.553,,39.1423726,,-76.7304682,3.0948846340179443,7.682295799255371,-27.56543731689453,value_here,POSCTL,,,,8,,ACTIVE,130.7371120452881,0.01,-0.06,-0.03,12,1,15,2,17760768,0,13
1732730375.257136,0.0,True,-0.057231564074754715,-0.006290311925113201,2.765021324157715,1.11,76,16.102,0,0,False,,,,59,79,4,22,0.06618822365999222,158,86.08,,39.1423712,,-76.7304738,False,0.7354793699996662,86.956,,39.1423727,,-76.7304681,0.57,,39.1423727,,-76.7304681,3.0948846340179443,7.682295799255371,-27.56543731689453,value_here,POSCTL,,,,8,,ACTIVE,1732730244.520024,0.01,-0.07,-0.03,12,1,15,2,17760768,0,13
1732730375.3571079,0.0,True,-0.05691498517990112,-0.006481369026005268,2.764608860015869,1.11,76,16.102,0,0,False,,,,59,79,4,23,0.07623735070228577,158,86.08,,39.1423712,,-76.7304738,False,0.8355658699993,86.965,,39.1423728,,-76.730468,0.579,,39.1423728,,-76.730468,3.0648298263549805,7.704109191894531,-27.549226760864258,value_here,POSCTL,,,,9,,ACTIVE,130.83708381652832,0.0,-0.06,-0.04,12,1,15,2,17760768,0,13
1732730375.4565356,0.0,True,-0.05716045945882797,-0.006377525627613068,2.764341354370117,1.11,76,16.102,0,0,False,,,,58,78,4,23,0.07623735070228577,158,86.08,,39.1423712,,-76.7304738,False,0.9306178509996244,86.983,,39.1423728,,-76.7304678,0.597,,39.1423728,,-76.7304678,3.0648298263549805,7.704109191894531,-27.549226760864258,value_here,POSCTL,,,,9,,ACTIVE,1732730244.6194518,0.0,-0.07,-0.04,12,1,15,2,17760768,0,13
1732730375.5567138,0.0,True,-0.057095516473054886,-0.006376384757459164,2.7643609046936035,1.11,76,16.102,0,0,False,,,,58,78,4,23,0.07623735070228577,158,86.08,,39.1423712,,-76.7304738,False,0.008546054999897024,86.992,,39.1423729,,-76.7304677,0.607,,39.1423729,,-76.7304677,3.05000901222229,7.71480655670166,-27.541580200195312,value_here,POSCTL,,,,9,,ACTIVE,130.93726205825806,0.01,-0.07,-0.04,12,1,15,2,17760768,0,13
1732730375.6568131,0.0,True,-0.057617221027612686,-0.005992605350911617,2.7642250061035156,1.11,76,16.102,0,0,False,,,,58,78,4,23,0.07336243987083435,158,86.08,,39.1423712,,-76.7304738,False,0.13019053699918004,87.002,,39.1423729,,-76.7304677,0.616,,39.1423729,,-76.7304677,3.034018039703369,7.725454330444336,-27.533029556274414,value_here,POSCTL,,,,9,,ACTIVE,1732730244.719551,0.01,-0.07,-0.04,12,1,15,2,17760768,0,13
1732730375.7578235,0.0,True,-0.05802633613348007,-0.005384284537285566,2.7641355991363525,1.11,76,16.102,0,0,False,,,,58,78,4,23,0.07336243987083435,158,86.08,,39.1423712,,-76.7304738,False,0.23218083299980208,87.023,,39.142373,,-76.7304675,0.637,,39.142373,,-76.7304675,3.0153369903564453,7.737539291381836,-27.524179458618164,value_here,POSCTL,,,,8,,ACTIVE,131.03827238082886,0.01,-0.07,-0.05,12,1,15,2,17760768,0,13
1732730375.8581433,0.0,True,-0.05781586095690727,-0.005601491779088974,2.7640206813812256,1.11,76,16.102,0,0,False,,,,58,78,4,23,0.07336243987083435,158,86.08,,39.1423712,,-76.7304738,False,0.3327890179998576,87.032,,39.1423731,,-76.7304675,0.646,,39.1423731,,-76.7304675,2.9995169639587402,7.747405052185059,-27.517118453979492,value_here,POSCTL,,,,8,,ACTIVE,1732730244.819871,0.0,-0.08,-0.05,12,1,15,2,17760768,0,13
1732730375.9579837,0.0,True,-0.05808607116341591,-0.005626262165606022,2.76401424407959,1.12,76,16.093,0,0,False,,,,58,78,4,22,0.08618687838315964,158,86.08,,39.1423712,,-76.7304738,False,0.4323525919999156,87.052,,39.1423731,,-76.7304673,0.666,,39.1423731,,-76.7304673,2.98242449760437,7.76030969619751,-27.51027488708496,value_here,POSCTL,,,,8,,ACTIVE,131.138112783432,0.01,-0.08,-0.05,12,1,15,2,17760768,0,13
1732730376.0573761,0.0,True,-0.05749646946787834,-0.005547673441469669,2.7641069889068604,1.12,76,16.093,0,0,False,,,,58,78,4,22,0.08618687838315964,158,86.08,,39.1423712,,-76.7304738,False,0.5189034619997983,87.061,,39.1423732,,-76.7304672,0.676,,39.1423732,,-76.7304672,2.970268487930298,7.76964807510376,-27.50496482849121,value_here,POSCTL,,,,8,,ACTIVE,1732730244.9192634,0.0,-0.08,-0.04,12,1,15,2,17760768,0,13
1732730376.1575258,0.0,True,-0.057710666209459305,-0.0056126536801457405,2.7641758918762207,1.12,76,16.093,0,0,False,,,,58,78,4,22,0.08618687838315964,158,86.08,,39.1423712,,-76.7304738,False,0.630327813999429,87.077,,39.1423732,,-76.730467,0.691,,39.1423732,,-76.730467,2.956998825073242,7.784723281860352,-27.49986457824707,value_here,POSCTL,,,,8,,ACTIVE,131.23826241493225,0.0,-0.08,-0.04,12,1,15,2,17760768,0,13
1732730376.258055,0.0,True,-0.057585254311561584,-0.005563625134527683,2.763969898223877,1.12,76,16.093,0,0,False,,,,58,78,4,22,0.08618687838315964,158,86.08,,39.1423712,,-76.7304738,False,0.7315023510000174,87.083,,39.1423733,,-76.7304669,0.697,,39.1423733,,-76.7304669,2.956998825073242,7.784723281860352,-27.49986457824707,value_here,POSCTL,,,,8,,ACTIVE,1732730245.0197926,0.0,-0.07,-0.04,12,1,15,2,17760768,0,13
1732730376.3582058,0.0,True,-0.057846494019031525,-0.005408111028373241,2.7638351917266846,1.12,76,16.093,0,0,False,,,,58,78,4,22,0.07430455833673477,158,86.08,,39.1423712,,-76.7304738,False,0.8279804989997501,87.096,,39.1423733,,-76.7304668,0.71,,39.1423733,,-76.7304668,2.946584463119507,7.794790267944336,-27.495101928710938,value_here,POSCTL,,,,8,,ACTIVE,131.3384132385254,0.0,-0.08,-0.03,12,1,15,2,17760768,0,13
1732730376.4592102,0.0,True,-0.05824374035000801,-0.0052752308547496796,2.76387619972229,1.12,76,16.093,0,0,False,,,,58,78,4,22,0.07430455833673477,158,86.08,,39.1423712,,-76.7304738,False,0.9334908329992686,87.102,,39.1423733,,-76.7304667,0.716,,39.1423733,,-76.7304667,2.9356491565704346,7.8101301193237305,-27.48988914489746,value_here,POSCTL,,,,9,,ACTIVE,1732730245.120797,0.0,-0.08,-0.03,12,1,15,2,17760768,0,13
1732730376.5584807,0.0,True,-0.057994864881038666,-0.005009137559682131,2.763390302658081,1.12,76,16.093,0,0,False,,,,58,78,4,22,0.07430455833673477,158,86.08,,39.1423712,,-76.7304738,False,0.02593409299970517,87.115,,39.1423734,,-76.7304665,0.729,,39.1423734,,-76.7304665,2.9243721961975098,7.824924945831299,-27.484670639038086,value_here,POSCTL,,,,9,,ACTIVE,131.4376838207245,0.0,-0.09,-0.02,12,1,15,2,17760768,0,13
1732730376.6586313,0.0,True,-0.0581563338637352,-0.004975881427526474,2.763350486755371,1.11,76,16.085,0,0,False,,,,58,78,4,22,0.09019144624471664,158,86.385,,39.1423707,,-76.730472,False,0.12621509299970057,87.121,,39.1423734,,-76.7304664,0.735,,39.1423734,,-76.7304664,2.9142110347747803,7.8360209465026855,-27.480060577392578,value_here,POSCTL,,,,9,,ACTIVE,1732730245.2209475,0.0,-0.09,-0.03,12,1,15,2,17760768,0,13
1732730376.7589543,0.0,True,-0.057935625314712524,-0.004895076155662537,2.763021469116211,1.11,76,16.085,0,0,False,,,,58,78,4,22,0.09019144624471664,158,86.385,,39.1423707,,-76.730472,False,0.2320111299995915,87.134,,39.1423735,,-76.7304662,0.748,,39.1423735,,-76.7304662,2.9027230739593506,7.850527763366699,-27.475759506225586,value_here,POSCTL,,,,8,,ACTIVE,131.53800678253174,0.0,-0.1,-0.03,12,1,15,2,17760768,0,13
1732730376.8589087,0.0,True,-0.05803118646144867,-0.0045052203349769115,2.762538433074951,1.11,76,16.085,0,0,False,,,,58,78,4,23,0.09019144624471664,158,86.385,,39.1423707,,-76.730472,False,0.3169951479994779,87.14,,39.1423735,,-76.7304662,0.754,,39.1423735,,-76.7304662,2.8941762447357178,7.856863975524902,-27.474796295166016,value_here,POSCTL,,,,8,,ACTIVE,1732730245.3209019,0.0,-0.09,-0.03,12,1,15,2,17760768,0,13
1732730376.9595726,0.0,True,-0.05744871497154236,-0.004514596424996853,2.762317419052124,1.11,76,16.085,0,0,False,,,,58,78,4,23,0.09019144624471664,158,86.385,,39.1423707,,-76.730472,False,0.4363666290000765,87.146,,39.1423735,,-76.7304661,0.76,,39.1423735,,-76.7304661,2.8941762447357178,7.856863975524902,-27.474796295166016,value_here,POSCTL,,,,8,,ACTIVE,131.6386706829071,-0.01,-0.09,-0.04,12,1,15,2,17760768,0,13
1732730377.059753,0.0,True,-0.05658414214849472,-0.0042503890581429005,2.7620482444763184,1.11,76,16.085,0,0,False,,,,58,78,4,23,0.095570869743824,158,86.385,,39.1423707,,-76.730472,False,0.5341924260001178,87.16,,39.1423735,,-76.7304659,0.774,,39.1423735,,-76.7304659,2.8820879459381104,7.873245716094971,-27.47224998474121,value_here,POSCTL,,,,8,,ACTIVE,1732730245.4210823,0.0,-0.1,-0.03,12,1,15,2,17760768,0,13
1732730377.1598933,0.0,True,-0.05619075894355774,-0.0039797695353627205,2.7621333599090576,1.11,76,16.085,0,0,False,,,,58,78,4,23,0.095570869743824,158,86.385,,39.1423707,,-76.730472,False,0.6353312399996867,87.166,,39.1423735,,-76.7304658,0.78,,39.1423735,,-76.7304658,2.8713109493255615,7.885888576507568,-27.469257354736328,value_here,POSCTL,,,,8,,ACTIVE,131.73881101608276,-0.01,-0.1,-0.03,12,1,15,2,17760768,0,13
1732730377.2602236,0.0,True,-0.05478638783097267,-0.0036599391605705023,2.7619524002075195,1.8,76,16.068,0,0,False,,,,58,78,4,23,0.095570869743824,158,86.385,,39.1423707,,-76.730472,False,0.7292516480001723,87.177,,39.1423735,,-76.7304656,0.791,,39.1423735,,-76.7304656,2.8622188568115234,7.896622180938721,-27.466835021972656,value_here,POSCTL,,,,8,,ACTIVE,1732730245.5214126,-0.01,-0.1,-0.04,12,1,15,2,17760768,0,13
1732730377.3602686,0.0,True,-0.05488027632236481,-0.0032213807571679354,2.761719226837158,1.8,76,16.068,0,0,False,,,,58,78,4,23,0.10645214468240738,158,86.385,,39.1423707,,-76.730472,False,0.8321422589997383,87.182,,39.1423736,,-76.7304656,0.796,,39.1423736,,-76.7304656,2.8542587757110596,7.90749979019165,-27.464521408081055,value_here,POSCTL,,,,8,,ACTIVE,131.83885598182678,-0.01,-0.1,-0.05,12,1,15,2,17760768,0,13
1732730377.460518,0.0,True,-0.05404730886220932,-0.0032083485275506973,2.761648416519165,1.8,76,16.068,0,0,False,,,,58,78,4,23,0.10645214468240738,158,86.385,,39.1423707,,-76.730472,False,0.930308906999926,87.192,,39.1423736,,-76.7304653,0.806,,39.1423736,,-76.7304653,2.8455886840820312,7.922914981842041,-27.46158790588379,value_here,POSCTL,,,,8,,ACTIVE,1732730245.621662,-0.01,-0.1,-0.04,12,1,15,2,17760768,0,13
1732730377.560651,0.0,True,-0.05257425457239151,-0.003196039702743292,2.761596918106079,1.8,76,16.068,0,0,False,,,,58,78,4,23,0.10645214468240738,158,86.385,,39.1423707,,-76.730472,False,0.03352416699999594,87.197,,39.1423736,,-76.7304652,0.002,,39.1423736,,-76.7304652,2.83764386177063,7.9368367195129395,-27.458599090576172,value_here,POSCTL,,,,8,,ACTIVE,131.93898916244507,-0.01,-0.09,-0.04,12,1,15,2,17760768,0,13
1732730377.6608832,0.0,True,-0.0515793152153492,-0.003093984443694353,2.761688470840454,1.8,76,16.068,0,0,False,,,,58,78,4,23,0.10645214468240738,158,86.385,,39.1423707,,-76.730472,False,0.13599950000025274,87.205,,39.1423736,,-76.730465,0.009,,39.1423736,,-76.730465,2.83764386177063,7.9368367195129395,-27.458599090576172,value_here,POSCTL,,,,8,,ACTIVE,1732730245.721894,-0.01,-0.09,-0.04,12,1,15,2,17760768,0,13
1732730377.7610316,0.0,True,-0.04853807017207146,-0.0023888887371867895,2.761620044708252,1.8,76,16.068,0,0,False,,,,58,78,4,23,0.09790316969156265,158,86.385,,39.1423707,,-76.730472,False,0.23716764800064993,87.209,,39.1423737,,-76.7304649,0.014,,39.1423737,,-76.7304649,2.824437379837036,7.969038486480713,-27.44896125793457,value_here,POSCTL,,,,8,,ACTIVE,132.03913760185242,0.0,-0.09,-0.04,12,1,15,2,17760768,0,13
1732730377.8612015,0.0,True,-0.046847566962242126,-0.000515157647896558,2.76118803024292,1.8,76,16.068,0,0,False,,,,58,78,4,23,0.09790316969156265,158,86.385,,39.1423707,,-76.730472,False,0.3328415740006676,87.216,,39.1423737,,-76.7304648,0.021,,39.1423737,,-76.7304648,2.824437379837036,7.969038486480713,-27.44896125793457,value_here,POSCTL,,,,8,,ACTIVE,1732730245.822064,0.0,-0.1,-0.04,12,1,15,2,17760768,0,13
1732730377.9613588,0.0,True,-0.040041547268629074,-0.0004380829050205648,2.7613134384155273,6.37,74,15.939,0,0,False,,,,58,78,4,23,0.09790316969156265,158,86.385,,39.1423707,,-76.730472,False,0.41836370400051237,87.22,,39.1423738,,-76.7304647,0.024,,39.1423738,,-76.7304647,2.8185606002807617,7.979449272155762,-27.44402503967285,value_here,POSCTL,,,,8,,ACTIVE,132.1392948627472,0.01,-0.1,-0.05,12,1,15,2,17760768,0,13
1732730378.0617564,0.0,True,-0.029138104990124702,0.00018207474204245955,2.76242733001709,6.37,74,15.939,0,0,False,,,,58,78,4,23,0.11426012963056564,158,86.385,,39.1423707,,-76.730472,False,0.5390400740006953,87.228,,39.1423738,,-76.7304645,0.033,,39.1423738,,-76.7304645,2.811980962753296,7.991219520568848,-27.437843322753906,value_here,POSCTL,,,,8,,ACTIVE,1732730245.9224615,0.01,-0.12,-0.06,12,1,15,2,17760768,0,13
1732730378.1616502,0.0,True,-0.021396832540631294,0.00427189189940691,2.7614996433258057,6.37,74,15.939,0,0,False,,,,58,78,4,23,0.11426012963056564,158,86.385,,39.1423707,,-76.730472,False,0.6152170190007382,87.232,,39.1423739,,-76.7304644,0.037,,39.1423739,,-76.7304644,2.8048017024993896,8.002961158752441,-27.431020736694336,value_here,POSCTL,,,,9,,ACTIVE,132.23918867111206,0.0,-0.13,-0.05,12,1,15,2,17760768,0,13
1732730378.2620487,0.0,True,-0.007237013895064592,0.006459780037403107,2.761152982711792,6.37,74,15.939,0,0,False,,,,58,78,4,23,0.11426012963056564,158,86.385,,39.1423707,,-76.730472,False,0.7391050550004366,87.238,,39.1423739,,-76.7304644,0.042,,39.1423739,,-76.7304644,2.796668529510498,8.013906478881836,-27.423480987548828,value_here,POSCTL,,,,9,,ACTIVE,1732730246.02286,0.03,-0.13,-0.06,12,1,15,2,17760768,0,13
1732730378.3621356,0.0,True,0.005709166172891855,0.009852219372987747,2.7567965984344482,6.37,74,15.939,0,0,False,,,,58,78,4,23,0.15892991423606873,158,86.385,,39.1423707,,-76.730472,False,0.8363439440008733,87.247,,39.142374,,-76.7304642,0.051,,39.142374,,-76.7304642,2.788895606994629,8.025797843933105,-27.414093017578125,value_here,POSCTL,,,,9,,ACTIVE,132.339275598526,0.03,-0.15,-0.07,12,1,15,2,17760768,0,13
1732730378.4624088,0.0,True,0.015098563395440578,0.01537539716809988,2.744831085205078,6.37,74,15.939,0,0,False,,,,58,78,4,22,0.15892991423606873,158,86.385,,39.1423707,,-76.730472,False,0.9391151660001924,87.251,,39.142374,,-76.7304642,0.056,,39.142374,,-76.7304642,2.778779983520508,8.028180122375488,-27.405590057373047,value_here,POSCTL,,,,12,,ACTIVE,1732730246.1231332,0.04,-0.17,-0.1,12,1,15,2,17760768,0,13
1732730378.562578,0.0,True,0.01820869743824005,0.01537173893302679,2.7340292930603027,6.37,74,15.939,0,0,False,,,,59,79,4,22,0.15892991423606873,158,86.385,,39.1423707,,-76.730472,False,0.037657296000361384,87.277,,39.1423742,,-76.7304642,0.082,,39.1423742,,-76.7304642,2.778779983520508,8.028180122375488,-27.405590057373047,value_here,POSCTL,,,,12,,ACTIVE,132.43944478034973,0.05,-0.23,-0.29,12,1,15,2,17760768,0,13
1732730378.663118,0.0,True,-0.0028833665419369936,-0.0043069166131317616,2.698180675506592,18.93,69,15.552,0,0,False,,,,59,79,4,22,0.15892991423606873,158,86.385,,39.1423707,,-76.730472,False,0.13966527699994913,87.3,,39.1423742,,-76.7304642,0.104,,39.1423742,,-76.7304642,2.7510180473327637,8.02518081665039,-27.395225524902344,value_here,POSCTL,,,,12,,ACTIVE,1732730246.223673,0.07,-0.26,-0.43,12,1,15,2,17760768,0,13
1732730378.7634785,0.0,True,-0.021895114332437515,-0.009994377382099628,2.6726233959198,18.93,69,15.552,0,0,False,,,,59,79,4,23,0.2932000458240509,154,86.385,,39.1423707,,-76.730472,False,0.23864983299972664,87.374,,39.1423744,,-76.7304642,0.179,,39.1423744,,-76.7304642,2.6998627185821533,8.024231910705566,-27.38092041015625,value_here,POSCTL,,,,12,,ACTIVE,132.53980541229248,0.06,-0.3,-0.71,12,1,15,2,17760768,0,13
1732730378.8635757,0.0,True,-0.0280265174806118,-0.011529785580933094,2.6456522941589355,18.93,69,15.552,0,0,False,,,,59,79,4,23,0.2932000458240509,154,86.385,,39.1423707,,-76.730472,False,0.3330590920004397,87.426,,39.1423744,,-76.7304642,0.231,,39.1423744,,-76.7304642,2.622462749481201,8.022979736328125,-27.369539260864258,value_here,POSCTL,,,,24,,ACTIVE,1732730246.3237703,0.05,-0.3,-0.85,12,1,15,2,17760768,0,13
1732730378.9638445,0.0,True,-0.030290817841887474,-0.012554209679365158,2.623514175415039,18.93,69,15.552,0,0,False,,,,58,78,4,23,0.2932000458240509,154,86.385,,39.1423707,,-76.730472,False,0.437330796000424,87.57,,39.1423746,,-76.7304643,0.375,,39.1423746,,-76.7304643,2.5141849517822266,8.015948295593262,-27.358585357666016,value_here,POSCTL,,,,24,,ACTIVE,132.64007425308228,0.03,-0.32,-1.1,12,1,15,2,17760768,0,13
1732730379.063885,0.0,True,-0.033096473664045334,-0.0143336933106184,2.6053593158721924,18.93,69,15.552,0,0,False,,,,58,78,4,23,0.3251224756240845,149,86.385,,39.1423707,,-76.730472,False,0.5386946099997658,87.633,,39.1423746,,-76.7304644,0.438,,39.1423746,,-76.7304644,2.3873000144958496,8.010528564453125,-27.346155166625977,value_here,POSCTL,,,,24,,ACTIVE,1732730246.4238107,0.02,-0.32,-1.15,12,1,15,2,17760768,0,13
1732730379.1640267,0.0,True,-0.03267802298069,-0.020221877843141556,2.5949041843414307,18.93,69,15.552,0,0,False,,,,58,78,4,23,0.3251224756240845,149,86.385,,39.1423707,,-76.730472,False,0.6317606660004458,87.794,,39.1423747,,-76.7304645,0.598,,39.1423747,,-76.7304645,2.2643041610717773,8.003106117248535,-27.33856201171875,value_here,POSCTL,,,,59,,ACTIVE,132.7402160167694,0.01,-0.31,-1.23,12,1,15,2,17760768,0,13
1732730379.264182,0.0,True,-0.03627766668796539,-0.021478278562426567,2.5829639434814453,18.93,69,15.552,0,0,False,,,,63,88,4,22,0.3251224756240845,149,86.385,,39.1423707,,-76.730472,False,0.7359758880002119,87.884,,39.1423747,,-76.7304645,0.688,,39.1423747,,-76.7304645,2.121666431427002,7.995782852172852,-27.331701278686523,value_here,POSCTL,,,,59,,ACTIVE,1732730246.523966,0.0,-0.3,-1.24,12,1,15,2,17760768,0,13
1732730379.3653107,0.0,True,-0.0375039242208004,-0.014581616967916489,2.5769011974334717,22.96,63,15.29,0,0,False,,,,63,88,4,22,0.3251224756240845,149,86.385,,39.1423707,,-76.730472,False,0.8429444250004963,88.053,,39.1423748,,-76.7304645,0.858,,39.1423748,,-76.7304645,2.121666431427002,7.995782852172852,-27.331701278686523,value_here,POSCTL,,,,59,,ACTIVE,132.84134459495544,0.0,-0.29,-1.27,12,1,15,2,17760768,0,13
1732730379.4645069,0.0,True,-0.03768124803900719,-0.006791663356125355,2.576040744781494,22.96,63,15.29,0,0,False,,,,65,88,4,22,0.29028162360191345,147,86.385,,39.1423707,,-76.730472,False,0.9323102950002067,88.133,,39.1423749,,-76.7304645,0.938,,39.1423749,,-76.7304645,1.9833488464355469,7.997200965881348,-27.321561813354492,value_here,POSCTL,,,,102,,ACTIVE,1732730246.6231623,0.0,-0.28,-1.28,12,1,15,2,17760768,0,13
1732730379.5654655,0.0,True,-0.03825398534536362,-0.003500406863167882,2.5787386894226074,22.96,63,15.29,0,0,False,,,,63,88,4,22,0.29028162360191345,147,86.385,,39.1423707,,-76.730472,False,0.04286709299958602,88.214,,39.142375,,-76.7304644,1.019,,39.142375,,-76.7304644,1.8379497528076172,8.004705429077148,-27.307912826538086,value_here,POSCTL,,,,102,,ACTIVE,132.94230318069458,0.0,-0.28,-1.28,12,1,15,2,17760768,0,13
1732730379.6648314,0.0,True,-0.03668772056698799,-0.005447517614811659,2.5841457843780518,22.96,63,15.29,0,0,False,,,,63,88,4,23,0.29028162360191345,147,86.385,,39.1423707,,-76.730472,False,0.12412974099970597,88.393,,39.1423751,,-76.7304645,1.198,,39.1423751,,-76.7304645,1.699735403060913,8.001957893371582,-27.298622131347656,value_here,POSCTL,,,,102,,ACTIVE,1732730246.7225282,-0.03,-0.3,-1.3,12,1,15,2,17760768,0,13
1732730379.7649086,0.0,True,-0.036269690841436386,-0.011865179985761642,2.591949939727783,22.96,63,15.29,0,0,False,,,,63,88,4,23,0.31161800026893616,148,86.385,,39.1423707,,-76.730472,False,0.23635107399968547,88.474,,39.1423751,,-76.7304645,1.279,,39.1423751,,-76.7304645,1.548484206199646,7.997395038604736,-27.28926658630371,value_here,POSCTL,,,,102,,ACTIVE,133.04238033294678,-0.03,-0.3,-1.3,12,1,15,2,17760768,0,13
1732730379.865033,0.0,True,-0.03997599706053734,-0.016730640083551407,2.60019850730896,22.96,63,15.29,0,0,False,,,,63,88,4,23,0.31161800026893616,148,86.385,,39.1423707,,-76.730472,False,0.3281729070004076,88.657,,39.1423752,,-76.7304645,1.461,,39.1423752,,-76.7304645,1.4058914184570312,8.000351905822754,-27.279022216796875,value_here,POSCTL,,,,149,,ACTIVE,1732730246.8226526,-0.04,-0.3,-1.32,12,1,15,2,17760768,0,13
1732730379.9652543,0.0,True,-0.037690289318561554,-0.012725426815450191,2.6081624031066895,22.96,63,15.29,0,0,False,,,,63,88,4,23,0.31161800026893616,148,86.385,,39.1423707,,-76.730472,False,0.43160775900014414,88.742,,39.1423753,,-76.7304645,1.546,,39.1423753,,-76.7304645,1.2614675760269165,8.001226425170898,-27.272727966308594,value_here,POSCTL,,,,149,,ACTIVE,133.14260172843933,-0.04,-0.31,-1.32,12,1,15,2,17760768,0,13
1732730380.0663056,0.0,True,-0.03914907947182655,-0.010455728508532047,2.6150636672973633,23.16,59,15.166,0,0,False,,,,58,78,4,23,0.31301841139793396,149,86.385,,39.1423707,,-76.730472,False,0.5436093700000129,88.913,,39.1423754,,-76.7304644,1.718,,39.1423754,,-76.7304644,1.1148097515106201,8.004903793334961,-27.262964248657227,value_here,POSCTL,,,,149,,ACTIVE,1732730246.923704,-0.05,-0.3,-1.34,12,1,15,2,17760768,0,13
1732730380.1653175,0.0,True,-0.04223702475428581,-0.008320468477904797,2.626120090484619,23.16,59,15.166,0,0,False,,,,58,78,4,23,0.31301841139793396,149,86.385,,39.1423707,,-76.730472,False,0.6364533329997357,89.006,,39.1423754,,-76.7304644,1.811,,39.1423754,,-76.7304644,0.9663450121879578,8.008899688720703,-27.258337020874023,value_here,POSCTL,,,,196,,ACTIVE,133.2416136264801,-0.06,-0.3,-1.35,12,1,15,2,17760768,0,13
1732730380.2656105,0.0,True,-0.042241618037223816,-0.010079856961965561,2.6331405639648438,23.16,59,15.166,0,0,False,,,,58,78,4,23,0.31301841139793396,149,86.385,,39.1423707,,-76.730472,False,0.7405632039999546,89.183,,39.1423754,,-76.7304644,1.987,,39.1423754,,-76.7304644,0.9663450121879578,8.008899688720703,-27.258337020874023,value_here,POSCTL,,,,196,,ACTIVE,1732730247.0239968,-0.06,-0.3,-1.36,12,1,15,2,17760768,0,13
1732730380.365495,0.0,True,-0.04088893160223961,-0.01168763916939497,2.6445858478546143,23.16,59,15.166,0,0,False,,,,58,78,4,23,0.31301841139793396,149,86.385,,39.1423707,,-76.730472,False,0.8405006290004167,89.284,,39.1423755,,-76.7304643,2.089,,39.1423755,,-76.7304643,0.8171384334564209,8.009618759155273,-27.255064010620117,value_here,POSCTL,,,,196,,ACTIVE,133.34149813652039,-0.07,-0.3,-1.37,12,1,15,2,17760768,0,13
1732730380.4668326,0.0,True,-0.04063981771469116,-0.01388263888657093,2.6516573429107666,23.16,59,15.166,0,0,False,,,,59,79,4,22,0.3064129650592804,151,86.385,,39.1423707,,-76.730472,False,0.9442336479996811,89.46,,39.1423755,,-76.7304642,2.265,,39.1423755,,-76.7304642,0.6543084979057312,8.019765853881836,-27.25011444091797,value_here,POSCTL,,,,196,,ACTIVE,1732730247.1253345,-0.08,-0.29,-1.38,12,1,15,2,17760768,0,13
1732730380.5665593,0.0,True,-0.038808539509773254,-0.013105910271406174,2.6572318077087402,23.16,59,15.166,0,0,False,,,,59,79,4,23,0.3064129650592804,151,86.385,,39.1423707,,-76.730472,False,0.005125017999489501,89.561,,39.1423755,,-76.7304641,2.365,,39.1423755,,-76.7304641,0.5030601024627686,8.03014087677002,-27.245149612426758,value_here,POSCTL,,,,245,,ACTIVE,133.4412248134613,-0.08,-0.29,-1.38,12,1,15,2,17760768,0,13
1732730380.6661985,0.0,True,-0.03863152489066124,-0.010729202069342136,2.6642351150512695,23.16,59,15.166,0,0,False,,,,58,77,4,24,0.3064129650592804,151,86.385,,39.1423707,,-76.730472,False,0.13012114799948904,89.757,,39.1423755,,-76.730464,2.561,,39.1423755,,-76.730464,0.3484004735946655,8.038596153259277,-27.243440628051758,value_here,POSCTL,,,,245,,ACTIVE,1732730247.2249737,-0.09,-0.28,-1.39,12,1,15,2,17760768,0,13
1732730380.7664158,0.0,True,-0.03888275846838951,-0.012301196344196796,2.670741081237793,22.77,56,15.099,0,0,False,,,,58,77,4,24,0.3087640702724457,152,86.385,,39.1423707,,-76.730472,False,0.22327792499982024,89.851,,39.1423755,,-76.7304639,2.655,,39.1423755,,-76.7304639,0.18543307483196259,8.047863960266113,-27.243921279907227,value_here,POSCTL,,,,245,,ACTIVE,133.541442155838,-0.1,-0.29,-1.38,12,1,15,2,17760768,0,13
1732730380.8663633,0.0,True,-0.036294687539339066,-0.01271823886781931,2.676027774810791,22.77,56,15.099,0,0,False,,,,58,77,4,23,0.3087640702724457,152,86.385,,39.1423707,,-76.730472,False,0.33290579599997727,89.935,,39.1423755,,-76.7304639,2.739,,39.1423755,,-76.7304639,0.018123328685760498,8.051530838012695,-27.24500274658203,value_here,POSCTL,,,,296,,ACTIVE,1732730247.3249211,-0.09,-0.29,-1.38,12,1,15,2,17760768,0,13
1732730380.966716,0.0,True,-0.03605455532670021,-0.011689516715705395,2.680598258972168,22.77,56,15.099,0,0,False,,,,58,77,4,23,0.3087640702724457,152,86.385,,39.1423707,,-76.730472,False,0.42492925899932743,90.136,,39.1423755,,-76.7304638,2.941,,39.1423755,,-76.7304638,-0.13940666615962982,8.05820083618164,-27.244239807128906,value_here,POSCTL,,,,296,,ACTIVE,133.64179491996765,-0.09,-0.29,-1.39,12,1,15,2,17760768,0,13
1732730381.0667624,0.0,True,-0.03559379652142525,-0.010061177425086498,2.6839499473571777,22.77,56,15.099,0,0,False,,,,56,74,4,22,0.3087640702724457,152,86.385,,39.1423707,,-76.730472,False,0.5329088699991189,90.228,,39.1423755,,-76.7304638,3.033,,39.1423755,,-76.7304638,-0.13940666615962982,8.05820083618164,-27.244239807128906,value_here,POSCTL,,,,296,,ACTIVE,1732730247.4249675,-0.1,-0.29,-1.39,12,1,15,2,17760768,0,13
1732730381.1668952,0.0,True,-0.03588980436325073,-0.010090633295476437,2.6871471405029297,22.77,56,15.099,0,0,False,,,,59,76,4,23,0.3206007778644562,153,86.385,,39.1423707,,-76.730472,False,0.6346400729999004,90.416,,39.1423756,,-76.7304637,3.22,,39.1423756,,-76.7304637,-0.29518944025039673,8.063024520874023,-27.24344253540039,value_here,POSCTL,,,,296,,ACTIVE,133.74192762374878,-0.1,-0.3,-1.39,12,1,15,2,17760768,0,13
1732730381.2670958,0.0,True,-0.038636039942502975,-0.012219597585499287,2.6904091835021973,22.77,56,15.099,0,0,False,,,,57,76,4,23,0.3206007778644562,153,86.385,,39.1423707,,-76.730472,False,0.7298858319991268,90.515,,39.1423755,,-76.7304638,3.319,,39.1423755,,-76.7304638,-0.4639292061328888,8.060442924499512,-27.243194580078125,value_here,POSCTL,,,,343,,ACTIVE,1732730247.5251682,-0.09,-0.31,-1.39,12,1,15,2,17760768,0,13
1732730381.3673291,0.0,True,-0.0404658168554306,-0.014920263551175594,2.6939163208007812,22.74,55,15.068,0,0,False,,,,57,76,4,23,0.3206007778644562,153,86.385,,39.1423707,,-76.730472,False,0.828795350999826,90.721,,39.1423755,,-76.7304638,3.526,,39.1423755,,-76.7304638,-0.628165602684021,8.057271003723145,-27.243453979492188,value_here,POSCTL,,,,343,,ACTIVE,133.8421609401703,-0.1,-0.32,-1.39,12,1,15,2,17760768,0,13
1732730381.4673629,0.0,True,-0.042789675295352936,-0.018894687294960022,2.697134256362915,22.74,55,15.068,0,0,False,,,,58,78,4,22,0.3376094698905945,154,86.385,,39.1423707,,-76.730472,False,0.9327331289996437,90.811,,39.1423755,,-76.7304638,3.615,,39.1423755,,-76.7304638,-0.7845495343208313,8.058693885803223,-27.242910385131836,value_here,POSCTL,,,,343,,ACTIVE,1732730247.625202,-0.1,-0.32,-1.4,12,1,15,2,17760768,0,13
1732730381.56742,0.0,True,-0.04239891469478607,-0.01752326637506485,2.7007880210876465,22.74,55,15.068,0,0,False,,,,58,78,4,22,0.3376094698905945,154,86.385,,39.1423707,,-76.730472,False,0.04072074099985912,90.999,,39.1423756,,-76.7304638,3.804,,39.1423756,,-76.7304638,-0.9394251704216003,8.05909538269043,-27.237747192382812,value_here,POSCTL,,,,393,,ACTIVE,133.94221806526184,-0.09,-0.32,-1.4,12,1,15,2,17760768,0,13
1732730381.6681137,0.0,True,-0.04440075531601906,-0.015487226657569408,2.7035040855407715,22.74,55,15.068,0,0,False,,,,58,78,4,22,0.3376094698905945,154,86.385,,39.1423707,,-76.730472,False,0.1444083149999642,91.112,,39.1423756,,-76.7304638,3.917,,39.1423756,,-76.7304638,-1.0982601642608643,8.059481620788574,-27.23267364501953,value_here,POSCTL,,,,393,,ACTIVE,1732730247.7258956,-0.09,-0.31,-1.4,12,1,15,2,17760768,0,13
1732730381.7685122,0.0,True,-0.045785389840602875,-0.01597619615495205,2.705249786376953,22.74,55,15.068,0,0,False,,,,58,78,4,22,0.3376094698905945,154,86.385,,39.1423707,,-76.730472,False,0.24479455499931646,91.29,,39.1423757,,-76.7304638,4.094,,39.1423757,,-76.7304638,-1.2683101892471313,8.058229446411133,-27.228029251098633,value_here,POSCTL,,,,393,,ACTIVE,134.04261660575867,-0.1,-0.31,-1.41,12,1,15,2,17760768,0,13
1732730381.868635,0.0,True,-0.044889796525239944,-0.01326247863471508,2.7072176933288574,22.74,55,15.068,0,0,False,,,,58,78,4,21,0.3303779363632202,155,86.385,,39.1423707,,-76.730472,False,0.3444861289999608,91.389,,39.1423757,,-76.7304638,4.194,,39.1423757,,-76.7304638,-1.425873041152954,8.064282417297363,-27.223129272460938,value_here,POSCTL,,,,444,,ACTIVE,1732730247.8260183,-0.11,-0.31,-1.41,12,1,15,2,17760768,0,13
1732730381.9689581,0.0,True,-0.04321161285042763,-0.013351303525269032,2.7080397605895996,22.74,55,15.068,0,0,False,,,,59,79,4,22,0.3303779363632202,155,86.385,,39.1423707,,-76.730472,False,0.4452173519994176,91.497,,39.1423757,,-76.7304637,4.301,,39.1423757,,-76.7304637,-1.425873041152954,8.064282417297363,-27.223129272460938,value_here,POSCTL,,,,444,,ACTIVE,134.1429398059845,-0.11,-0.31,-1.41,12,1,15,2,17760768,0,13
1732730382.0690093,0.0,True,-0.04290011152625084,-0.01436807680875063,2.708961009979248,22.81,53,15.024,0,0,False,,,,59,79,4,21,0.3303779363632202,155,86.385,,39.1423707,,-76.730472,False,0.5245846480002001,91.689,,39.1423757,,-76.7304638,4.493,,39.1423757,,-76.7304638,-1.5846489667892456,8.066431999206543,-27.220422744750977,value_here,POSCTL,,,,444,,ACTIVE,1732730247.9260695,-0.12,-0.32,-1.43,12,1,15,2,17760768,0,13
1732730382.1694906,0.0,True,-0.04186569154262543,-0.01687304489314556,2.710855484008789,22.81,53,15.024,0,0,False,,,,59,79,4,21,0.3504667580127716,155,86.385,,39.1423707,,-76.730472,False,0.64382007399945,91.788,,39.1423757,,-76.7304638,4.593,,39.1423757,,-76.7304638,-1.7517796754837036,8.061633110046387,-27.221525192260742,value_here,POSCTL,,,,444,,ACTIVE,134.24342107772827,-0.12,-0.32,-1.44,12,1,15,2,17760768,0,13
1732730382.269417,0.0,True,-0.04131559655070305,-0.020311692729592323,2.713834285736084,22.81,53,15.024,0,0,False,,,,58,78,4,21,0.3504667580127716,155,86.385,,39.1423707,,-76.730472,False,0.7345775739995588,91.987,,39.1423757,,-76.7304638,4.792,,39.1423757,,-76.7304638,-1.9146206378936768,8.055049896240234,-27.224489212036133,value_here,POSCTL,,,,496,,ACTIVE,1732730248.025996,-0.13,-0.32,-1.43,12,1,15,2,17760768,0,13
1732730382.3695676,0.0,True,-0.044675711542367935,-0.014719408936798573,2.716529369354248,22.81,53,15.024,0,0,False,,,,58,78,4,21,0.3504667580127716,155,86.385,,39.1423707,,-76.730472,False,0.8364342770000803,92.094,,39.1423757,,-76.7304638,4.899,,39.1423757,,-76.7304638,-2.0838961601257324,8.061635971069336,-27.22123146057129,value_here,POSCTL,,,,496,,ACTIVE,134.34357166290283,-0.12,-0.32,-1.44,12,1,15,2,17760768,0,13
1732730382.4697695,0.0,True,-0.04785754904150963,-0.016277866438031197,2.7182321548461914,22.81,53,15.024,0,0,False,,,,59,78,4,22,0.3520873188972473,155,86.385,,39.1423707,,-76.730472,False,0.9454270549995272,92.295,,39.1423758,,-76.7304638,5.1,,39.1423758,,-76.7304638,-2.259202480316162,8.061656951904297,-27.219684600830078,value_here,POSCTL,,,,496,,ACTIVE,1732730248.1261978,-0.12,-0.33,-1.49,12,1,15,2,17760768,0,13
1732730382.569868,0.0,True,-0.04855575039982796,-0.022274121642112732,2.721299171447754,22.81,53,15.024,0,0,False,,,,59,79,4,22,0.3520873188972473,155,86.385,,39.1423707,,-76.730472,False,0.03418186999988393,92.396,,39.1423757,,-76.7304638,5.201,,39.1423757,,-76.7304638,-2.4323697090148926,8.05270004272461,-27.222312927246094,value_here,POSCTL,,,,550,,ACTIVE,134.44367027282715,-0.12,-0.33,-1.54,12,1,15,2,17760768,0,13
1732730382.6701293,0.0,True,-0.04730707406997681,-0.027003195136785507,2.722784996032715,22.81,53,15.024,0,0,False,,,,58,78,4,21,0.3520873188972473,155,86.385,,39.1423707,,-76.730472,False,0.14073425900005532,92.618,,39.1423757,,-76.7304638,5.422,,39.1423757,,-76.7304638,-2.614763021469116,8.056356430053711,-27.220172882080078,value_here,POSCTL,,,,550,,ACTIVE,1732730248.226459,-0.13,-0.32,-1.62,12,1,15,2,17760768,0,13
1732730382.7709546,0.0,True,-0.0470174103975296,-0.024726059287786484,2.724562168121338,24.09,52,14.973,0,0,False,,,,59,78,4,21,0.3520873188972473,155,86.385,,39.1423707,,-76.730472,False,0.2443706479998582,92.726,,39.1423758,,-76.7304638,5.531,,39.1423758,,-76.7304638,-2.614763021469116,8.056356430053711,-27.220172882080078,value_here,POSCTL,,,,550,,ACTIVE,134.54449558258057,-0.13,-0.31,-1.66,12,1,15,2,17760768,0,13
1732730382.8704627,0.0,True,-0.046128664165735245,-0.021523144096136093,2.7260167598724365,24.09,52,14.973,0,0,False,,,,59,78,4,21,0.3486568033695221,156,86.385,,39.1423707,,-76.730472,False,0.33860581499993714,92.952,,39.1423757,,-76.7304638,5.757,,39.1423757,,-76.7304638,-2.8023407459259033,8.057433128356934,-27.222692489624023,value_here,POSCTL,,,,550,,ACTIVE,1732730248.325967,-0.14,-0.31,-1.74,12,1,15,2,17760768,0,13
1732730382.9705575,0.0,True,-0.04709945619106293,-0.018619466572999954,2.727778911590576,24.09,52,14.973,0,0,False,,,,59,78,4,22,0.3486568033695221,156,86.385,,39.1423707,,-76.730472,False,0.41139503700014757,93.077,,39.1423758,,-76.7304637,5.881,,39.1423758,,-76.7304637,-3.009204387664795,8.06607723236084,-27.21988296508789,value_here,POSCTL,,,,608,,ACTIVE,134.64459037780762,-0.13,-0.3,-1.78,12,1,15,2,17760768,0,13
1732730383.0707042,0.0,True,-0.04771197587251663,-0.015662068501114845,2.72982120513916,24.09,52,14.973,0,0,False,,,,59,78,4,22,0.3486568033695221,156,86.385,,39.1423707,,-76.730472,False,0.5374952029997075,93.317,,39.1423757,,-76.7304636,6.121,,39.1423757,,-76.7304636,-3.1967880725860596,8.07685375213623,-27.220062255859375,value_here,POSCTL,,,,608,,ACTIVE,1732730248.4261138,-0.15,-0.29,-1.85,12,1,15,2,17760768,0,13
1732730383.1708536,0.0,True,-0.045644912868738174,-0.014678406529128551,2.7317471504211426,24.09,52,14.973,0,0,False,,,,59,78,4,22,0.3333178758621216,156,86.385,,39.1423707,,-76.730472,False,0.6263288520003698,93.44,,39.1423757,,-76.7304636,6.245,,39.1423757,,-76.7304636,-3.4205851554870605,8.07592487335205,-27.225400924682617,value_here,POSCTL,,,,608,,ACTIVE,134.74473977088928,-0.16,-0.29,-1.89,12,1,15,2,17760768,0,13
1732730383.2711062,0.0,True,-0.04051107540726662,-0.015152852050960064,2.7335214614868164,24.09,52,14.973,0,0,False,,,,58,78,4,22,0.3333178758621216,156,86.385,,39.1423707,,-76.730472,False,0.7411338700003398,93.702,,39.1423757,,-76.7304635,6.506,,39.1423757,,-76.7304635,-3.6207199096679688,8.081381797790527,-27.228187561035156,value_here,POSCTL,,,,672,,ACTIVE,1732730248.5263665,-0.17,-0.29,-1.96,12,1,15,2,17760768,0,13
1732730383.3711605,0.0,True,-0.039313726127147675,-0.016994081437587738,2.7348761558532715,24.09,52,14.973,0,0,False,,,,58,78,4,22,0.3333178758621216,156,86.385,,39.1423707,,-76.730472,False,0.8267371660003846,93.825,,39.1423757,,-76.7304635,6.629,,39.1423757,,-76.7304635,-3.83541202545166,8.089113235473633,-27.230770111083984,value_here,POSCTL,,,,672,,ACTIVE,134.84479403495789,-0.17,-0.3,-1.99,12,1,15,2,17760768,0,13
1732730383.4712882,0.0,True,-0.038392599672079086,-0.01753270998597145,2.7363791465759277,24.91,51,14.916,0,0,False,,,,58,78,4,22,0.3333178758621216,156,87.195,,39.1423736,,-76.7304653,False,0.9396797219997097,93.969,,39.1423756,,-76.7304634,6.773,,39.1423756,,-76.7304634,-3.83541202545166,8.089113235473633,-27.230770111083984,value_here,POSCTL,,,,672,,ACTIVE,1732730248.6264942,-0.16,-0.3,-2.04,12,1,15,2,17760768,0,13
1732730383.5713584,0.0,True,-0.03715746849775314,-0.015404380857944489,2.7379631996154785,24.91,51,14.916,0,0,False,,,,58,78,4,22,0.343239426612854,156,87.195,,39.1423736,,-76.7304653,False,0.043501999999534746,94.24,,39.1423756,,-76.7304633,7.044,,39.1423756,,-76.7304633,-4.087924480438232,8.09261703491211,-27.23505401611328,value_here,POSCTL,,,,744,,ACTIVE,134.9448642730713,-0.16,-0.3,-2.12,12,1,15,2,17760768,0,13
1732730383.6715426,0.0,True,-0.039196908473968506,-0.01326976902782917,2.7388205528259277,24.91,51,14.916,0,0,False,,,,58,78,4,22,0.343239426612854,156,87.195,,39.1423736,,-76.7304653,False,0.13050931499947183,94.379,,39.1423757,,-76.7304632,7.184,,39.1423757,,-76.7304632,-4.3121490478515625,8.108977317810059,-27.231945037841797,value_here,POSCTL,,,,744,,ACTIVE,1732730248.7266784,-0.15,-0.3,-2.16,12,1,15,2,17760768,0,13
1732730383.7717626,0.0,True,-0.04067094996571541,-0.01339198648929596,2.7398569583892822,24.91,51,14.916,0,0,False,,,,58,78,4,22,0.343239426612854,156,87.195,,39.1423736,,-76.7304653,False,0.23170883399961895,94.66,,39.1423757,,-76.7304631,7.465,,39.1423757,,-76.7304631,-4.541177272796631,8.118575096130371,-27.23027801513672,value_here,POSCTL,,,,744,,ACTIVE,135.04508423805237,-0.15,-0.31,-2.26,12,1,15,2,17760768,0,13
1732730383.8718507,0.0,True,-0.04333256557583809,-0.015713335946202278,2.7405076026916504,24.91,51,14.916,0,0,False,,,,58,78,4,22,0.3652086853981018,157,87.195,,39.1423736,,-76.7304653,False,0.3390977409999323,94.814,,39.1423757,,-76.7304631,7.619,,39.1423757,,-76.7304631,-4.7936553955078125,8.123677253723145,-27.22915267944336,value_here,POSCTL,,,,744,,ACTIVE,1732730248.8267665,-0.15,-0.33,-2.31,12,1,15,2,17760768,0,13
1732730383.9720135,0.0,True,-0.04379713162779808,-0.017081480473279953,2.740861177444458,24.91,51,14.916,0,0,False,,,,58,78,4,22,0.3652086853981018,157,87.195,,39.1423736,,-76.7304653,False,0.4413533709994226,95.115,,39.1423757,,-76.730463,7.92,,39.1423757,,-76.730463,-5.034555435180664,8.127998352050781,-27.230709075927734,value_here,POSCTL,,,,822,,ACTIVE,135.14524698257446,-0.15,-0.33,-2.4,12,1,15,2,17760768,0,13
1732730384.0721915,0.0,True,-0.04407632723450661,-0.016881752759218216,2.7415099143981934,24.91,51,14.916,0,0,False,,,,58,78,4,22,0.3652086853981018,157,87.195,,39.1423736,,-76.7304653,False,0.5424276300000201,95.291,,39.1423757,,-76.7304629,8.095,,39.1423757,,-76.7304629,-5.294137001037598,8.13593578338623,-27.225013732910156,value_here,POSCTL,,,,822,,ACTIVE,1732730248.9269445,-0.14,-0.33,-2.46,12,1,15,2,17760768,0,13
1732730384.1723645,0.0,True,-0.044253770262002945,-0.017187586054205894,2.7422988414764404,26.41,50,14.847,0,0,False,,,,58,78,4,22,0.3652086853981018,157,87.195,,39.1423736,,-76.7304653,False,0.6459397779999563,95.608,,39.1423757,,-76.7304628,8.413,,39.1423757,,-76.7304628,-5.294137001037598,8.13593578338623,-27.225013732910156,value_here,POSCTL,,,,822,,ACTIVE,135.24541997909546,-0.14,-0.33,-2.55,12,1,15,2,17760768,0,13
1732730384.273246,0.0,True,-0.044982314109802246,-0.013049198314547539,2.742386817932129,26.41,50,14.847,0,0,False,,,,59,78,4,21,0.3688877522945404,157,87.195,,39.1423736,,-76.7304653,False,0.7482542959996863,95.773,,39.1423757,,-76.7304628,8.577,,39.1423757,,-76.7304628,-5.862014293670654,8.148796081542969,-27.218183517456055,value_here,POSCTL,,,,908,,ACTIVE,1732730249.027826,-0.14,-0.34,-2.61,12,1,15,2,17760768,0,13
1732730384.372617,0.0,True,-0.04619187116622925,-0.014512586407363415,2.7423243522644043,26.41,50,14.847,0,0,False,,,,59,78,4,21,0.3688877522945404,157,87.195,,39.1423736,,-76.7304653,False,0.842379943999731,96.098,,39.1423758,,-76.7304626,8.902,,39.1423758,,-76.7304626,-5.862014293670654,8.148796081542969,-27.218183517456055,value_here,POSCTL,,,,908,,ACTIVE,135.34479093551636,-0.13,-0.34,-2.69,12,1,15,2,17760768,0,13
1732730384.472779,0.0,True,-0.04978683218359947,-0.01479382999241352,2.743622303009033,26.41,50,14.847,0,0,False,,,,59,78,4,21,0.3688877522945404,157,87.195,,39.1423736,,-76.7304653,False,0.9185348330001943,96.274,,39.1423758,,-76.7304626,9.079,,39.1423758,,-76.7304626,-6.122366428375244,8.16467571258545,-27.209436416625977,value_here,POSCTL,,,,908,,ACTIVE,1732730249.127988,-0.13,-0.34,-2.7,12,1,15,2,17760768,0,13
1732730384.5728712,0.0,True,-0.05047338455915451,-0.014096090570092201,2.745967388153076,26.41,50,14.847,0,0,False,,,,59,78,4,22,0.362613707780838,157,87.195,,39.1423736,,-76.7304653,False,0.03802696200000355,96.599,,39.142376,,-76.7304625,9.403,,39.142376,,-76.7304625,-6.425786018371582,8.169282913208008,-27.2021427154541,value_here,POSCTL,,,,908,,ACTIVE,135.44488310813904,-0.13,-0.33,-2.67,12,1,15,2,17760768,0,13
