timestamp,airspeed,armed,attitude.pitch,attitude.roll,attitude.yaw,battery.current,battery.level,battery.voltage,commands.count,commands.next,ekf_ok,gimbal.pitch,gimbal.roll,gimbal.yaw,gps_0.eph,gps_0.epv,gps_0.fix_type,gps_0.satellites_visible,groundspeed,heading,home_location.alt,home_location.global_frame,home_location.lat,home_location.local_frame,home_location.lon,is_armable,last_heartbeat,location.global_frame.alt,location.global_frame.global_frame,location.global_frame.lat,location.global_frame.local_frame,location.global_frame.lon,location.global_relative_frame.alt,location.global_relative_frame.global_frame,location.global_relative_frame.lat,location.global_relative_frame.local_frame,location.global_relative_frame.lon,location.local_frame.down,location.local_frame.east,location.local_frame.north,ml_verdict,mode.name,mount_status[0],mount_status[1],mount_status[2],rangefinder.distance,rangefinder.voltage,system_status.state,timedelta,velocity[0],velocity[1],velocity[2],version.autopilot_type,version.major,version.minor,version.patch,version.raw_version,version.release,version.vehicle_type
1733609187.3905447,0.0,True,-0.00919805746525526,-0.020674634724855423,3.073096990585327,3.26,79,16.127,0,0,False,,,,84,135,4,17,0.049031369388103485,175,80.555,,39.142395,,-76.7304815,False,0.019154166000021178,81.145,,39.1423948,,-76.7304808,0.026,,39.1423948,,-76.7304808,8.364935874938965,7.0980987548828125,-21.36360740661621,unknown,POSCTL,,,,9,,ACTIVE,0,0.01,0.04,-0.17,12,1,15,2,17760768,0,13
1733609188.4048374,0.0,True,-0.008713222108781338,-0.01713796705007553,3.0753304958343506,3.57,78,16.092,0,0,False,,,,84,135,4,16,0.030456658452749252,176,81.118,,39.142395,,-76.7304809,False,0.030665721999980633,81.181,,39.1423945,,-76.7304808,0.062,,39.1423945,,-76.7304808,8.32996940612793,7.106895446777344,-21.398792266845703,unknown,POSCTL,,,,9,,ACTIVE,1733609188.4048374,0.02,0.03,-0.18,12,1,15,2,17760768,0,13
1733609188.5044632,0.0,True,-0.008784279227256775,-0.016840415075421333,3.0757219791412354,3.57,78,16.092,0,0,False,,,,84,135,4,16,0.020893478766083717,176,81.118,,39.142395,,-76.7304809,False,0.12938731500003087,81.186,,39.1423945,,-76.7304807,0.067,,39.1423945,,-76.7304807,8.324910163879395,7.107613563537598,-21.4007511138916,unknown,POSCTL,,,,9,,ACTIVE,0.09962582588195801,0.02,0.02,-0.18,12,1,15,2,17760768,0,13
1733609188.6045823,0.0,True,-0.008547469973564148,-0.01610833778977394,3.076392889022827,3.57,78,16.092,0,0,False,,,,84,135,4,16,0.020893478766083717,176,81.118,,39.142395,,-76.7304809,False,0.22304429600001185,81.19,,39.1423945,,-76.7304807,0.071,,39.1423945,,-76.7304807,8.324910163879395,7.107613563537598,-21.4007511138916,unknown,POSCTL,,,,9,,ACTIVE,1733609188.5049565,0.03,0.02,-0.17,12,1,15,2,17760768,0,13
1733609188.7047763,0.0,True,-0.007697450928390026,-0.015624857507646084,3.076385974884033,3.57,78,16.092,0,0,False,,,,84,135,4,16,0.020893478766083717,176,81.118,,39.142395,,-76.7304809,False,0.3289400740000019,81.192,,39.1423945,,-76.7304807,0.073,,39.1423945,,-76.7304807,8.319700241088867,7.1074748039245605,-21.401227951049805,unknown,POSCTL,,,,9,,ACTIVE,0.19981980323791504,0.03,0.0,-0.16,12,1,15,2,17760768,0,13
1733609188.8050642,0.0,True,-0.007514083292335272,-0.015910368412733078,3.0768814086914062,3.61,77,16.056,0,0,False,,,,84,135,4,16,0.03760974854230881,176,81.118,,39.142395,,-76.7304809,False,0.41844929599994884,81.195,,39.1423945,,-76.7304808,0.076,,39.1423945,,-76.7304808,8.317727088928223,7.106616497039795,-21.400697708129883,unknown,POSCTL,,,,9,,ACTIVE,1733609188.6052444,0.03,-0.01,-0.17,12,1,15,2,17760768,0,13
1733609188.9058921,0.0,True,-0.007349507417529821,-0.015371976420283318,3.0774893760681152,3.61,77,16.056,0,0,False,,,,84,135,4,16,0.03760974854230881,176,81.118,,39.142395,,-76.7304809,False,0.5314471289999574,81.197,,39.1423945,,-76.7304808,0.078,,39.1423945,,-76.7304808,8.314353942871094,7.105128765106201,-21.400663375854492,unknown,POSCTL,,,,9,,ACTIVE,0.3006477355957031,0.03,-0.02,-0.16,12,1,15,2,17760768,0,13
1733609189.005492,0.0,True,-0.007279105018824339,-0.015018445439636707,3.0775527954101562,3.61,77,16.056,0,0,False,,,,84,135,4,16,0.03760974854230881,176,81.118,,39.142395,,-76.7304809,False,0.6192755739999711,81.201,,39.1423945,,-76.7304808,0.082,,39.1423945,,-76.7304808,8.310311317443848,7.105242729187012,-21.4001407623291,unknown,POSCTL,,,,9,,ACTIVE,1733609188.7048442,0.04,-0.01,-0.16,12,1,15,2,17760768,0,13
1733609189.105608,0.0,True,-0.008300554007291794,-0.015097551979124546,3.0777459144592285,3.61,77,16.056,0,0,False,,,,84,135,4,16,0.03760974854230881,176,81.118,,39.142395,,-76.7304809,False,0.727328813999975,81.204,,39.1423945,,-76.7304808,0.086,,39.1423945,,-76.7304808,8.305431365966797,7.104766845703125,-21.4000244140625,unknown,POSCTL,,,,9,,ACTIVE,0.40076375007629395,0.03,-0.03,-0.16,12,1,15,2,17760768,0,13
1733609189.2057772,0.0,True,-0.007029275875538588,-0.014527232386171818,3.0779690742492676,3.61,77,16.056,0,0,False,,,,84,135,4,16,0.032839611172676086,176,81.118,,39.142395,,-76.7304809,False,0.8260696480000433,81.209,,39.1423945,,-76.7304808,0.09,,39.1423945,,-76.7304808,8.302452087402344,7.103817939758301,-21.40190887451172,unknown,POSCTL,,,,9,,ACTIVE,1733609188.8050134,0.02,-0.04,-0.16,12,1,15,2,17760768,0,13
1733609189.3068671,0.0,True,-0.008252700790762901,-0.014158773235976696,3.0777406692504883,3.61,77,16.056,0,0,False,,,,84,135,4,16,0.032839611172676086,176,81.118,,39.142395,,-76.7304809,False,0.9322747590000517,81.208,,39.1423945,,-76.7304808,0.09,,39.1423945,,-76.7304808,8.302319526672363,7.102174758911133,-21.40723991394043,unknown,POSCTL,,,,9,,ACTIVE,0.5018537044525146,0.01,-0.03,-0.15,12,1,15,2,17760768,0,13
1733609189.4064448,0.0,True,-0.007437093649059534,-0.014341012574732304,3.0787582397460938,3.61,77,16.056,0,0,False,,,,84,135,4,16,0.032839611172676086,176,81.118,,39.142395,,-76.7304809,False,0.03453709200005051,81.209,,39.1423944,,-76.7304808,0.091,,39.1423944,,-76.7304808,8.302319526672363,7.102174758911133,-21.40723991394043,unknown,POSCTL,,,,9,,ACTIVE,1733609188.904591,0.01,-0.05,-0.15,12,1,15,2,17760768,0,13
1733609189.5075507,0.0,True,-0.007855338975787163,-0.01392387505620718,3.078439950942993,3.48,76,16.043,0,0,False,,,,84,135,4,16,0.042870670557022095,176,81.118,,39.142395,,-76.7304809,False,0.13582083300002523,81.212,,39.1423944,,-76.7304808,0.094,,39.1423944,,-76.7304808,8.300702095031738,7.100275039672852,-21.41025161743164,unknown,POSCTL,,,,9,,ACTIVE,0.6029596328735352,0.01,-0.04,-0.15,12,1,15,2,17760768,0,13
1733609189.606716,0.0,True,-0.008355915546417236,-0.014207021333277225,3.077714443206787,3.48,76,16.043,0,0,False,,,,84,135,4,16,0.042870670557022095,176,81.118,,39.142395,,-76.7304809,False,0.23182946200006427,81.211,,39.1423944,,-76.7304808,0.092,,39.1423944,,-76.7304808,8.299729347229004,7.099204063415527,-21.41314125061035,unknown,POSCTL,,,,9,,ACTIVE,1733609189.0037563,0.01,-0.05,-0.13,12,1,15,2,17760768,0,13
1733609189.7069943,0.0,True,-0.008341248147189617,-0.013891307637095451,3.077819585800171,3.48,76,16.043,0,0,False,,,,84,135,4,16,0.042870670557022095,176,81.118,,39.142395,,-76.7304809,False,0.3069702770000049,81.209,,39.1423943,,-76.7304808,0.091,,39.1423943,,-76.7304808,8.30179214477539,7.098433971405029,-21.417404174804688,unknown,POSCTL,,,,9,,ACTIVE,0.7032380104064941,0.0,-0.03,-0.14,12,1,15,2,17760768,0,13
1733609189.807186,0.0,True,-0.008445221930742264,-0.01351215410977602,3.078200578689575,3.48,76,16.043,0,0,False,,,,84,135,4,16,0.0496208518743515,176,81.118,,39.142395,,-76.7304809,False,0.4322931840000592,81.205,,39.1423943,,-76.7304808,0.086,,39.1423943,,-76.7304808,8.307355880737305,7.099738597869873,-21.42161750793457,unknown,POSCTL,,,,9,,ACTIVE,1733609189.1039479,0.01,-0.04,-0.14,12,1,15,2,17760768,0,13
1733609189.9074228,0.0,True,-0.008424581959843636,-0.013409489765763283,3.078129768371582,3.48,76,16.043,0,0,False,,,,84,135,4,16,0.0496208518743515,176,81.118,,39.142395,,-76.7304809,False,0.513726555000062,81.202,,39.1423943,,-76.7304808,0.083,,39.1423943,,-76.7304808,8.309897422790527,7.101489067077637,-21.42512321472168,unknown,POSCTL,,,,9,,ACTIVE,0.8034749031066895,0.0,-0.03,-0.14,12,1,15,2,17760768,0,13
1733609190.0075243,0.0,True,-0.007902911864221096,-0.013049484230577946,3.078252077102661,3.48,76,16.043,0,0,False,,,,84,135,4,16,0.0496208518743515,176,81.118,,39.142395,,-76.7304809,False,0.6341536659999747,81.204,,39.1423943,,-76.7304808,0.085,,39.1423943,,-76.7304808,8.30626106262207,7.100989818572998,-21.426633834838867,unknown,POSCTL,,,,9,,ACTIVE,1733609189.2040493,0.01,-0.06,-0.14,12,1,15,2,17760768,0,13
1733609190.1077466,0.0,True,-0.008208717219531536,-0.012971052899956703,3.078834056854248,3.48,76,16.043,0,0,False,,,,84,135,4,16,0.0496208518743515,176,81.118,,39.142395,,-76.7304809,False,0.7303841469999952,81.204,,39.1423942,,-76.7304808,0.086,,39.1423942,,-76.7304808,8.30808162689209,7.100656032562256,-21.4299259185791,unknown,POSCTL,,,,9,,ACTIVE,0.9036972522735596,0.0,-0.04,-0.14,12,1,15,2,17760768,0,13
1733609190.2089927,0.0,True,-0.007813025265932083,-0.012570580467581749,3.0794577598571777,3.5,76,16.035,0,0,False,,,,84,135,4,16,0.08315932750701904,176,81.118,,39.142395,,-76.7304809,False,0.8372885730000235,81.204,,39.1423942,,-76.7304808,0.085,,39.1423942,,-76.7304808,8.30808162689209,7.100656032562256,-21.4299259185791,unknown,POSCTL,,,,9,,ACTIVE,1733609189.3052955,0.0,-0.08,-0.14,12,1,15,2,17760768,0,13
1733609190.3080497,0.0,True,-0.007378238253295422,-0.012235741131007671,3.079824209213257,3.5,76,16.035,0,0,False,,,,84,135,4,16,0.08315932750701904,176,81.118,,39.142395,,-76.7304809,False,0.9254214989999809,81.205,,39.1423942,,-76.7304809,0.087,,39.1423942,,-76.7304809,8.305737495422363,7.09836483001709,-21.43259048461914,unknown,POSCTL,,,,9,,ACTIVE,1.0027542114257812,0.01,-0.06,-0.16,12,1,15,2,17760768,0,13
1733609190.4092321,0.0,True,-0.007350123021751642,-0.012015816755592823,3.080044984817505,3.5,76,16.035,0,0,False,,,,84,135,4,16,0.08315932750701904,176,81.118,,39.142395,,-76.7304809,False,0.04035488899990014,81.207,,39.1423942,,-76.7304809,0.088,,39.1423942,,-76.7304809,8.304535865783691,7.096092700958252,-21.433988571166992,unknown,POSCTL,,,,9,,ACTIVE,1733609189.406478,0.01,-0.08,-0.16,12,1,15,2,17760768,0,13
1733609190.5091724,0.0,True,-0.007265978958457708,-0.01171934138983488,3.0809695720672607,3.5,76,16.035,0,0,False,,,,84,135,4,16,0.08591686934232712,176,81.118,,39.142395,,-76.7304809,False,0.14029790699999012,81.206,,39.1423942,,-76.7304809,0.088,,39.1423942,,-76.7304809,8.304924964904785,7.096224308013916,-21.43577003479004,unknown,POSCTL,,,,9,,ACTIVE,1.1026945114135742,0.02,-0.06,-0.17,12,1,15,2,17760768,0,13
1733609190.6085117,0.0,True,-0.00713814701884985,-0.011777626350522041,3.080569267272949,3.5,76,16.035,0,0,False,,,,84,135,4,16,0.08591686934232712,176,81.118,,39.142395,,-76.7304809,False,0.23643394399994122,81.207,,39.1423942,,-76.7304808,0.088,,39.1423942,,-76.7304808,8.30395221710205,7.097583293914795,-21.43305015563965,unknown,POSCTL,,,,9,,ACTIVE,1733609189.5058172,0.02,-0.09,-0.16,12,1,15,2,17760768,0,13
1733609190.708661,0.0,True,-0.0076979584991931915,-0.011590653099119663,3.081228494644165,3.5,76,16.035,0,0,False,,,,84,135,4,16,0.08591686934232712,176,81.118,,39.142395,,-76.7304809,False,0.3204536289999851,81.211,,39.1423942,,-76.7304808,0.092,,39.1423942,,-76.7304808,8.30074691772461,7.097954750061035,-21.43277931213379,unknown,POSCTL,,,,9,,ACTIVE,1.2028439044952393,0.03,-0.09,-0.17,12,1,15,2,17760768,0,13
1733609190.8091288,0.0,True,-0.007777669932693243,-0.0115708252415061,3.0815751552581787,3.57,75,16.019,0,0,False,,,,84,136,4,16,0.08591686934232712,176,81.118,,39.142395,,-76.7304809,False,0.4391331109999328,81.211,,39.1423942,,-76.7304808,0.093,,39.1423942,,-76.7304808,8.298418045043945,7.100034713745117,-21.432838439941406,unknown,POSCTL,,,,9,,ACTIVE,1733609189.6062849,0.03,-0.09,-0.17,12,1,15,2,17760768,0,13
1733609190.9092782,0.0,True,-0.00781609583646059,-0.011566543951630592,3.0817272663116455,3.57,75,16.019,0,0,False,,,,84,136,4,16,0.08224132657051086,176,81.118,,39.142395,,-76.7304809,False,0.5335380550000082,81.209,,39.1423942,,-76.7304808,0.091,,39.1423942,,-76.7304808,8.300515174865723,7.100344181060791,-21.433040618896484,unknown,POSCTL,,,,9,,ACTIVE,1.3029932975769043,0.04,-0.1,-0.17,12,1,15,2,17760768,0,13
1733609191.0101955,0.0,True,-0.00805578287690878,-0.010959711857140064,3.0822739601135254,3.57,75,16.019,0,0,False,,,,84,136,4,16,0.08224132657051086,176,81.118,,39.142395,,-76.7304809,False,0.6413271479999594,81.214,,39.1423942,,-76.7304808,0.095,,39.1423942,,-76.7304808,8.300515174865723,7.100344181060791,-21.433040618896484,unknown,POSCTL,,,,9,,ACTIVE,1733609189.7072022,0.04,-0.07,-0.16,12,1,15,2,17760768,0,13
1733609191.109867,0.0,True,-0.007544793654233217,-0.010978024452924728,3.081298351287842,3.57,75,16.019,0,0,False,,,,84,136,4,16,0.08224132657051086,176,81.118,,39.142395,,-76.7304809,False,0.7329986849999841,81.22,,39.1423942,,-76.7304809,0.101,,39.1423942,,-76.7304809,8.29404067993164,7.096923351287842,-21.432241439819336,unknown,POSCTL,,,,9,,ACTIVE,1.4026648998260498,0.03,-0.09,-0.15,12,1,15,2,17760768,0,13
1733609191.2097538,0.0,True,-0.00727245444431901,-0.011115706525743008,3.082832098007202,3.57,75,16.019,0,0,False,,,,84,136,4,16,0.11447747051715851,176,81.118,,39.142395,,-76.7304809,False,0.8225887029999512,81.219,,39.1423942,,-76.7304809,0.101,,39.1423942,,-76.7304809,8.292170524597168,7.095653057098389,-21.432479858398438,unknown,POSCTL,,,,9,,ACTIVE,1733609189.8070889,0.03,-0.1,-0.16,12,1,15,2,17760768,0,13
1733609191.3099852,0.0,True,-0.005915292073041201,-0.0110476640984416,3.082794189453125,3.57,75,16.019,0,0,False,,,,84,136,4,16,0.11447747051715851,176,81.118,,39.142395,,-76.7304809,False,0.9379466479999792,81.218,,39.1423942,,-76.7304809,0.099,,39.1423942,,-76.7304809,8.293564796447754,7.09544563293457,-21.43227767944336,unknown,POSCTL,,,,9,,ACTIVE,1.5028963088989258,0.04,-0.11,-0.15,12,1,15,2,17760768,0,13
1733609191.4101486,0.0,True,-0.005082621239125729,-0.011203067377209663,3.0829203128814697,3.57,75,16.019,0,0,False,,,,84,136,4,17,0.11447747051715851,176,81.118,,39.142395,,-76.7304809,False,0.005139314999951239,81.216,,39.1423942,,-76.7304809,0.097,,39.1423942,,-76.7304809,8.295685768127441,7.0963945388793945,-21.431716918945312,unknown,POSCTL,,,,9,,ACTIVE,1733609189.9072523,0.03,-0.1,-0.15,12,1,15,2,17760768,0,13
1733609191.5112216,0.0,True,-0.004602463450282812,-0.011580592952668667,3.083134889602661,7.84,73,15.882,0,0,False,,,,84,136,4,16,0.11447747051715851,176,81.118,,39.142395,,-76.7304809,False,0.11417159199993421,81.217,,39.1423942,,-76.7304809,0.0,,39.1423942,,-76.7304809,8.294530868530273,7.0953521728515625,-21.431203842163086,unknown,POSCTL,,,,9,,ACTIVE,1.6039693355560303,0.04,-0.11,-0.15,12,1,15,2,17760768,0,13
1733609191.6105156,0.0,True,-0.005400667432695627,-0.012051264755427837,3.0831849575042725,7.84,73,15.882,0,0,False,,,,84,136,4,16,0.1224433034658432,176,81.118,,39.142395,,-76.7304809,False,0.20395216599990817,81.219,,39.1423942,,-76.7304809,0.001,,39.1423942,,-76.7304809,8.292853355407715,7.094235897064209,-21.42915153503418,unknown,POSCTL,,,,9,,ACTIVE,1733609190.0065463,0.05,-0.11,-0.15,12,1,15,2,17760768,0,13
1733609191.7107682,0.0,True,-0.006598928943276405,-0.011427276767790318,3.0839755535125732,7.84,73,15.882,0,0,False,,,,84,136,4,16,0.1224433034658432,176,81.118,,39.142395,,-76.7304809,False,0.3070071659999485,81.219,,39.1423942,,-76.7304809,0.002,,39.1423942,,-76.7304809,8.291215896606445,7.0927205085754395,-21.4273681640625,unknown,POSCTL,,,,9,,ACTIVE,1.7042219638824463,0.05,-0.11,-0.15,12,1,15,2,17760768,0,13
1733609191.8109372,0.0,True,-0.006311309523880482,-0.011032498441636562,3.0844366550445557,7.84,73,15.882,0,0,False,,,,84,136,4,16,0.1224433034658432,176,81.118,,39.142395,,-76.7304809,False,0.41034959199998866,81.222,,39.1423943,,-76.7304809,0.004,,39.1423943,,-76.7304809,8.291215896606445,7.0927205085754395,-21.4273681640625,unknown,POSCTL,,,,9,,ACTIVE,1733609190.1067152,0.06,-0.11,-0.15,12,1,15,2,17760768,0,13
1733609191.911425,0.0,True,-0.005871233996003866,-0.010719012469053268,3.0838024616241455,7.84,73,15.882,0,0,False,,,,84,136,4,16,0.15049095451831818,176,81.118,,39.142395,,-76.7304809,False,0.5136116289999109,81.223,,39.1423943,,-76.7304809,0.005,,39.1423943,,-76.7304809,8.288827896118164,7.092634201049805,-21.424436569213867,unknown,POSCTL,,,,9,,ACTIVE,1.8047099113464355,0.08,-0.12,-0.15,12,1,15,2,17760768,0,13
1733609192.011529,0.0,True,-0.00724835554137826,-0.010940893553197384,3.08454966545105,7.84,73,15.882,0,0,False,,,,84,136,4,16,0.15049095451831818,176,81.118,,39.142395,,-76.7304809,False,0.5966783139999734,81.232,,39.1423943,,-76.730481,0.015,,39.1423943,,-76.730481,8.283169746398926,7.089361190795898,-21.420307159423828,unknown,POSCTL,,,,9,,ACTIVE,1733609190.206819,0.07,-0.12,-0.17,12,1,15,2,17760768,0,13
1733609192.11187,0.0,True,-0.007175462786108255,-0.011336139403283596,3.083935022354126,7.84,73,15.882,0,0,False,,,,84,136,4,16,0.15049095451831818,176,81.118,,39.142395,,-76.7304809,False,0.6850603699999738,81.232,,39.1423943,,-76.730481,0.015,,39.1423943,,-76.730481,8.279552459716797,7.088734149932861,-21.416955947875977,unknown,POSCTL,,,,9,,ACTIVE,1.9050509929656982,0.07,-0.12,-0.17,12,1,15,2,17760768,0,13
1733609192.2127838,0.0,True,-0.0071878740563988686,-0.01206525694578886,3.0833795070648193,11.97,71,15.723,0,0,False,,,,84,136,4,16,0.13378137350082397,176,81.118,,39.142395,,-76.7304809,False,0.816247313999952,81.231,,39.1423943,,-76.7304809,0.014,,39.1423943,,-76.7304809,8.279794692993164,7.093181610107422,-21.417675018310547,unknown,POSCTL,,,,9,,ACTIVE,1733609190.3077328,0.07,-0.11,-0.17,12,1,15,2,17760768,0,13
1733609192.3121097,0.0,True,-0.00839680153876543,-0.013760899193584919,3.0819129943847656,11.97,71,15.723,0,0,False,,,,84,136,4,16,0.13378137350082397,176,81.118,,39.142395,,-76.7304809,False,0.8903127959999892,81.235,,39.1423943,,-76.7304809,0.018,,39.1423943,,-76.7304809,8.274879455566406,7.094174861907959,-21.41579246520996,unknown,POSCTL,,,,9,,ACTIVE,2.0043768882751465,0.07,-0.11,-0.18,12,1,15,2,17760768,0,13
1733609192.412506,0.0,True,-0.009950093924999237,-0.021051399409770966,3.076589584350586,11.97,71,15.723,0,0,False,,,,84,136,4,16,0.13378137350082397,176,81.118,,39.142395,,-76.7304809,False,0.03229146299997865,81.253,,39.1423944,,-76.7304809,0.036,,39.1423944,,-76.7304809,8.259549140930176,7.0924787521362305,-21.411975860595703,unknown,POSCTL,,,,9,,ACTIVE,1733609190.4081292,0.06,-0.1,-0.27,12,1,15,2,17760768,0,13
1733609192.5125155,0.0,True,-0.012295129708945751,-0.029764657840132713,3.060123920440674,11.97,71,15.723,0,0,False,,,,84,136,4,16,0.13378137350082397,176,81.118,,39.142395,,-76.7304809,False,0.12624103699999978,81.267,,39.1423944,,-76.7304809,0.049,,39.1423944,,-76.7304809,8.238452911376953,7.0965752601623535,-21.41330909729004,unknown,POSCTL,,,,9,,ACTIVE,2.104386329650879,0.06,-0.1,-0.36,12,1,15,2,17760768,0,13
1733609192.6126256,0.0,True,-0.014340529218316078,-0.033330731093883514,3.0384838581085205,11.97,71,15.723,0,0,False,,,,84,136,4,16,0.12731260061264038,174,81.118,,39.142395,,-76.7304809,False,0.23786713000004056,81.307,,39.1423943,,-76.7304808,0.09,,39.1423943,,-76.7304808,8.238452911376953,7.0965752601623535,-21.41330909729004,unknown,POSCTL,,,,14,,ACTIVE,1733609190.5082393,0.04,-0.11,-0.59,12,1,15,2,17760768,0,13
1733609192.7126293,0.0,True,-0.011842387728393078,-0.03598697483539581,3.0112085342407227,11.97,71,15.723,0,0,False,,,,84,136,4,16,0.12731260061264038,174,81.118,,39.142395,,-76.7304809,False,0.32592350000004444,81.34,,39.1423943,,-76.7304808,0.122,,39.1423943,,-76.7304808,8.199748039245605,7.099696159362793,-21.41724967956543,unknown,POSCTL,,,,14,,ACTIVE,2.204390048980713,0.02,-0.12,-0.71,12,1,15,2,17760768,0,13
1733609192.8128774,0.0,True,-0.0019416812574490905,-0.03805609419941902,2.9858767986297607,11.97,71,15.723,0,0,False,,,,84,136,4,16,0.12731260061264038,174,81.118,,39.142395,,-76.7304809,False,0.43713361100003567,81.381,,39.1423943,,-76.7304808,0.164,,39.1423943,,-76.7304808,8.13047981262207,7.102680683135986,-21.424652099609375,unknown,POSCTL,,,,14,,ACTIVE,1733609190.6084874,0.01,-0.11,-0.84,12,1,15,2,17760768,0,13
1733609192.9131415,0.0,True,0.005375200882554054,-0.033801112323999405,2.960115909576416,24.19,65,15.312,0,0,False,,,,84,136,4,16,0.10865488648414612,169,81.118,,39.142395,,-76.7304809,False,0.5358432780000157,81.504,,39.1423942,,-76.7304808,0.287,,39.1423942,,-76.7304808,8.04397201538086,7.105038642883301,-21.43276023864746,unknown,POSCTL,,,,35,,ACTIVE,2.304654121398926,0.01,-0.1,-1.14,12,1,15,2,17760768,0,13
1733609193.0130546,0.0,True,-0.0003024375473614782,-0.025292865931987762,2.9387168884277344,24.19,65,15.312,0,0,False,,,,84,136,4,16,0.10865488648414612,169,81.118,,39.142395,,-76.7304809,False,0.6339067410000325,81.58,,39.1423941,,-76.7304807,0.363,,39.1423941,,-76.7304807,7.919307231903076,7.1074957847595215,-21.439924240112305,unknown,POSCTL,,,,35,,ACTIVE,1733609190.7084005,0.01,-0.11,-1.25,12,1,15,2,17760768,0,13
1733609193.1133595,0.0,True,-0.001255708746612072,-0.026323659345507622,2.923720359802246,24.19,65,15.312,0,0,False,,,,84,136,4,16,0.10865488648414612,169,81.118,,39.142395,,-76.7304809,False,0.7372307589999991,81.738,,39.1423941,,-76.7304807,0.521,,39.1423941,,-76.7304807,7.800424098968506,7.110321521759033,-21.44872283935547,unknown,POSCTL,,,,35,,ACTIVE,2.404958963394165,0.02,-0.11,-1.37,12,1,15,2,17760768,0,13
1733609193.2136014,0.0,True,-0.0047877393662929535,-0.02624557726085186,2.9167943000793457,24.19,65,15.312,0,0,False,,,,84,136,4,16,0.10865488648414612,169,81.118,,39.142395,,-76.7304809,False,0.839019889000042,81.816,,39.142394,,-76.7304807,0.599,,39.142394,,-76.7304807,7.643513202667236,7.114929676055908,-21.45745849609375,unknown,POSCTL,,,,72,,ACTIVE,1733609190.8086424,0.01,-0.11,-1.38,12,1,15,2,17760768,0,13
1733609193.3144038,0.0,True,-0.006060481071472168,-0.025465352460741997,2.9103612899780273,24.19,65,15.312,0,0,False,,,,84,136,4,16,0.12033157050609589,166,81.118,,39.142395,,-76.7304809,False,0.9414044810000632,81.991,,39.1423939,,-76.7304806,0.774,,39.1423939,,-76.7304806,7.494124889373779,7.119565963745117,-21.467506408691406,unknown,POSCTL,,,,72,,ACTIVE,2.5057613849639893,0.0,-0.12,-1.41,12,1,15,2,17760768,0,13
1733609193.4137702,0.0,True,-0.007147092372179031,-0.024319350719451904,2.9095308780670166,24.19,65,15.312,0,0,False,,,,84,136,4,16,0.12033157050609589,166,81.118,,39.142395,,-76.7304809,False,0.03953085099999498,82.077,,39.1423938,,-76.7304806,0.86,,39.1423938,,-76.7304806,7.494124889373779,7.119565963745117,-21.467506408691406,unknown,POSCTL,,,,72,,ACTIVE,1733609190.9080088,0.0,-0.13,-1.41,12,1,15,2,17760768,0,13
1733609193.5139275,0.0,True,-0.005640986375510693,-0.022145455703139305,2.912994623184204,24.19,65,15.312,0,0,False,,,,84,136,4,16,0.12033157050609589,166,81.118,,39.142395,,-76.7304809,False,0.13068338799996582,82.252,,39.1423937,,-76.7304806,1.035,,39.1423937,,-76.7304806,7.374139785766602,7.1227569580078125,-21.476993560791016,unknown,POSCTL,,,,72,,ACTIVE,2.6059186458587646,0.0,-0.13,-1.41,12,1,15,2,17760768,0,13
1733609193.6140304,0.0,True,-0.0008586297044530511,-0.023937350139021873,2.9187657833099365,24.16,60,15.175,0,0,False,,,,84,136,4,17,0.1425054371356964,167,81.118,,39.142395,,-76.7304809,False,0.22352605499997935,82.334,,39.1423937,,-76.7304806,1.117,,39.1423937,,-76.7304806,7.218245983123779,7.122653484344482,-21.48896026611328,unknown,POSCTL,,,,113,,ACTIVE,1733609191.0081117,0.0,-0.14,-1.4,12,1,15,2,17760768,0,13
1733609193.7140186,0.0,True,0.005239806603640318,-0.028341472148895264,2.926326274871826,24.16,60,15.175,0,0,False,,,,84,136,4,17,0.1425054371356964,167,81.118,,39.142395,,-76.7304809,False,0.33351820299992596,82.503,,39.1423935,,-76.7304805,1.286,,39.1423935,,-76.7304805,7.0766987800598145,7.128530025482178,-21.503957748413086,unknown,POSCTL,,,,113,,ACTIVE,2.705906867980957,0.0,-0.14,-1.41,12,1,15,2,17760768,0,13
1733609193.8143094,0.0,True,0.009880291298031807,-0.029902080073952675,2.9352288246154785,24.16,60,15.175,0,0,False,,,,84,136,4,17,0.1425054371356964,167,81.118,,39.142395,,-76.7304809,False,0.4206033140000045,82.587,,39.1423934,,-76.7304805,1.37,,39.1423934,,-76.7304805,6.939172267913818,7.128686428070068,-21.516672134399414,unknown,POSCTL,,,,113,,ACTIVE,1733609191.1084025,0.0,-0.14,-1.41,12,1,15,2,17760768,0,13
1733609193.914793,0.0,True,0.010340575128793716,-0.029190614819526672,2.944960117340088,24.16,60,15.175,0,0,False,,,,75,125,4,17,0.14465194940567017,168,81.118,,39.142395,,-76.7304809,False,0.5398571839999704,82.669,,39.1423934,,-76.7304805,1.452,,39.1423934,,-76.7304805,6.78884744644165,7.127925872802734,-21.527847290039062,unknown,POSCTL,,,,155,,ACTIVE,2.8063905239105225,0.0,-0.14,-1.4,12,1,15,2,17760768,0,13
1733609194.0145628,0.0,True,0.014964575879275799,-0.031098641455173492,2.954735040664673,24.16,60,15.175,0,0,False,,,,75,125,4,17,0.14465194940567017,168,81.118,,39.142395,,-76.7304809,False,0.6296934439999404,82.849,,39.1423933,,-76.7304805,1.631,,39.1423933,,-76.7304805,6.649036884307861,7.129261016845703,-21.535757064819336,unknown,POSCTL,,,,155,,ACTIVE,1733609191.2081723,0.02,-0.15,-1.44,12,1,15,2,17760768,0,13
1733609194.1158464,0.0,True,0.01277864258736372,-0.031170900911092758,2.9634270668029785,24.16,60,15.175,0,0,False,,,,75,125,4,17,0.14465194940567017,168,81.118,,39.142395,,-76.7304809,False,0.7441521099999591,82.934,,39.1423932,,-76.7304805,1.717,,39.1423932,,-76.7304805,6.492033004760742,7.129262924194336,-21.53993034362793,unknown,POSCTL,,,,155,,ACTIVE,2.9076740741729736,0.02,-0.15,-1.44,12,1,15,2,17760768,0,13
1733609194.2156694,0.0,True,0.007334633730351925,-0.029142428189516068,2.972336769104004,24.16,60,15.175,0,0,False,,,,75,125,4,17,0.14465194940567017,168,81.118,,39.142395,,-76.7304809,False,0.8439888689999862,83.118,,39.1423932,,-76.7304805,1.901,,39.1423932,,-76.7304805,6.346438884735107,7.127093315124512,-21.53936195373535,unknown,POSCTL,,,,155,,ACTIVE,1733609191.3079953,0.04,-0.15,-1.45,12,1,15,2,17760768,0,13
1733609194.3151643,0.0,True,0.005992685444653034,-0.027697894722223282,2.9803452491760254,24.16,56,15.071,0,0,False,,,,75,125,4,17,0.1675853133201599,170,81.118,,39.142395,,-76.7304809,False,0.9381308319999562,83.208,,39.1423932,,-76.7304805,1.991,,39.1423932,,-76.7304805,6.346438884735107,7.127093315124512,-21.53936195373535,unknown,POSCTL,,,,200,,ACTIVE,3.007169008255005,0.05,-0.15,-1.45,12,1,15,2,17760768,0,13
1733609194.4151769,0.0,True,0.004587501287460327,-0.028775300830602646,2.9876790046691895,24.16,56,15.071,0,0,False,,,,75,125,4,17,0.1675853133201599,170,81.118,,39.142395,,-76.7304809,False,0.04098574100009955,83.389,,39.1423933,,-76.7304805,2.172,,39.1423933,,-76.7304805,6.201476573944092,7.129748821258545,-21.539066314697266,unknown,POSCTL,,,,200,,ACTIVE,1733609191.4080079,0.07,-0.15,-1.46,12,1,15,2,17760768,0,13
1733609194.5153139,0.0,True,0.0018541591707617044,-0.028577374294400215,2.9919567108154297,24.16,56,15.071,0,0,False,,,,75,125,4,17,0.1675853133201599,170,81.118,,39.142395,,-76.7304809,False,0.12684401800004252,83.479,,39.1423933,,-76.7304805,2.262,,39.1423933,,-76.7304805,6.031928062438965,7.130216598510742,-21.53401756286621,unknown,POSCTL,,,,200,,ACTIVE,3.1073060035705566,0.08,-0.15,-1.47,12,1,15,2,17760768,0,13
1733609194.615658,0.0,True,-0.0011126002063974738,-0.029424654319882393,2.997400999069214,24.16,56,15.071,0,0,False,,,,75,125,4,17,0.18218402564525604,171,81.118,,39.142395,,-76.7304809,False,0.24136359200008428,83.67,,39.1423933,,-76.7304803,2.453,,39.1423933,,-76.7304803,5.891181468963623,7.1391730308532715,-21.530759811401367,unknown,POSCTL,,,,245,,ACTIVE,1733609191.508352,0.09,-0.15,-1.47,12,1,15,2,17760768,0,13
1733609194.7154784,0.0,True,-0.005278696306049824,-0.027423448860645294,3.0018270015716553,24.16,56,15.071,0,0,False,,,,75,125,4,17,0.18218402564525604,171,81.217,,39.1423942,,-76.7304809,False,0.31386966600007327,83.768,,39.1423934,,-76.7304803,2.551,,39.1423934,,-76.7304803,5.7304816246032715,7.147913932800293,-21.52515411376953,unknown,POSCTL,,,,245,,ACTIVE,3.2071263790130615,0.09,-0.14,-1.46,12,1,15,2,17760768,0,13
1733609194.816312,0.0,True,-0.005477078724652529,-0.022805221378803253,3.0054736137390137,24.16,56,15.071,0,0,False,,,,75,125,4,17,0.18218402564525604,171,81.217,,39.1423942,,-76.7304809,False,0.44448929600002884,83.968,,39.1423934,,-76.7304802,2.751,,39.1423934,,-76.7304802,5.558035373687744,7.152734279632568,-21.51727867126465,unknown,POSCTL,,,,245,,ACTIVE,1733609191.6091857,0.08,-0.14,-1.47,12,1,15,2,17760768,0,13
1733609194.9164348,0.0,True,-0.001708240364678204,-0.02586076781153679,3.0087943077087402,23.89,53,15.004,0,0,False,,,,75,125,4,17,0.18218402564525604,171,81.217,,39.1423942,,-76.7304809,False,0.5438158700000031,84.057,,39.1423935,,-76.7304802,2.84,,39.1423935,,-76.7304802,5.397668361663818,7.156891345977783,-21.510696411132812,unknown,POSCTL,,,,245,,ACTIVE,3.307249069213867,0.09,-0.14,-1.47,12,1,15,2,17760768,0,13
1733609195.0173542,0.0,True,-0.0024896522518247366,-0.025542574003338814,3.011887788772583,23.89,53,15.004,0,0,False,,,,75,125,4,17,0.1683865785598755,172,81.217,,39.1423942,,-76.7304809,False,0.6467157400001042,84.261,,39.1423936,,-76.7304801,3.044,,39.1423936,,-76.7304801,5.235121250152588,7.16287899017334,-21.504554748535156,unknown,POSCTL,,,,291,,ACTIVE,1733609191.7101052,0.07,-0.13,-1.47,12,1,15,2,17760768,0,13
1733609195.1166377,0.0,True,-0.002445555292069912,-0.023715905845165253,3.015139102935791,23.89,53,15.004,0,0,False,,,,75,125,4,17,0.1683865785598755,172,81.217,,39.1423942,,-76.7304809,False,0.7266714070000262,84.347,,39.1423936,,-76.7304801,3.13,,39.1423936,,-76.7304801,5.235121250152588,7.16287899017334,-21.504554748535156,unknown,POSCTL,,,,291,,ACTIVE,3.4065325260162354,0.07,-0.13,-1.48,12,1,15,2,17760768,0,13
1733609195.2166512,0.0,True,-0.002662752056494355,-0.022129742428660393,3.017827272415161,23.89,53,15.004,0,0,False,,,,75,125,4,17,0.1683865785598755,172,81.217,,39.1423942,,-76.7304809,False,0.842899796000097,84.546,,39.1423937,,-76.7304799,3.329,,39.1423937,,-76.7304799,5.066146373748779,7.174245357513428,-21.49798011779785,unknown,POSCTL,,,,291,,ACTIVE,1733609191.8101187,0.07,-0.14,-1.48,12,1,15,2,17760768,0,13
1733609195.3170996,0.0,True,-0.0044867731630802155,-0.020557856187224388,3.0203094482421875,23.89,53,15.004,0,0,False,,,,75,125,4,17,0.1596166342496872,173,81.217,,39.1423942,,-76.7304809,False,0.9392991470000425,84.664,,39.1423937,,-76.7304798,3.447,,39.1423937,,-76.7304798,4.894162178039551,7.187044620513916,-21.490583419799805,unknown,POSCTL,,,,337,,ACTIVE,3.5069808959960938,0.07,-0.14,-1.47,12,1,15,2,17760768,0,13
1733609195.4171472,0.0,True,-0.005072181578725576,-0.019875504076480865,3.023033380508423,23.89,53,15.004,0,0,False,,,,75,125,4,17,0.1596166342496872,173,81.217,,39.1423942,,-76.7304809,False,0.04398222199995416,84.755,,39.1423937,,-76.7304797,3.538,,39.1423937,,-76.7304797,4.739595413208008,7.198002815246582,-21.484352111816406,unknown,POSCTL,,,,337,,ACTIVE,1733609191.9101663,0.08,-0.13,-1.46,12,1,15,2,17760768,0,13
1733609195.5173018,0.0,True,-0.008602749556303024,-0.016416458413004875,3.025557518005371,23.89,53,15.004,0,0,False,,,,75,125,4,17,0.1596166342496872,173,81.217,,39.1423942,,-76.7304809,False,0.13612664799995855,84.956,,39.1423939,,-76.7304795,3.739,,39.1423939,,-76.7304795,4.588669300079346,7.2086687088012695,-21.472719192504883,unknown,POSCTL,,,,337,,ACTIVE,3.607135534286499,0.08,-0.15,-1.46,12,1,15,2,17760768,0,13
1733609195.6182668,0.0,True,-0.01036292128264904,-0.016641156747937202,3.0268447399139404,23.94,52,14.966,0,0,False,,,,75,125,4,17,0.1596166342496872,173,81.217,,39.1423942,,-76.7304809,False,0.24670036999998501,85.049,,39.1423939,,-76.7304795,3.832,,39.1423939,,-76.7304795,4.4122490882873535,7.21563196182251,-21.46103286743164,unknown,POSCTL,,,,384,,ACTIVE,1733609192.0111313,0.08,-0.16,-1.47,12,1,15,2,17760768,0,13
1733609195.7176394,0.0,True,-0.012549326755106449,-0.01821472868323326,3.030322551727295,23.94,52,14.966,0,0,False,,,,75,125,4,17,0.1819814294576645,173,81.217,,39.1423942,,-76.7304809,False,0.3400613149999572,85.241,,39.142394,,-76.7304794,4.023,,39.142394,,-76.7304794,4.240546703338623,7.223230838775635,-21.44991683959961,unknown,POSCTL,,,,384,,ACTIVE,3.706508159637451,0.07,-0.16,-1.47,12,1,15,2,17760768,0,13
1733609195.8184052,0.0,True,-0.01015059556812048,-0.01961999200284481,3.032303810119629,23.94,52,14.966,0,0,False,,,,75,125,4,17,0.1819814294576645,173,81.217,,39.1423942,,-76.7304809,False,0.4466060180000113,85.333,,39.1423941,,-76.7304793,4.116,,39.1423941,,-76.7304793,4.083664417266846,7.233325481414795,-21.43824577331543,unknown,POSCTL,,,,384,,ACTIVE,1733609192.111897,0.06,-0.17,-1.48,12,1,15,2,17760768,0,13
1733609195.918571,0.0,True,-0.008464390411973,-0.017446786165237427,3.034702777862549,23.94,52,14.966,0,0,False,,,,75,125,4,17,0.1819814294576645,173,81.217,,39.1423942,,-76.7304809,False,0.5470082219999313,85.536,,39.1423942,,-76.7304792,4.319,,39.1423942,,-76.7304792,4.083664417266846,7.233325481414795,-21.43824577331543,unknown,POSCTL,,,,384,,ACTIVE,3.806674003601074,0.06,-0.17,-1.49,12,1,15,2,17760768,0,13
1733609196.0180204,0.0,True,-0.011434810236096382,-0.01621880941092968,3.036303758621216,23.94,52,14.966,0,0,False,,,,75,125,3,17,0.19020064175128937,173,81.217,,39.1423942,,-76.7304809,False,0.628187425999954,85.633,,39.1423943,,-76.7304791,4.416,,39.1423943,,-76.7304791,3.9118051528930664,7.243495464324951,-21.42832374572754,unknown,POSCTL,,,,431,,ACTIVE,1733609192.2113464,0.06,-0.18,-1.48,12,1,15,2,17760768,0,13
1733609196.1180258,0.0,True,-0.011976798996329308,-0.016876883804798126,3.038649082183838,23.94,52,14.966,0,0,False,,,,75,125,3,17,0.19020064175128937,173,81.217,,39.1423942,,-76.7304809,False,0.7323950180000338,85.838,,39.1423943,,-76.730479,4.621,,39.1423943,,-76.730479,3.7512426376342773,7.25200891494751,-21.421262741088867,unknown,POSCTL,,,,431,,ACTIVE,3.906679391860962,0.04,-0.18,-1.48,12,1,15,2,17760768,0,13
1733609196.2183032,0.0,True,-0.00906861387193203,-0.01557984109967947,3.0408263206481934,23.94,52,14.966,0,0,False,,,,79,132,3,16,0.19020064175128937,173,81.217,,39.1423942,,-76.7304809,False,0.8214055549999557,85.949,,39.1423944,,-76.730479,4.732,,39.1423944,,-76.730479,3.5776758193969727,7.260484218597412,-21.415910720825195,unknown,POSCTL,,,,431,,ACTIVE,1733609192.3116238,0.04,-0.19,-1.48,12,1,15,2,17760768,0,13
1733609196.3195114,0.0,True,-0.008232558146119118,-0.016294950619339943,3.042696952819824,23.88,51,14.946,0,0,False,,,,82,148,4,17,0.1966802179813385,174,81.217,,39.1423942,,-76.7304809,False,0.947939611000038,86.043,,39.1423944,,-76.7304789,4.826,,39.1423944,,-76.7304789,3.4209296703338623,7.268931865692139,-21.410846710205078,unknown,POSCTL,,,,479,,ACTIVE,4.007887601852417,0.03,-0.19,-1.48,12,1,15,2,17760768,0,13
1733609196.4187822,0.0,True,-0.007496366277337074,-0.01469625998288393,3.0442416667938232,23.88,51,14.946,0,0,False,,,,82,148,4,17,0.1966802179813385,174,81.217,,39.1423942,,-76.7304809,False,0.02876996300005885,86.246,,39.1423945,,-76.7304787,5.029,,39.1423945,,-76.7304787,3.251277446746826,7.280884742736816,-21.402801513671875,unknown,POSCTL,,,,479,,ACTIVE,1733609192.4108946,0.03,-0.19,-1.48,12,1,15,2,17760768,0,13
1733609196.5195181,0.0,True,-0.011640570126473904,-0.012988303788006306,3.045027494430542,23.88,51,14.946,0,0,False,,,,82,148,4,18,0.1966802179813385,174,81.217,,39.1423942,,-76.7304809,False,0.14917946299999585,86.443,,39.1423946,,-76.7304786,5.226,,39.1423946,,-76.7304786,3.079831600189209,7.288366794586182,-21.394153594970703,unknown,POSCTL,,,,479,,ACTIVE,4.108623504638672,0.03,-0.19,-1.5,12,1,15,2,17760768,0,13
1733609196.6188393,0.0,True,-0.012498246505856514,-0.01399810891598463,3.0459110736846924,23.88,51,14.946,0,0,False,,,,79,132,3,17,0.1966802179813385,174,81.217,,39.1423942,,-76.7304809,False,0.24431866700001592,86.545,,39.1423946,,-76.7304786,5.328,,39.1423946,,-76.7304786,2.916001558303833,7.297067642211914,-21.384620666503906,unknown,POSCTL,,,,479,,ACTIVE,1733609192.5102158,0.03,-0.19,-1.51,12,1,15,2,17760768,0,13
1733609196.7192552,0.0,True,-0.014385702088475227,-0.010298263281583786,3.0464866161346436,23.88,51,14.946,0,0,False,,,,79,132,3,17,0.20464149117469788,174,81.217,,39.1423942,,-76.7304809,False,0.3485172780000312,86.655,,39.1423947,,-76.7304785,5.438,,39.1423947,,-76.7304785,2.916001558303833,7.297067642211914,-21.384620666503906,unknown,POSCTL,,,,527,,ACTIVE,4.2090394496917725,0.03,-0.2,-1.56,12,1,15,2,17760768,0,13
1733609196.819092,0.0,True,-0.01565716601908207,-0.01179113145917654,3.046746015548706,23.88,51,14.946,0,0,False,,,,79,132,3,17,0.20464149117469788,174,81.217,,39.1423942,,-76.7304809,False,0.44037081500005115,86.849,,39.1423948,,-76.7304784,5.632,,39.1423948,,-76.7304784,2.747753381729126,7.303513526916504,-21.376001358032227,unknown,POSCTL,,,,527,,ACTIVE,1733609192.6100526,0.03,-0.2,-1.61,12,1,15,2,17760768,0,13
1733609196.9193559,0.0,True,-0.01526142843067646,-0.011916291899979115,3.0471901893615723,23.88,51,14.946,0,0,False,,,,79,132,3,17,0.20464149117469788,174,81.217,,39.1423942,,-76.7304809,False,0.5423699070000794,86.954,,39.1423948,,-76.7304783,5.737,,39.1423948,,-76.7304783,2.572594165802002,7.314272880554199,-21.36526107788086,unknown,POSCTL,,,,527,,ACTIVE,4.309303283691406,0.02,-0.21,-1.64,12,1,15,2,17760768,0,13
1733609197.0196488,0.0,True,-0.013861441053450108,-0.011959424242377281,3.0476298332214355,25.03,49,14.864,0,0,False,,,,79,132,3,17,0.21735747158527374,174,81.217,,39.1423942,,-76.7304809,False,0.6464520370000173,87.192,,39.1423949,,-76.7304781,5.975,,39.1423949,,-76.7304781,2.376558780670166,7.33292293548584,-21.35502815246582,unknown,POSCTL,,,,575,,ACTIVE,1733609192.7103455,0.01,-0.21,-1.72,12,1,15,2,17760768,0,13
1733609197.1196055,0.0,True,-0.01656302623450756,-0.010063080117106438,3.0481414794921875,25.03,49,14.864,0,0,False,,,,79,132,3,17,0.21735747158527374,174,81.217,,39.1423942,,-76.7304809,False,0.7482627780000257,87.306,,39.142395,,-76.730478,6.089,,39.142395,,-76.730478,2.167203664779663,7.342381000518799,-21.346603393554688,unknown,POSCTL,,,,575,,ACTIVE,4.409260034561157,0.0,-0.22,-1.75,12,1,15,2,17760768,0,13
1733609197.2198126,0.0,True,-0.016877206042408943,-0.009652950800955296,3.0487546920776367,25.03,49,14.864,0,0,False,,,,79,132,3,17,0.21735747158527374,174,81.217,,39.1423942,,-76.7304809,False,0.8359327590000021,87.556,,39.142395,,-76.730478,6.339,,39.142395,,-76.730478,1.9722926616668701,7.346677780151367,-21.339277267456055,unknown,POSCTL,,,,575,,ACTIVE,1733609192.8105526,0.0,-0.23,-1.81,12,1,15,2,17760768,0,13
1733609197.3210773,0.0,True,-0.016536975279450417,-0.01085664238780737,3.0496113300323486,25.03,49,14.864,0,0,False,,,,79,132,4,18,0.21735747158527374,174,81.217,,39.1423942,,-76.7304809,False,0.9516768330000787,87.668,,39.1423951,,-76.730478,6.451,,39.1423951,,-76.730478,1.764101266860962,7.350058078765869,-21.33220100402832,unknown,POSCTL,,,,632,,ACTIVE,4.510524749755859,0.0,-0.23,-1.84,12,1,15,2,17760768,0,13
1733609197.42011,0.0,True,-0.015844250097870827,-0.011000962927937508,3.0505831241607666,25.03,49,14.864,0,0,False,,,,70,109,4,18,0.24452635645866394,174,81.217,,39.1423942,,-76.7304809,False,0.03932487099996251,87.934,,39.1423951,,-76.7304778,6.717,,39.1423951,,-76.7304778,1.536592721939087,7.358199119567871,-21.326663970947266,unknown,POSCTL,,,,632,,ACTIVE,1733609192.9095852,-0.02,-0.24,-1.91,12,1,15,2,17760768,0,13
1733609197.5203276,0.0,True,-0.016033148393034935,-0.01097146701067686,3.052300214767456,25.03,49,14.864,0,0,False,,,,70,109,4,18,0.24452635645866394,174,81.217,,39.1423942,,-76.7304809,False,0.11924618499995177,88.066,,39.1423952,,-76.7304778,6.849,,39.1423952,,-76.7304778,1.536592721939087,7.358199119567871,-21.326663970947266,unknown,POSCTL,,,,632,,ACTIVE,4.6107423305511475,-0.03,-0.24,-1.94,12,1,15,2,17760768,0,13
1733609197.6204739,0.0,True,-0.014065384864807129,-0.009983917698264122,3.0539584159851074,25.03,49,14.864,0,0,False,,,,70,109,4,18,0.24452635645866394,174,81.217,,39.1423942,,-76.7304809,False,0.2414237589999857,88.349,,39.1423952,,-76.7304777,7.132,,39.1423952,,-76.7304777,1.315732717514038,7.366467475891113,-21.32463264465332,unknown,POSCTL,,,,632,,ACTIVE,1733609193.0097315,-0.04,-0.26,-2.01,12,1,15,2,17760768,0,13
1733609197.7206461,0.0,True,-0.011712091974914074,-0.012158720754086971,3.0555481910705566,25.73,48,14.821,0,0,False,,,,70,109,4,18,0.27244052290916443,175,81.217,,39.1423942,,-76.7304809,False,0.33408411099992463,88.485,,39.1423952,,-76.7304777,7.268,,39.1423952,,-76.7304777,1.0958656072616577,7.370419979095459,-21.32316017150879,unknown,POSCTL,,,,691,,ACTIVE,4.710914611816406,-0.05,-0.26,-2.04,12,1,15,2,17760768,0,13
1733609197.8220835,0.0,True,-0.014444634318351746,-0.010395524092018604,3.056762456893921,25.73,48,14.821,0,0,False,,,,70,109,4,18,0.27244052290916443,175,81.217,,39.1423942,,-76.7304809,False,0.44691635200001656,88.776,,39.1423952,,-76.7304776,7.559,,39.1423952,,-76.7304776,0.8455520868301392,7.379092693328857,-21.321353912353516,unknown,POSCTL,,,,691,,ACTIVE,1733609193.1111689,-0.06,-0.27,-2.11,12,1,15,2,17760768,0,13
1733609197.9209137,0.0,True,-0.012454384006559849,-0.011491152457892895,3.0580224990844727,25.73,48,14.821,0,0,False,,,,70,109,4,18,0.27244052290916443,175,81.217,,39.1423942,,-76.7304809,False,0.5339093329999969,88.914,,39.1423952,,-76.7304775,7.697,,39.1423952,,-76.7304775,0.6207653880119324,7.38723611831665,-21.321008682250977,unknown,POSCTL,,,,691,,ACTIVE,4.809744834899902,-0.06,-0.28,-2.14,12,1,15,2,17760768,0,13
1733609198.0217433,0.0,True,-0.010730093345046043,-0.010789230465888977,3.058936595916748,25.73,48,14.821,0,0,False,,,,70,109,4,18,0.27244052290916443,175,81.217,,39.1423942,,-76.7304809,False,0.645751703999963,89.047,,39.1423952,,-76.7304775,7.83,,39.1423952,,-76.7304775,0.356215238571167,7.388890743255615,-21.321273803710938,unknown,POSCTL,,,,758,,ACTIVE,1733609193.2119985,-0.06,-0.29,-2.17,12,1,15,2,17760768,0,13
1733609198.1221673,0.0,True,-0.012042324058711529,-0.011216994374990463,3.061018466949463,25.73,48,14.821,0,0,False,,,,70,109,4,18,0.30575740337371826,175,81.217,,39.1423942,,-76.7304809,False,0.746999073999973,89.342,,39.1423952,,-76.7304774,8.125,,39.1423952,,-76.7304774,0.1189965084195137,7.397256374359131,-21.320560455322266,unknown,POSCTL,,,,758,,ACTIVE,4.910168886184692,-0.07,-0.29,-2.15,12,1,15,2,17760768,0,13
1733609198.2213597,0.0,True,-0.011505312286317348,-0.013150610961019993,3.064516067504883,25.73,48,14.821,0,0,False,,,,70,109,4,18,0.30575740337371826,175,81.217,,39.1423942,,-76.7304809,False,0.8431976109999368,89.502,,39.1423952,,-76.7304773,8.285,,39.1423952,,-76.7304773,-0.09731187671422958,7.406162261962891,-21.319843292236328,unknown,POSCTL,,,,758,,ACTIVE,1733609193.3111908,-0.07,-0.28,-2.04,12,1,15,2,17760768,0,13
1733609198.3214655,0.0,True,-0.0106156961992383,-0.012692178599536419,3.0690512657165527,25.73,48,14.821,0,0,False,,,,79,132,3,17,0.30575740337371826,175,81.217,,39.1423942,,-76.7304809,False,0.9451554999999416,89.747,,39.1423952,,-76.7304772,8.53,,39.1423952,,-76.7304772,-0.09731187671422958,7.406162261962891,-21.319843292236328,unknown,POSCTL,,,,758,,ACTIVE,5.010274648666382,-0.07,-0.29,-1.71,12,1,15,2,17760768,0,13
1733609198.4223242,0.0,True,-0.012791228480637074,-0.00890539214015007,3.0754129886627197,19.89,48,14.941,0,0,False,,,,79,132,4,18,0.2970012128353119,175,81.217,,39.1423942,,-76.7304809,False,0.03353887000002942,89.85,,39.1423953,,-76.7304771,8.633,,39.1423953,,-76.7304771,-0.304887056350708,7.416482448577881,-21.31651496887207,unknown,POSCTL,,,,820,,ACTIVE,1733609193.4120495,-0.07,-0.28,-1.52,12,1,15,2,17760768,0,13
1733609198.5218832,0.0,True,-0.015286599285900593,-0.007693011313676834,3.0805909633636475,19.89,48,14.941,0,0,False,,,,79,132,3,17,0.2970012128353119,175,81.217,,39.1423942,,-76.7304809,False,0.11564670300003854,90.033,,39.1423953,,-76.730477,8.816,,39.1423953,,-76.730477,-0.4587441682815552,7.423996925354004,-21.314035415649414,unknown,POSCTL,,,,820,,ACTIVE,5.109833717346191,-0.06,-0.29,-1.07,12,1,15,2,17760768,0,13
1733609198.6219378,0.0,True,-0.012534410692751408,-0.006794048938900232,3.0863869190216064,19.89,48,14.941,0,0,False,,,,79,132,4,18,0.2970012128353119,175,81.217,,39.1423942,,-76.7304809,False,0.21212885099998857,90.107,,39.1423953,,-76.730477,8.89,,39.1423953,,-76.730477,-0.5850458741188049,7.4307332038879395,-21.310171127319336,unknown,POSCTL,,,,820,,ACTIVE,1733609193.512104,-0.06,-0.29,-0.93,12,1,15,2,17760768,0,13
1733609198.7220485,0.0,True,-0.011689084582030773,-0.004648587200790644,3.0883843898773193,19.89,48,14.941,0,0,False,,,,79,132,4,18,0.31788596510887146,176,81.217,,39.1423942,,-76.7304809,False,0.3314334440000266,90.166,,39.1423953,,-76.7304769,8.949,,39.1423953,,-76.7304769,-0.6826951503753662,7.437906742095947,-21.305545806884766,unknown,POSCTL,,,,847,,ACTIVE,5.209944486618042,-0.06,-0.3,-0.87,12,1,15,2,17760768,0,13
1733609198.8221953,0.0,True,-0.01271786354482174,-0.009046881459653378,3.088406801223755,19.89,48,14.941,0,0,False,,,,79,132,4,18,0.31788596510887146,176,81.217,,39.1423942,,-76.7304809,False,0.40816309199999523,90.291,,39.1423954,,-76.7304768,9.074,,39.1423954,,-76.7304768,-0.7796792387962341,7.442598342895508,-21.3022518157959,unknown,POSCTL,,,,847,,ACTIVE,1733609193.6122508,-0.07,-0.31,-0.91,12,1,15,2,17760768,0,13
1733609198.9224412,0.0,True,-0.014415692538022995,-0.011355618014931679,3.086696147918701,19.89,48,14.941,0,0,False,,,,70,109,4,18,0.31788596510887146,176,81.217,,39.1423942,,-76.7304809,False,0.5295247579999796,90.423,,39.1423954,,-76.7304768,9.206,,39.1423954,,-76.7304768,-0.899334728717804,7.447596549987793,-21.296266555786133,unknown,POSCTL,,,,847,,ACTIVE,5.310190439224243,-0.07,-0.32,-1.03,12,1,15,2,17760768,0,13
1733609199.0225008,0.0,True,-0.015132308937609196,-0.013142797164618969,3.084099054336548,22.87,49,14.914,0,0,False,,,,70,109,4,18,0.31788596510887146,176,81.217,,39.1423942,,-76.7304809,False,0.6306706660000145,90.491,,39.1423955,,-76.7304768,9.274,,39.1423955,,-76.7304768,-1.0258355140686035,7.452082633972168,-21.290822982788086,unknown,POSCTL,,,,847,,ACTIVE,1733609193.7123103,-0.08,-0.32,-1.05,12,1,15,2,17760768,0,13
1733609199.1226525,0.0,True,-0.0138443224132061,-0.007647959515452385,3.080343008041382,22.87,49,14.914,0,0,False,,,,70,109,4,18,0.3381422162055969,176,81.217,,39.1423942,,-76.7304809,False,0.7316388140000072,90.56,,39.1423955,,-76.7304767,9.343,,39.1423955,,-76.7304767,-1.0258355140686035,7.452082633972168,-21.290822982788086,unknown,POSCTL,,,,874,,ACTIVE,5.410342216491699,-0.08,-0.32,-1.07,12,1,15,2,17760768,0,13
1733609199.2227702,0.0,True,-0.01694999821484089,-0.005159890279173851,3.0766241550445557,22.87,49,14.914,0,0,False,,,,70,109,4,18,0.3381422162055969,176,81.217,,39.1423942,,-76.7304809,False,0.820903999000052,90.713,,39.1423955,,-76.7304767,9.496,,39.1423955,,-76.7304767,-1.1422861814498901,7.458498954772949,-21.28663444519043,unknown,POSCTL,,,,874,,ACTIVE,1733609193.812428,-0.08,-0.32,-1.08,12,1,15,2,17760768,0,13
1733609199.3229303,0.0,True,-0.01645253412425518,-0.004570435732603073,3.0731451511383057,22.87,49,14.914,0,0,False,,,,70,109,4,18,0.3381422162055969,176,81.217,,39.1423942,,-76.7304809,False,0.924209258000019,90.796,,39.1423955,,-76.7304766,9.579,,39.1423955,,-76.7304766,-1.2717361450195312,7.460545063018799,-21.284679412841797,unknown,POSCTL,,,,874,,ACTIVE,5.510502338409424,-0.09,-0.33,-1.08,12,1,15,2,17760768,0,13
1733609199.4229522,0.0,True,-0.015506966970860958,-0.006771398708224297,3.07110333442688,22.87,49,14.914,0,0,False,,,,79,132,4,18,0.34533166885375977,176,81.217,,39.1423942,,-76.7304809,False,0.04972011100005602,90.921,,39.1423956,,-76.7304766,9.704,,39.1423956,,-76.7304766,-1.386782169342041,7.46618127822876,-21.282073974609375,unknown,POSCTL,,,,896,,ACTIVE,1733609193.9124498,-0.09,-0.33,-1.06,12,1,15,2,17760768,0,13
1733609199.5232434,0.0,True,-0.01614069566130638,-0.010341600514948368,3.0692028999328613,22.87,49,14.914,0,0,False,,,,70,109,4,18,0.34533166885375977,176,81.217,,39.1423942,,-76.7304809,False,0.14483855500009213,90.999,,39.1423956,,-76.7304766,9.782,,39.1423956,,-76.7304766,-1.4982272386550903,7.468831539154053,-21.280492782592773,unknown,POSCTL,,,,896,,ACTIVE,5.610793590545654,-0.09,-0.33,-1.04,12,1,15,2,17760768,0,13
1733609199.62339,0.0,True,-0.015036806464195251,-0.01067632157355547,3.0685927867889404,22.87,49,14.914,0,0,False,,,,70,109,4,18,0.34533166885375977,176,81.217,,39.1423942,,-76.7304809,False,0.25002961100005905,91.13,,39.1423956,,-76.7304764,9.913,,39.1423956,,-76.7304764,-1.6099728345870972,7.4761834144592285,-21.27610969543457,unknown,POSCTL,,,,896,,ACTIVE,1733609194.0125964,-0.08,-0.32,-0.89,12,1,15,2,17760768,0,13
1733609199.7245839,0.0,True,-0.013745669275522232,-0.0063323285430669785,3.0688419342041016,21.42,49,14.918,0,0,False,,,,70,109,4,18,0.34533166885375977,176,81.217,,39.1423942,,-76.7304809,False,0.35274188900007175,91.183,,39.1423956,,-76.7304764,9.966,,39.1423956,,-76.7304764,-1.7049344778060913,7.4807868003845215,-21.272043228149414,unknown,POSCTL,,,,918,,ACTIVE,5.711987495422363,-0.09,-0.33,-0.81,12,1,15,2,17760768,0,13
1733609199.8235936,0.0,True,-0.017109373584389687,-0.0011812009615823627,3.0684497356414795,21.42,49,14.918,0,0,False,,,,70,109,4,18,0.3467686176300049,175,81.217,,39.1423942,,-76.7304809,False,0.44129531400005817,91.285,,39.1423957,,-76.7304764,10.068,,39.1423957,,-76.7304764,-1.7818024158477783,7.483046531677246,-21.271549224853516,unknown,POSCTL,,,,918,,ACTIVE,1733609194.1116061,-0.09,-0.33,-0.73,12,1,15,2,17760768,0,13
1733609199.923837,0.0,True,-0.018906688317656517,-0.00010150533489650115,3.0677030086517334,21.42,49,14.918,0,0,False,,,,70,109,4,18,0.3467686176300049,175,81.217,,39.1423942,,-76.7304809,False,0.5229266290000396,91.329,,39.1423957,,-76.7304763,10.111,,39.1423957,,-76.7304763,-1.7818024158477783,7.483046531677246,-21.271549224853516,unknown,POSCTL,,,,918,,ACTIVE,5.812230825424194,-0.08,-0.34,-0.73,12,1,15,2,17760768,0,13
1733609200.023993,0.0,True,-0.020790865644812584,-0.00020908535225316882,3.067490577697754,21.42,49,14.918,0,0,False,,,,70,109,4,18,0.3467686176300049,175,81.217,,39.1423942,,-76.7304809,False,0.6413232959999959,91.412,,39.1423957,,-76.7304763,10.195,,39.1423957,,-76.7304763,-1.8538087606430054,7.487780570983887,-21.268953323364258,unknown,POSCTL,,,,918,,ACTIVE,1733609194.2117622,-0.09,-0.35,-0.65,12,1,15,2,17760768,0,13
1733609200.1243618,0.0,True,-0.019906023517251015,-0.004628603812307119,3.0672600269317627,21.42,49,14.918,0,0,False,,,,70,109,4,18,0.3788645565509796,175,81.217,,39.1423942,,-76.7304809,False,0.7342854250000528,91.457,,39.1423957,,-76.7304763,10.24,,39.1423957,,-76.7304763,-1.9263355731964111,7.490993976593018,-21.264963150024414,unknown,POSCTL,,,,932,,ACTIVE,5.912599563598633,-0.09,-0.36,-0.64,12,1,15,2,17760768,0,13
1733609200.2242477,0.0,True,-0.019691798835992813,-0.009394533932209015,3.0658507347106934,21.42,49,14.918,0,0,False,,,,70,109,4,18,0.3788645565509796,175,81.217,,39.1423942,,-76.7304809,False,0.84737498100003,91.535,,39.1423957,,-76.7304763,10.318,,39.1423957,,-76.7304763,-1.9969266653060913,7.492242813110352,-21.26235580444336,unknown,POSCTL,,,,932,,ACTIVE,1733609194.3116481,-0.1,-0.37,-0.68,12,1,15,2,17760768,0,13
1733609200.3252404,0.0,True,-0.01603449136018753,-0.01017051562666893,3.065087080001831,21.42,49,14.918,0,0,False,,,,70,109,4,18,0.3788645565509796,175,81.217,,39.1423942,,-76.7304809,False,0.9531668880000552,91.581,,39.1423957,,-76.7304763,10.363,,39.1423957,,-76.7304763,-2.0637340545654297,7.491256237030029,-21.261316299438477,unknown,POSCTL,,,,932,,ACTIVE,6.01359224319458,-0.11,-0.37,-0.7,12,1,15,2,17760768,0,13
1733609200.424703,0.0,True,-0.014118289574980736,-0.010755608789622784,3.064399003982544,23.14,48,14.862,0,0,False,,,,70,109,4,18,0.3788645565509796,175,81.217,,39.1423942,,-76.7304809,False,0.05032053699994776,91.621,,39.1423957,,-76.7304763,10.404,,39.1423957,,-76.7304763,-2.1290183067321777,7.494357585906982,-21.261539459228516,unknown,POSCTL,,,,939,,ACTIVE,1733609194.4111106,-0.11,-0.37,-0.71,12,1,15,2,17760768,0,13
1733609200.52481,0.0,True,-0.01532371062785387,-0.007289603818207979,3.06421160697937,23.14,48,14.862,0,0,False,,,,70,109,4,18,0.394853413105011,175,81.217,,39.1423942,,-76.7304809,False,0.1439400739999428,91.706,,39.1423957,,-76.7304762,10.489,,39.1423957,,-76.7304762,-2.201050281524658,7.495337963104248,-21.26395606994629,unknown,POSCTL,,,,939,,ACTIVE,6.113699436187744,-0.12,-0.37,-0.72,12,1,15,2,17760768,0,13
1733609200.625068,0.0,True,-0.014898132532835007,-0.006332435645163059,3.0644900798797607,23.14,48,14.862,0,0,False,,,,70,109,4,18,0.394853413105011,175,81.217,,39.1423942,,-76.7304809,False,0.2507764629999656,91.746,,39.1423957,,-76.7304762,10.528,,39.1423957,,-76.7304762,-2.2717316150665283,7.497743606567383,-21.266399383544922,unknown,POSCTL,,,,939,,ACTIVE,1733609194.5113685,-0.12,-0.37,-0.72,12,1,15,2,17760768,0,13
1733609200.725179,0.0,True,-0.01563917100429535,-0.007951568812131882,3.0647072792053223,23.14,48,14.862,0,0,False,,,,70,109,4,18,0.394853413105011,175,81.217,,39.1423942,,-76.7304809,False,0.34822012899996935,91.827,,39.1423957,,-76.7304762,10.61,,39.1423957,,-76.7304762,-2.2717316150665283,7.497743606567383,-21.266399383544922,unknown,POSCTL,,,,939,,ACTIVE,6.213810443878174,-0.12,-0.38,-0.72,12,1,15,2,17760768,0,13
1733609200.8254213,0.0,True,-0.012204336002469063,-0.01336626522243023,3.0656299591064453,23.14,48,14.862,0,0,False,,,,70,109,4,18,0.40039539337158203,175,81.217,,39.1423942,,-76.7304809,False,0.45002005499998177,91.866,,39.1423957,,-76.7304762,10.649,,39.1423957,,-76.7304762,-2.3378801345825195,7.495595455169678,-21.270570755004883,unknown,POSCTL,,,,951,,ACTIVE,1733609194.611611,-0.12,-0.38,-0.71,12,1,15,2,17760768,0,13
1733609200.9258444,0.0,True,-0.012327327392995358,-0.013543698005378246,3.0673458576202393,23.14,48,14.862,0,0,False,,,,70,109,4,18,0.40039539337158203,175,81.217,,39.1423942,,-76.7304809,False,0.5547404809999534,91.937,,39.1423956,,-76.7304763,10.72,,39.1423956,,-76.7304763,-2.4014949798583984,7.492748260498047,-21.27495002746582,unknown,POSCTL,,,,951,,ACTIVE,6.3142335414886475,-0.11,-0.38,-0.73,12,1,15,2,17760768,0,13
1733609201.0261064,0.0,True,-0.015715962275862694,-0.013999498449265957,3.0680911540985107,23.14,48,14.862,0,0,False,,,,70,109,4,18,0.40039539337158203,175,81.217,,39.1423942,,-76.7304809,False,0.6200770740000507,91.979,,39.1423956,,-76.7304763,10.762,,39.1423956,,-76.7304763,-2.4677767753601074,7.490228652954102,-21.279016494750977,unknown,POSCTL,,,,951,,ACTIVE,1733609194.7118728,-0.11,-0.39,-0.73,12,1,15,2,17760768,0,13
1733609201.1262407,0.0,True,-0.01630917191505432,-0.013308321125805378,3.0696582794189453,23.62,47,14.827,0,0,False,,,,70,109,4,18,0.40516385436058044,175,81.217,,39.1423942,,-76.7304809,False,0.7547448509999413,92.058,,39.1423955,,-76.7304763,10.84,,39.1423955,,-76.7304763,-2.5226924419403076,7.494659423828125,-21.28322410583496,unknown,POSCTL,,,,963,,ACTIVE,6.414367914199829,-0.11,-0.38,-0.74,12,1,15,2,17760768,0,13
1733609201.2268403,0.0,True,-0.011411323212087154,-0.009554637596011162,3.070864200592041,23.62,47,14.827,0,0,False,,,,70,109,4,18,0.40516385436058044,175,81.217,,39.1423942,,-76.7304809,False,0.8557382220000136,92.089,,39.1423955,,-76.7304762,10.872,,39.1423955,,-76.7304762,-2.592892646789551,7.494496822357178,-21.288089752197266,unknown,POSCTL,,,,963,,ACTIVE,1733609194.8124723,-0.12,-0.38,-0.73,12,1,15,2,17760768,0,13
1733609201.3271449,0.0,True,-0.007811475545167923,-0.008469554595649242,3.0721683502197266,23.62,47,14.827,0,0,False,,,,70,109,4,18,0.40516385436058044,175,81.217,,39.1423942,,-76.7304809,False,0.9500424809999686,92.171,,39.1423955,,-76.7304762,10.953,,39.1423955,,-76.7304762,-2.652327299118042,7.496319770812988,-21.292741775512695,unknown,POSCTL,,,,963,,ACTIVE,6.514672517776489,-0.12,-0.38,-0.76,12,1,15,2,17760768,0,13
1733609201.4272802,0.0,True,-0.0072994655929505825,-0.003992041107267141,3.073575973510742,23.62,47,14.827,0,0,False,,,,70,109,4,18,0.40516385436058044,175,81.217,,39.1423942,,-76.7304809,False,0.044463574000019435,92.205,,39.1423954,,-76.7304761,10.988,,39.1423954,,-76.7304761,-2.715322971343994,7.5096588134765625,-21.295970916748047,unknown,POSCTL,,,,963,,ACTIVE,1733609194.9126077,-0.12,-0.38,-0.76,12,1,15,2,17760768,0,13
1733609201.5274408,0.0,True,-0.008975078351795673,-0.009671196341514587,3.0742108821868896,23.62,47,14.827,0,0,False,,,,70,109,4,18,0.398870050907135,176,81.217,,39.1423942,,-76.7304809,False,0.15071040700001959,92.275,,39.1423954,,-76.7304759,11.058,,39.1423954,,-76.7304759,-2.715322971343994,7.5096588134765625,-21.295970916748047,unknown,POSCTL,,,,976,,ACTIVE,6.614833116531372,-0.11,-0.38,-0.76,12,1,15,2,17760768,0,13
1733609201.627524,0.0,True,-0.012181831523776054,-0.006903320550918579,3.074653148651123,23.62,47,14.827,0,0,False,,,,70,109,4,18,0.398870050907135,176,81.217,,39.1423942,,-76.7304809,False,0.23945272200001,92.31,,39.1423954,,-76.7304759,11.093,,39.1423954,,-76.7304759,-2.775141477584839,7.523127555847168,-21.2980899810791,unknown,POSCTL,,,,976,,ACTIVE,1733609195.0126908,-0.12,-0.38,-0.75,12,1,15,2,17760768,0,13
1733609201.7277884,0.0,True,-0.009285765700042248,-0.0044457498006522655,3.074427843093872,23.62,47,14.827,0,0,False,,,,70,109,4,18,0.398870050907135,176,81.217,,39.1423942,,-76.7304809,False,0.3563425739999957,92.387,,39.1423953,,-76.7304759,11.169,,39.1423953,,-76.7304759,-2.8325374126434326,7.526923656463623,-21.302824020385742,unknown,POSCTL,,,,976,,ACTIVE,6.715097665786743,-0.12,-0.39,-0.77,12,1,15,2,17760768,0,13
1733609201.8279006,0.0,True,-0.009139463305473328,-0.005377788562327623,3.0744833946228027,23.75,46,14.807,0,0,False,,,,70,109,4,18,0.4249683916568756,176,81.217,,39.1423942,,-76.7304809,False,0.4486356480000495,92.422,,39.1423953,,-76.7304759,11.205,,39.1423953,,-76.7304759,-2.8983561992645264,7.526250839233398,-21.31081771850586,unknown,POSCTL,,,,989,,ACTIVE,1733609195.112803,-0.13,-0.4,-0.77,12,1,15,2,17760768,0,13
1733609201.9280043,0.0,True,-0.006754544097930193,-0.0047400519251823425,3.0748636722564697,23.75,46,14.807,0,0,False,,,,70,109,4,18,0.4249683916568756,176,81.217,,39.1423942,,-76.7304809,False,0.5570918330000723,92.459,,39.1423952,,-76.7304759,11.242,,39.1423952,,-76.7304759,-2.9613044261932373,7.524764537811279,-21.317790985107422,unknown,POSCTL,,,,989,,ACTIVE,6.815201282501221,-0.13,-0.4,-0.78,12,1,15,2,17760768,0,13
1733609202.028205,0.0,True,-0.004528177436441183,-0.0070848288014531136,3.076280355453491,23.75,46,14.807,0,0,False,,,,70,109,4,18,0.4249683916568756,176,81.217,,39.1423942,,-76.7304809,False,0.6542262770000207,92.541,,39.1423952,,-76.7304759,11.323,,39.1423952,,-76.7304759,-3.0238265991210938,7.523690700531006,-21.323331832885742,unknown,POSCTL,,,,989,,ACTIVE,1733609195.2130036,-0.12,-0.4,-0.75,12,1,15,2,17760768,0,13
1733609202.1284235,0.0,True,-0.006044137291610241,-0.01037999615073204,3.077815294265747,23.75,46,14.807,0,0,False,,,,70,109,4,18,0.4249683916568756,176,81.217,,39.1423942,,-76.7304809,False,0.7563848700000335,92.581,,39.1423951,,-76.7304759,11.364,,39.1423951,,-76.7304759,-3.0845303535461426,7.52376651763916,-21.328346252441406,unknown,POSCTL,,,,1003,,ACTIVE,6.915419816970825,-0.11,-0.4,-0.69,12,1,15,2,17760768,0,13
1733609202.2284071,0.0,True,-0.005624490790069103,-0.01209187414497137,3.07938814163208,23.75,46,14.807,0,0,False,,,,70,109,4,18,0.4162835478782654,176,81.217,,39.1423942,,-76.7304809,False,0.8568410550000181,92.641,,39.1423951,,-76.7304759,11.423,,39.1423951,,-76.7304759,-3.140458345413208,7.519798278808594,-21.333477020263672,unknown,POSCTL,,,,1003,,ACTIVE,1733609195.3129873,-0.11,-0.4,-0.64,12,1,15,2,17760768,0,13
