timestamp,airspeed,armed,attitude.pitch,attitude.roll,attitude.yaw,battery.current,battery.level,battery.voltage,commands.count,commands.next,ekf_ok,gimbal.pitch,gimbal.roll,gimbal.yaw,gps_0.eph,gps_0.epv,gps_0.fix_type,gps_0.satellites_visible,groundspeed,heading,home_location.alt,home_location.global_frame,home_location.lat,home_location.local_frame,home_location.lon,is_armable,last_heartbeat,location.global_frame.alt,location.global_frame.global_frame,location.global_frame.lat,location.global_frame.local_frame,location.global_frame.lon,location.global_relative_frame.alt,location.global_relative_frame.global_frame,location.global_relative_frame.lat,location.global_relative_frame.local_frame,location.global_relative_frame.lon,location.local_frame.down,location.local_frame.east,location.local_frame.north,ml_verdict,mode.name,mount_status[0],mount_status[1],mount_status[2],rangefinder.distance,rangefinder.voltage,system_status.state,timedelta,velocity[0],velocity[1],velocity[2],version.autopilot_type,version.major,version.minor,version.patch,version.raw_version,version.release,version.vehicle_type
1732730502.592437,0.0,True,-0.047409165650606155,0.0022345632314682007,3.0772457122802734,0.28,53,15.471,0,0,False,,,,58,79,4,24,0.1967792809009552,176,89.872,,39.1423632,,-76.7304898,False,0.04465716699996847,90.156,,39.1423622,,-76.730495,-0.012,,39.1423622,,-76.730495,-0.12273449450731277,5.380256652832031,-28.725608825683594,value_here,POSCTL,,,,3,,ACTIVE,1732730330.1814544,0.14,0.13,0.0,12,1,15,2,17760768,0,13
1732730502.6868737,0.0,True,-0.047823403030633926,0.003662679111585021,3.0754873752593994,0.28,53,15.471,0,0,False,,,,58,79,4,24,0.1967792809009552,176,89.872,,39.1423632,,-76.7304898,False,0.1330678149997766,90.154,,39.1423623,,-76.730495,-0.014,,39.1423623,,-76.730495,-0.117373988032341,5.3670501708984375,-28.719160079956055,value_here,POSCTL,,,,3,,ACTIVE,172.50541925430298,0.14,0.12,0.0,12,1,15,2,17760768,0,13
1732730502.7871928,0.0,True,-0.04947907105088234,0.004540559370070696,3.0752954483032227,0.28,53,15.471,0,0,False,,,,58,79,4,24,0.1967792809009552,176,89.872,,39.1423632,,-76.7304898,False,0.21448668500033818,90.147,,39.1423623,,-76.7304951,-0.021,,39.1423623,,-76.7304951,-0.11099353432655334,5.359041690826416,-28.718040466308594,value_here,POSCTL,,,,2,,ACTIVE,1732730330.2817736,0.13,0.12,0.0,12,1,15,2,17760768,0,13
1732730502.887314,0.0,True,-0.05296729877591133,0.004249438643455505,3.0768120288848877,0.28,53,15.471,0,0,False,,,,58,79,4,23,0.1967792809009552,176,89.872,,39.1423632,,-76.7304898,False,0.3379161849998127,90.145,,39.1423623,,-76.7304951,-0.023,,39.1423623,,-76.7304951,-0.10670391470193863,5.353686332702637,-28.719486236572266,value_here,POSCTL,,,,2,,ACTIVE,172.6055405139923,0.12,0.13,0.0,12,1,15,2,17760768,0,13
1732730502.9873505,0.0,True,-0.05726579204201698,0.005145352333784103,3.0769593715667725,0.95,54,15.471,0,0,False,,,,58,79,4,23,0.18582136929035187,176,89.872,,39.1423632,,-76.7304898,False,0.4213746479999827,90.14,,39.1423622,,-76.7304953,-0.028,,39.1423622,,-76.7304953,-0.1039384976029396,5.345858573913574,-28.723918914794922,value_here,POSCTL,,,,2,,ACTIVE,1732730330.38181,0.1,0.13,0.0,12,1,15,2,17760768,0,13
1732730503.087624,0.0,True,-0.06078381463885307,0.005864417180418968,3.0773842334747314,0.95,54,15.471,0,0,False,,,,58,79,4,23,0.18582136929035187,176,89.872,,39.1423632,,-76.7304898,False,0.540705815000365,90.136,,39.1423621,,-76.7304954,-0.032,,39.1423621,,-76.7304954,-0.10017939656972885,5.334845066070557,-28.73495101928711,value_here,POSCTL,,,,2,,ACTIVE,172.7058141231537,0.06,0.12,0.01,12,1,15,2,17760768,0,13
1732730503.187827,0.0,True,-0.06427691876888275,0.00673056673258543,3.077070713043213,0.95,54,15.471,0,0,False,,,,58,79,4,23,0.18582136929035187,176,89.872,,39.1423632,,-76.7304898,False,0.6270064070004082,90.133,,39.142362,,-76.7304955,-0.035,,39.142362,,-76.7304955,-0.0953148603439331,5.323803901672363,-28.74771499633789,value_here,POSCTL,,,,2,,ACTIVE,1732730330.482013,0.05,0.12,0.0,12,1,15,2,17760768,0,13
1732730503.287893,0.0,True,-0.06655465811491013,0.007244157139211893,3.077239990234375,0.95,54,15.471,0,0,False,,,,58,79,4,24,0.13615742325782776,176,89.872,,39.1423632,,-76.7304898,False,0.7386643330000879,90.13,,39.142362,,-76.7304955,-0.038,,39.142362,,-76.7304955,-0.0953148603439331,5.323803901672363,-28.74771499633789,value_here,POSCTL,,,,2,,ACTIVE,172.80588006973267,0.03,0.13,0.0,12,1,15,2,17760768,0,13
1732730503.3881147,0.0,True,-0.06893879920244217,0.008859151974320412,3.0751373767852783,0.95,54,15.471,0,0,False,,,,58,79,4,24,0.13615742325782776,176,89.872,,39.1423632,,-76.7304898,False,0.8288674260002153,90.126,,39.1423618,,-76.7304957,-0.042,,39.1423618,,-76.7304957,-0.09174228459596634,5.315533638000488,-28.761333465576172,value_here,POSCTL,,,,2,,ACTIVE,1732730330.5822346,0.0,0.13,0.0,12,1,15,2,17760768,0,13
1732730503.4881837,0.0,True,-0.06961582601070404,0.009839569218456745,3.073350667953491,0.95,54,15.471,0,0,False,,,,58,79,4,24,0.13615742325782776,176,89.872,,39.1423632,,-76.7304898,False,0.9342574069996772,90.125,,39.1423618,,-76.7304958,-0.043,,39.1423618,,-76.7304958,-0.08894415199756622,5.303855895996094,-28.77373695373535,value_here,POSCTL,,,,2,,ACTIVE,172.90594911575317,-0.02,0.14,0.0,12,1,15,2,17760768,0,13
1732730503.58822,0.0,True,-0.06994029879570007,0.010994753800332546,3.070697546005249,1.15,53,15.458,0,0,False,,,,58,79,4,24,0.13615594804286957,175,89.872,,39.1423632,,-76.7304898,False,0.05909922200044093,90.121,,39.1423617,,-76.7304959,-0.047,,39.1423617,,-76.7304959,-0.08598396182060242,5.29124116897583,-28.78349494934082,value_here,POSCTL,,,,2,,ACTIVE,1732730330.6822708,-0.03,0.13,0.01,12,1,15,2,17760768,0,13
1732730503.6885412,0.0,True,-0.06999978423118591,0.011858486570417881,3.068962335586548,1.15,53,15.458,0,0,False,,,,58,79,4,24,0.13615594804286957,175,89.872,,39.1423632,,-76.7304898,False,0.1341875739999523,90.119,,39.1423616,,-76.730496,-0.049,,39.1423616,,-76.730496,-0.08248727023601532,5.278977394104004,-28.789485931396484,value_here,POSCTL,,,,2,,ACTIVE,173.00627040863037,-0.04,0.13,0.02,12,1,15,2,17760768,0,13
1732730503.7886229,0.0,True,-0.07011743634939194,0.013182356022298336,3.066746473312378,1.15,53,15.458,0,0,False,,,,58,79,4,24,0.13615594804286957,175,89.872,,39.1423632,,-76.7304898,False,0.265768926000419,90.112,,39.1423616,,-76.7304962,-0.056,,39.1423616,,-76.7304962,-0.07727006077766418,5.268857002258301,-28.793621063232422,value_here,POSCTL,,,,2,,ACTIVE,1732730330.7823524,-0.05,0.12,0.04,12,1,15,2,17760768,0,13
1732730503.8888054,0.0,True,-0.07042962312698364,0.013827463611960411,3.0659995079040527,1.15,53,15.458,0,0,False,,,,58,79,4,24,0.13615594804286957,175,89.872,,39.1423632,,-76.7304898,False,0.36204137000004266,90.11,,39.1423616,,-76.7304962,-0.058,,39.1423616,,-76.7304962,-0.07214462757110596,5.258868217468262,-28.796194076538086,value_here,POSCTL,,,,2,,ACTIVE,173.10645294189453,-0.05,0.12,0.04,12,1,15,2,17760768,0,13
1732730503.9889371,0.0,True,-0.07132386416196823,0.01503658201545477,3.0647170543670654,1.15,53,15.458,0,0,False,,,,58,79,4,24,0.1311948448419571,175,89.872,,39.1423632,,-76.7304898,False,0.45734125900071376,90.104,,39.1423616,,-76.7304964,-0.064,,39.1423616,,-76.7304964,-0.06790561974048615,5.246560573577881,-28.79770851135254,value_here,POSCTL,,,,2,,ACTIVE,1732730330.8824842,-0.06,0.1,0.04,12,1,15,2,17760768,0,13
1732730504.08913,0.0,True,-0.07130001485347748,0.015573712065815926,3.0631332397460938,1.15,53,15.458,0,0,False,,,,58,79,4,23,0.1311948448419571,175,89.872,,39.1423632,,-76.7304898,False,0.5587060920006479,90.1,,39.1423616,,-76.7304965,-0.067,,39.1423616,,-76.7304965,-0.06230415031313896,5.236423969268799,-28.798887252807617,value_here,POSCTL,,,,2,,ACTIVE,173.2066457271576,-0.07,0.1,0.03,12,1,15,2,17760768,0,13
1732730504.1892715,0.0,True,-0.07191886752843857,0.01637796126306057,3.061676263809204,1.15,53,15.458,0,0,False,,,,58,79,4,23,0.1311948448419571,175,89.872,,39.1423632,,-76.7304898,False,0.6612194440003805,90.095,,39.1423615,,-76.7304967,-0.073,,39.1423615,,-76.7304967,-0.06230415031313896,5.236423969268799,-28.798887252807617,value_here,POSCTL,,,,2,,ACTIVE,1732730330.9826257,-0.08,0.09,0.03,12,1,15,2,17760768,0,13
1732730504.2894619,0.0,True,-0.07196804136037827,0.01699002832174301,3.0601346492767334,1.14,53,15.456,0,0,False,,,,58,79,4,23,0.12989762425422668,175,89.872,,39.1423632,,-76.7304898,False,0.764615648000472,90.092,,39.1423615,,-76.7304967,-0.076,,39.1423615,,-76.7304967,-0.05734139308333397,5.223172664642334,-28.800870895385742,value_here,POSCTL,,,,2,,ACTIVE,173.30683612823486,-0.09,0.09,0.03,12,1,15,2,17760768,0,13
1732730504.3896043,0.0,True,-0.07221367210149765,0.017739681527018547,3.0591585636138916,1.14,53,15.456,0,0,False,,,,58,79,4,23,0.12989762425422668,175,89.872,,39.1423632,,-76.7304898,False,0.8655833330003588,90.089,,39.1423615,,-76.7304968,-0.079,,39.1423615,,-76.7304968,-0.052959147840738297,5.212887287139893,-28.8020076751709,value_here,POSCTL,,,,2,,ACTIVE,1732730331.0827682,-0.08,0.08,0.03,12,1,15,2,17760768,0,13
1732730504.4898725,0.0,True,-0.07191533595323563,0.018213627859950066,3.0589756965637207,1.14,53,15.456,0,0,False,,,,58,79,4,24,0.12989762425422668,175,89.872,,39.1423632,,-76.7304898,False,0.9494848510003067,90.086,,39.1423616,,-76.730497,-0.082,,39.1423616,,-76.730497,-0.05017280578613281,5.2002716064453125,-28.79782485961914,value_here,POSCTL,,,,2,,ACTIVE,173.40710425376892,-0.08,0.07,0.03,12,1,15,2,17760768,0,13
1732730504.5910985,0.0,True,-0.07203520834445953,0.0189889557659626,3.058227300643921,1.14,53,15.456,0,0,False,,,,61,81,4,23,0.12989762425422668,175,89.872,,39.1423632,,-76.7304898,False,0.061912926000331936,90.085,,39.1423616,,-76.7304971,-0.083,,39.1423616,,-76.7304971,-0.04822034761309624,5.185646057128906,-28.79168701171875,value_here,POSCTL,,,,2,,ACTIVE,1732730331.1839943,-0.07,0.07,0.03,12,1,15,2,17760768,0,13
1732730504.6902049,0.0,True,-0.07156598567962646,0.019631948322057724,3.0569467544555664,1.14,53,15.456,0,0,False,,,,61,81,4,23,0.10500790178775787,175,89.872,,39.1423632,,-76.7304898,False,0.1522987770003965,90.085,,39.1423617,,-76.7304973,-0.083,,39.1423617,,-76.7304973,-0.048658665269613266,5.1692047119140625,-28.783906936645508,value_here,POSCTL,,,,2,,ACTIVE,173.50621056556702,-0.08,0.05,0.03,12,1,15,2,17760768,0,13
1732730504.7903202,0.0,True,-0.07082603871822357,0.020743004977703094,3.0553975105285645,1.14,53,15.456,0,0,False,,,,61,81,4,22,0.10500790178775787,175,89.872,,39.1423632,,-76.7304898,False,0.25322068500008754,90.085,,39.1423617,,-76.7304974,-0.083,,39.1423617,,-76.7304974,-0.0488339364528656,5.157291412353516,-28.777175903320312,value_here,POSCTL,,,,2,,ACTIVE,1732730331.2841096,-0.08,0.05,0.02,12,1,15,2,17760768,0,13
1732730504.8904228,0.0,True,-0.06976550817489624,0.020937800407409668,3.054476737976074,1.14,53,15.456,0,0,False,,,,61,81,4,22,0.10500790178775787,175,89.872,,39.1423632,,-76.7304898,False,0.35535683299985976,90.085,,39.1423618,,-76.7304976,-0.083,,39.1423618,,-76.7304976,-0.04784717783331871,5.143534183502197,-28.766681671142578,value_here,POSCTL,,,,2,,ACTIVE,173.60631322860718,-0.07,0.05,0.03,12,1,15,2,17760768,0,13
1732730504.9905877,0.0,True,-0.06819609552621841,0.021421823650598526,3.0534565448760986,1.46,53,15.441,0,0,False,,,,61,81,4,24,0.08942901343107224,174,89.872,,39.1423632,,-76.7304898,False,0.4572967220001374,90.083,,39.1423619,,-76.7304977,-0.085,,39.1423619,,-76.7304977,-0.04784717783331871,5.143534183502197,-28.766681671142578,value_here,POSCTL,,,,2,,ACTIVE,1732730331.3842745,-0.07,0.04,0.03,12,1,15,2,17760768,0,13
1732730505.0906801,0.0,True,-0.06752675026655197,0.021618453785777092,3.0525972843170166,1.46,53,15.441,0,0,False,,,,58,79,4,24,0.08942901343107224,174,89.872,,39.1423632,,-76.7304898,False,0.5447110920003979,90.08,,39.1423619,,-76.7304978,-0.088,,39.1423619,,-76.7304978,-0.045567311346530914,5.133124351501465,-28.759403228759766,value_here,POSCTL,,,,2,,ACTIVE,173.70640563964844,-0.08,0.04,0.03,12,1,15,2,17760768,0,13
1732730505.1908963,0.0,True,-0.06735817342996597,0.022364618256688118,3.051269054412842,1.46,53,15.441,0,0,False,,,,58,79,4,24,0.08942901343107224,174,89.872,,39.1423632,,-76.7304898,False,0.629974628999662,90.079,,39.142362,,-76.7304979,-0.089,,39.142362,,-76.7304979,-0.04295825585722923,5.123685836791992,-28.754863739013672,value_here,POSCTL,,,,2,,ACTIVE,1732730331.4844906,-0.08,0.03,0.03,12,1,15,2,17760768,0,13
1732730505.2917502,0.0,True,-0.0672365203499794,0.022372746840119362,3.050089120864868,1.46,53,15.441,0,0,False,,,,58,79,4,24,0.09603460878133774,174,89.872,,39.1423632,,-76.7304898,False,0.7614635729996735,90.078,,39.142362,,-76.7304979,-0.09,,39.142362,,-76.7304979,-0.04142816364765167,5.113603115081787,-28.751312255859375,value_here,POSCTL,,,,2,,ACTIVE,173.80725955963135,-0.08,0.03,0.03,12,1,15,2,17760768,0,13
1732730505.3917718,0.0,True,-0.06693154573440552,0.023146653547883034,3.048384189605713,1.46,53,15.441,0,0,False,,,,58,79,4,24,0.09603460878133774,174,89.872,,39.1423632,,-76.7304898,False,0.8422718880001412,90.078,,39.142362,,-76.7304981,0.0,,39.142362,,-76.7304981,-0.04187094792723656,5.102566719055176,-28.74716567993164,value_here,POSCTL,,,,2,,ACTIVE,1732730331.5845122,-0.08,0.02,0.03,12,1,15,2,17760768,0,13
1732730505.4918766,0.0,True,-0.06597332656383514,0.0238739512860775,3.0465402603149414,1.46,53,15.441,0,0,False,,,,58,79,4,24,0.09603460878133774,174,89.872,,39.1423632,,-76.7304898,False,0.9603988689996186,90.077,,39.1423621,,-76.7304982,-0.001,,39.1423621,,-76.7304982,-0.04064944386482239,5.093547344207764,-28.744400024414062,value_here,POSCTL,,,,2,,ACTIVE,173.90736436843872,-0.07,0.03,0.04,12,1,15,2,17760768,0,13
1732730505.5920527,0.0,True,-0.06309834867715836,0.024563629180192947,3.0457873344421387,4.33,52,15.368,0,0,False,,,,58,79,4,23,0.09603460878133774,174,89.872,,39.1423632,,-76.7304898,False,0.05602600000020175,90.075,,39.1423621,,-76.7304982,-0.002,,39.1423621,,-76.7304982,-0.038663484156131744,5.0897016525268555,-28.74150848388672,value_here,POSCTL,,,,2,,ACTIVE,1732730331.6846883,-0.08,0.03,0.05,12,1,15,2,17760768,0,13
1732730505.6922038,0.0,True,-0.05916190519928932,0.024279527366161346,3.0445613861083984,4.33,52,15.368,0,0,False,,,,58,79,4,24,0.08155182749032974,174,89.872,,39.1423632,,-76.7304898,False,0.16914046300007612,90.075,,39.1423621,,-76.7304983,-0.002,,39.1423621,,-76.7304983,-0.039335962384939194,5.0810418128967285,-28.73029327392578,value_here,POSCTL,,,,2,,ACTIVE,174.00751543045044,-0.07,0.03,0.05,12,1,15,2,17760768,0,13
1732730505.7924514,0.0,True,-0.05200169235467911,0.02726486325263977,3.0456225872039795,4.33,52,15.368,0,0,False,,,,58,79,4,23,0.08155182749032974,174,89.872,,39.1423632,,-76.7304898,False,0.25540716700015764,90.076,,39.1423622,,-76.7304984,-0.001,,39.1423622,,-76.7304984,-0.039335962384939194,5.0810418128967285,-28.73029327392578,value_here,POSCTL,,,,2,,ACTIVE,1732730331.784936,-0.07,0.0,0.04,12,1,15,2,17760768,0,13
1732730505.8924744,0.0,True,-0.04461461678147316,0.02731974795460701,3.047297716140747,4.33,52,15.368,0,0,False,,,,58,79,4,23,0.08155182749032974,174,89.872,,39.1423632,,-76.7304898,False,0.36657937100062554,90.077,,39.1423623,,-76.7304984,-0.001,,39.1423623,,-76.7304984,-0.040384747087955475,5.07409143447876,-28.71747589111328,value_here,POSCTL,,,,2,,ACTIVE,174.10753846168518,-0.06,0.02,0.05,12,1,15,2,17760768,0,13
1732730505.9926226,0.0,True,-0.03145841509103775,0.02732488140463829,3.047218084335327,4.33,52,15.368,0,0,False,,,,61,81,4,23,0.055210329592227936,174,89.872,,39.1423632,,-76.7304898,False,0.4620028890003596,90.079,,39.1423624,,-76.7304985,0.0,,39.1423624,,-76.7304985,-0.041966553777456284,5.067318916320801,-28.70366668701172,value_here,POSCTL,,,,2,,ACTIVE,1732730331.8850842,-0.04,0.0,0.04,12,1,15,2,17760768,0,13
1732730506.0928285,0.0,True,-0.015908069908618927,0.024522507563233376,3.04787015914917,4.33,52,15.368,0,0,False,,,,61,81,4,22,0.055210329592227936,174,89.872,,39.1423632,,-76.7304898,False,0.5630602040000667,90.081,,39.1423625,,-76.7304986,0.003,,39.1423625,,-76.7304986,-0.04484458267688751,5.059747219085693,-28.689559936523438,value_here,POSCTL,,,,2,,ACTIVE,174.2077443599701,-0.03,0.02,0.03,12,1,15,2,17760768,0,13
1732730506.193043,0.0,True,0.0012825857847929,0.017077922821044922,3.048099994659424,4.33,52,15.368,0,0,False,,,,61,81,4,22,0.055210329592227936,174,89.872,,39.1423632,,-76.7304898,False,0.6633631109998532,90.089,,39.1423628,,-76.7304987,0.011,,39.1423628,,-76.7304987,-0.05152953788638115,5.0510663986206055,-28.670068740844727,value_here,POSCTL,,,,8,,ACTIVE,1732730331.9852986,0.0,0.01,0.0,12,1,15,2,17760768,0,13
1732730506.293129,0.0,True,0.013647109270095825,0.0068681808188557625,3.047708034515381,14.12,51,15.137,0,0,False,,,,58,79,4,24,0.055210329592227936,174,89.872,,39.1423632,,-76.7304898,False,0.7692073700000037,90.095,,39.1423629,,-76.7304988,0.017,,39.1423629,,-76.7304988,-0.061613667756319046,5.041741847991943,-28.647579193115234,value_here,POSCTL,,,,8,,ACTIVE,174.30783033370972,0.0,0.01,0.0,12,1,15,2,17760768,0,13
1732730506.393212,0.0,True,0.019164545461535454,-0.01433087419718504,3.0426342487335205,14.12,51,15.137,0,0,False,,,,58,79,4,24,0.020649120211601257,174,89.872,,39.1423632,,-76.7304898,False,0.8576972040000328,90.116,,39.1423631,,-76.7304989,0.037,,39.1423631,,-76.7304989,-0.0793745294213295,5.034124374389648,-28.62843894958496,value_here,POSCTL,,,,8,,ACTIVE,1732730332.0853817,0.01,0.0,-0.11,12,1,15,2,17760768,0,13
1732730506.4934113,0.0,True,0.013619344681501389,-0.0364561453461647,3.0270228385925293,14.12,51,15.137,0,0,False,,,,56,77,4,23,0.020649120211601257,174,89.872,,39.1423632,,-76.7304898,False,0.9597555740001553,90.132,,39.1423632,,-76.7304989,0.054,,39.1423632,,-76.7304989,-0.11558883637189865,5.023479461669922,-28.604656219482422,value_here,POSCTL,,,,9,,ACTIVE,174.4080295562744,0.03,0.0,-0.21,12,1,15,2,17760768,0,13
1732730506.5944073,0.0,True,-0.009412250481545925,-0.04661249369382858,3.002427339553833,14.12,51,15.137,0,0,False,,,,57,78,4,22,0.020649120211601257,174,89.872,,39.1423632,,-76.7304898,False,0.07410398199954216,90.194,,39.1423635,,-76.7304991,0.116,,39.1423635,,-76.7304991,-0.16977933049201965,5.011934280395508,-28.578805923461914,value_here,POSCTL,,,,9,,ACTIVE,1732730332.1863778,0.06,-0.01,-0.46,12,1,15,2,17760768,0,13
1732730506.6937678,0.0,True,-0.022621817886829376,-0.05308822914958,2.970280885696411,14.12,51,15.137,0,0,False,,,,58,83,4,23,0.06966163218021393,170,89.872,,39.1423632,,-76.7304898,False,0.16504842599988478,90.242,,39.1423636,,-76.7304992,0.163,,39.1423636,,-76.7304992,-0.16977933049201965,5.011934280395508,-28.578805923461914,value_here,POSCTL,,,,9,,ACTIVE,174.50739002227783,0.06,0.0,-0.6,12,1,15,2,17760768,0,13
1732730506.793895,0.0,True,-0.0360572375357151,-0.049376845359802246,2.9374027252197266,14.12,51,15.137,0,0,False,,,,58,83,4,23,0.06966163218021393,170,89.872,,39.1423632,,-76.7304898,False,0.2704344999992827,90.357,,39.1423639,,-76.7304992,0.278,,39.1423639,,-76.7304992,-0.25254935026168823,5.005284786224365,-28.553895950317383,value_here,POSCTL,,,,34,,ACTIVE,1732730332.286505,0.05,0.03,-0.88,12,1,15,2,17760768,0,13
1732730506.8940432,0.0,True,-0.040936388075351715,-0.04234571382403374,2.9068901538848877,14.12,51,15.137,0,0,False,,,,58,83,4,23,0.06966163218021393,170,90.078,,39.142362,,-76.7304981,False,0.36030211099932785,90.434,,39.142364,,-76.7304993,0.356,,39.142364,,-76.7304993,-0.35826143622398376,5.002194881439209,-28.534093856811523,value_here,POSCTL,,,,34,,ACTIVE,174.6075382232666,0.03,0.04,-1.0,12,1,15,2,17760768,0,13
1732730506.9942634,0.0,True,-0.0417461134493351,-0.03610948845744133,2.8783082962036133,23.74,46,14.799,0,0,False,,,,66,91,4,23,0.06101445481181145,164,90.078,,39.142362,,-76.7304981,False,0.46931359299924225,90.5,,39.1423641,,-76.7304993,0.422,,39.1423641,,-76.7304993,-0.49563056230545044,5.000445365905762,-28.511201858520508,value_here,POSCTL,,,,34,,ACTIVE,1732730332.3867252,0.02,0.05,-1.08,12,1,15,2,17760768,0,13
1732730507.0943117,0.0,True,-0.04372105374932289,-0.025691967457532883,2.857428550720215,23.74,46,14.799,0,0,False,,,,66,91,4,22,0.06101445481181145,164,90.078,,39.142362,,-76.7304981,False,0.5563195739996445,90.663,,39.1423643,,-76.7304992,0.584,,39.1423643,,-76.7304992,-0.6263006329536438,5.003932476043701,-28.495344161987305,value_here,POSCTL,,,,34,,ACTIVE,174.70758652687073,0.0,0.06,-1.14,12,1,15,2,17760768,0,13
1732730507.194501,0.0,True,-0.04479821398854256,-0.016733910888433456,2.8418030738830566,23.74,46,14.799,0,0,False,,,,66,91,4,22,0.06101445481181145,164,90.078,,39.142362,,-76.7304981,False,0.6720381299992368,90.748,,39.1423644,,-76.7304992,0.669,,39.1423644,,-76.7304992,-0.7724477052688599,5.006575107574463,-28.4737491607666,value_here,POSCTL,,,,71,,ACTIVE,1732730332.4869144,-0.01,0.06,-1.16,12,1,15,2,17760768,0,13
1732730507.294586,0.0,True,-0.0492546446621418,-0.014790649525821209,2.833233594894409,23.74,46,14.799,0,0,False,,,,70,93,4,23,0.06101445481181145,164,90.078,,39.142362,,-76.7304981,False,0.7663124259997858,90.915,,39.1423646,,-76.7304992,0.836,,39.1423646,,-76.7304992,-0.9003179669380188,5.011250972747803,-28.458358764648438,value_here,POSCTL,,,,71,,ACTIVE,174.80767154693604,-0.04,0.06,-1.17,12,1,15,2,17760768,0,13
1732730507.3949306,0.0,True,-0.05370577424764633,-0.017761683091521263,2.8306798934936523,23.74,46,14.799,0,0,False,,,,70,93,4,21,0.09189985692501068,162,90.078,,39.142362,,-76.7304981,False,0.872593426000094,91.006,,39.1423647,,-76.7304991,0.927,,39.1423647,,-76.7304991,-0.9003179669380188,5.011250972747803,-28.458358764648438,value_here,POSCTL,,,,71,,ACTIVE,1732730332.587259,-0.06,0.06,-1.19,12,1,15,2,17760768,0,13
1732730507.4948769,0.0,True,-0.051920875906944275,-0.020106887444853783,2.832085132598877,23.74,46,14.799,0,0,False,,,,70,93,4,21,0.09189985692501068,162,90.078,,39.142362,,-76.7304981,False,0.9717257779993815,91.17,,39.1423648,,-76.7304989,1.092,,39.1423648,,-76.7304989,-1.0426660776138306,5.022017002105713,-28.445894241333008,value_here,POSCTL,,,,113,,ACTIVE,174.9076178073883,-0.11,0.06,-1.23,12,1,15,2,17760768,0,13
1732730507.5950656,0.0,True,-0.04611882567405701,-0.016270596534013748,2.8372349739074707,23.74,46,14.799,0,0,False,,,,66,91,4,21,0.09189985692501068,162,90.078,,39.142362,,-76.7304981,False,0.0713682779996816,91.248,,39.1423648,,-76.7304988,1.17,,39.1423648,,-76.7304988,-1.1883180141448975,5.037076950073242,-28.439285278320312,value_here,POSCTL,,,,113,,ACTIVE,1732730332.6874478,-0.12,0.07,-1.25,12,1,15,2,17760768,0,13
1732730507.695217,0.0,True,-0.04020858556032181,-0.008663496002554893,2.8427188396453857,24.44,41,14.641,0,0,False,,,,66,91,4,22,0.17167571187019348,162,90.078,,39.142362,,-76.7304981,False,0.17065870300029928,91.442,,39.1423648,,-76.7304985,1.363,,39.1423648,,-76.7304985,-1.3331162929534912,5.054211616516113,-28.435701370239258,value_here,POSCTL,,,,113,,ACTIVE,175.0077691078186,-0.15,0.07,-1.24,12,1,15,2,17760768,0,13
1732730507.7955174,0.0,True,-0.03703642636537552,-0.004184201825410128,2.852435350418091,24.44,41,14.641,0,0,False,,,,66,91,4,22,0.17167571187019348,162,90.078,,39.142362,,-76.7304981,False,0.24003309199997602,91.529,,39.1423649,,-76.7304984,1.45,,39.1423649,,-76.7304984,-1.49237859249115,5.077882289886475,-28.430553436279297,value_here,POSCTL,,,,113,,ACTIVE,1732730332.7877483,-0.16,0.07,-1.25,12,1,15,2,17760768,0,13
1732730507.8955069,0.0,True,-0.03658045083284378,-0.0021118500735610723,2.864797592163086,24.44,41,14.641,0,0,False,,,,66,91,4,23,0.17167571187019348,162,90.078,,39.142362,,-76.7304981,False,0.37233142599961866,91.71,,39.1423649,,-76.730498,1.631,,39.1423649,,-76.730498,-1.6408668756484985,5.1016154289245605,-28.42789077758789,value_here,POSCTL,,,,158,,ACTIVE,175.1077585220337,-0.18,0.06,-1.24,12,1,15,2,17760768,0,13
1732730507.9957078,0.0,True,-0.035836849361658096,-0.0007453056750819087,2.877303123474121,24.44,41,14.641,0,0,False,,,,66,91,4,23,0.17167571187019348,162,90.078,,39.142362,,-76.7304981,False,0.4475533329996324,91.803,,39.1423649,,-76.7304979,1.725,,39.1423649,,-76.7304979,-1.7964683771133423,5.129030704498291,-28.429920196533203,value_here,POSCTL,,,,158,,ACTIVE,1732730332.8879492,-0.19,0.06,-1.24,12,1,15,2,17760768,0,13
1732730508.0958662,0.0,True,-0.03192061930894852,0.0016590631566941738,2.890894651412964,24.44,41,14.641,0,0,False,,,,66,91,4,23,0.21316856145858765,165,90.078,,39.142362,,-76.7304981,False,0.5726717220004502,91.984,,39.1423648,,-76.7304974,1.906,,39.1423648,,-76.7304974,-1.9480029344558716,5.158190727233887,-28.4340763092041,value_here,POSCTL,,,,158,,ACTIVE,175.20791697502136,-0.21,0.04,-1.24,12,1,15,2,17760768,0,13
1732730508.1961644,0.0,True,-0.029439475387334824,0.004662641789764166,2.9051003456115723,24.44,41,14.641,0,0,False,,,,66,91,4,23,0.21316856145858765,165,90.078,,39.142362,,-76.7304981,False,0.6525001850004628,92.068,,39.1423648,,-76.7304972,1.989,,39.1423648,,-76.7304972,-1.9480029344558716,5.158190727233887,-28.4340763092041,value_here,POSCTL,,,,202,,ACTIVE,1732730332.9882474,-0.22,0.04,-1.24,12,1,15,2,17760768,0,13
1732730508.2961228,0.0,True,-0.027287285774946213,0.006953147705644369,2.918440341949463,24.44,41,14.641,0,0,False,,,,58,79,4,23,0.21316856145858765,165,90.078,,39.142362,,-76.7304981,False,0.7715703330004544,92.171,,39.1423648,,-76.730497,2.092,,39.1423648,,-76.730497,-2.103886604309082,5.18756103515625,-28.440582275390625,value_here,POSCTL,,,,202,,ACTIVE,175.30787539482117,-0.22,0.02,-1.25,12,1,15,2,17760768,0,13
1732730508.3962655,0.0,True,-0.023954186588525772,0.005595448426902294,2.9301671981811523,24.0,37,14.543,0,0,False,,,,58,79,4,23,0.23627853393554688,167,90.078,,39.142362,,-76.7304981,False,0.8569039069998325,92.342,,39.1423647,,-76.7304967,2.263,,39.1423647,,-76.7304967,-2.243161678314209,5.211928844451904,-28.451173782348633,value_here,POSCTL,,,,202,,ACTIVE,1732730333.08839,-0.23,0.01,-1.25,12,1,15,2,17760768,0,13
1732730508.4964244,0.0,True,-0.022843431681394577,0.009904135949909687,2.9399635791778564,24.0,37,14.543,0,0,False,,,,58,79,4,22,0.23627853393554688,167,90.078,,39.142362,,-76.7304981,False,0.9735297959996387,92.434,,39.1423646,,-76.7304964,2.355,,39.1423646,,-76.7304964,-2.3972957134246826,5.243642330169678,-28.458906173706055,value_here,POSCTL,,,,246,,ACTIVE,175.408034324646,-0.23,0.01,-1.25,12,1,15,2,17760768,0,13
1732730508.5965507,0.0,True,-0.020687511190772057,0.010799679905176163,2.949991226196289,24.0,37,14.543,0,0,False,,,,61,83,4,21,0.23627853393554688,167,90.078,,39.142362,,-76.7304981,False,0.0656172039998637,92.613,,39.1423645,,-76.730496,2.535,,39.1423645,,-76.730496,-2.5495285987854004,5.27390193939209,-28.46491050720215,value_here,POSCTL,,,,246,,ACTIVE,1732730333.1885164,-0.24,0.0,-1.26,12,1,15,2,17760768,0,13
1732730508.6967301,0.0,True,-0.019450467079877853,0.01243065856397152,2.956662654876709,24.0,37,14.543,0,0,False,,,,61,83,4,21,0.23627853393554688,167,90.078,,39.142362,,-76.7304981,False,0.17144803700011835,92.709,,39.1423645,,-76.7304958,2.631,,39.1423645,,-76.7304958,-2.6963746547698975,5.30720853805542,-28.474828720092773,value_here,POSCTL,,,,246,,ACTIVE,175.50821375846863,-0.24,-0.01,-1.27,12,1,15,2,17760768,0,13
1732730508.7969263,0.0,True,-0.018925249576568604,0.016222309321165085,2.9613914489746094,24.0,37,14.543,0,0,False,,,,61,83,4,21,0.24482733011245728,169,90.078,,39.142362,,-76.7304981,False,0.2745221669993043,92.88,,39.1423643,,-76.7304954,2.801,,39.1423643,,-76.7304954,-2.843433380126953,5.331212997436523,-28.49148941040039,value_here,POSCTL,,,,246,,ACTIVE,1732730333.2887125,-0.24,-0.04,-1.28,12,1,15,2,17760768,0,13
1732730508.8970888,0.0,True,-0.01415163092315197,0.015518026426434517,2.968353033065796,24.0,37,14.543,0,0,False,,,,61,83,4,21,0.24482733011245728,169,90.078,,39.142362,,-76.7304981,False,0.372889166999812,92.976,,39.1423642,,-76.7304953,2.898,,39.1423642,,-76.7304953,-2.9936892986297607,5.359539985656738,-28.509902954101562,value_here,POSCTL,,,,291,,ACTIVE,175.60837626457214,-0.24,-0.06,-1.29,12,1,15,2,17760768,0,13
1732730508.9973447,0.0,True,-0.011817071586847305,0.01464784238487482,2.9708151817321777,24.0,37,14.543,0,0,False,,,,61,83,4,21,0.24482733011245728,169,90.078,,39.142362,,-76.7304981,False,0.46978974099965853,93.159,,39.142364,,-76.7304948,3.081,,39.142364,,-76.7304948,-3.136765480041504,5.3880109786987305,-28.52916145324707,value_here,POSCTL,,,,291,,ACTIVE,1732730333.3889685,-0.24,-0.08,-1.3,12,1,15,2,17760768,0,13
1732730509.0973895,0.0,True,-0.011716330423951149,0.01768682524561882,2.9733846187591553,23.93,35,14.501,0,0,False,,,,61,83,4,22,0.2650013864040375,170,90.078,,39.142362,,-76.7304981,False,0.5665863519998311,93.243,,39.1423639,,-76.7304947,3.164,,39.1423639,,-76.7304947,-3.136765480041504,5.3880109786987305,-28.52916145324707,value_here,POSCTL,,,,291,,ACTIVE,175.70842099189758,-0.24,-0.1,-1.31,12,1,15,2,17760768,0,13
1732730509.1974955,0.0,True,-0.007955395616590977,0.018066996708512306,2.9741978645324707,23.93,35,14.501,0,0,False,,,,61,83,4,21,0.2650013864040375,170,90.078,,39.142362,,-76.7304981,False,0.6737272959999245,93.427,,39.1423636,,-76.7304944,3.348,,39.1423636,,-76.7304944,-3.298417329788208,5.410142421722412,-28.554706573486328,value_here,POSCTL,,,,338,,ACTIVE,1732730333.4890745,-0.23,-0.12,-1.33,12,1,15,2,17760768,0,13
1732730509.2977605,0.0,True,0.023357927799224854,-0.006442928686738014,2.9762206077575684,23.93,35,14.501,0,0,False,,,,61,83,4,21,0.2650013864040375,170,90.078,,39.142362,,-76.7304981,False,0.7547115179995671,93.516,,39.1423635,,-76.7304943,3.438,,39.1423635,,-76.7304943,-3.442739248275757,5.426530361175537,-28.578975677490234,value_here,POSCTL,,,,338,,ACTIVE,175.8086860179901,-0.21,-0.13,-1.35,12,1,15,2,17760768,0,13
1732730509.3981545,0.0,True,0.07721357047557831,-0.05153769999742508,2.975245237350464,23.93,35,14.501,0,0,False,,,,61,83,4,21,0.1878780722618103,170,90.078,,39.142362,,-76.7304981,False,0.8756436109997594,93.601,,39.1423634,,-76.7304942,3.523,,39.1423634,,-76.7304942,-3.603771448135376,5.446915149688721,-28.600452423095703,value_here,POSCTL,,,,338,,ACTIVE,1732730333.5894685,-0.18,-0.13,-1.36,12,1,15,2,17760768,0,13
1732730509.4982471,0.0,True,0.0858205035328865,-0.06398091465234756,2.9729340076446533,23.93,35,14.501,0,0,False,,,,61,83,4,21,0.1878780722618103,170,90.078,,39.142362,,-76.7304981,False,0.9571389259999705,93.794,,39.1423632,,-76.7304938,3.716,,39.1423632,,-76.7304938,-3.758043050765991,5.471085071563721,-28.617284774780273,value_here,POSCTL,,,,338,,ACTIVE,175.90877866744995,-0.08,-0.09,-1.35,12,1,15,2,17760768,0,13
1732730509.5983949,0.0,True,0.0603172667324543,-0.04804514721035957,2.9710335731506348,23.93,35,14.501,0,0,False,,,,61,83,4,22,0.1878780722618103,170,90.078,,39.142362,,-76.7304981,False,0.07648503600012191,93.984,,39.1423631,,-76.7304934,3.906,,39.1423631,,-76.7304934,-3.9149563312530518,5.493949890136719,-28.625864028930664,value_here,POSCTL,,,,386,,ACTIVE,1732730333.6896162,0.02,-0.05,-1.36,12,1,15,2,17760768,0,13
1732730509.6985285,0.0,True,0.04952390119433403,-0.02496231533586979,2.969480514526367,23.97,33,14.441,0,0,False,,,,61,83,4,22,0.1878780722618103,170,90.078,,39.142362,,-76.7304981,False,0.17376370300007693,94.086,,39.1423631,,-76.7304933,4.007,,39.1423631,,-76.7304933,-4.0759100914001465,5.521298408508301,-28.6235294342041,value_here,POSCTL,,,,386,,ACTIVE,176.0089123249054,0.07,-0.04,-1.38,12,1,15,2,17760768,0,13
1732730509.7988715,0.0,True,0.06167204678058624,-0.008566053584218025,2.969306230545044,23.97,33,14.441,0,0,False,,,,61,83,4,22,0.1309838742017746,170,90.078,,39.142362,,-76.7304981,False,0.2768479810001736,94.181,,39.1423632,,-76.7304931,4.103,,39.1423632,,-76.7304931,-4.0759100914001465,5.521298408508301,-28.6235294342041,value_here,POSCTL,,,,386,,ACTIVE,1732730333.7899592,0.12,-0.05,-1.38,12,1,15,2,17760768,0,13
1732730509.8986194,0.0,True,0.06107226014137268,-0.008706881664693356,2.969862461090088,23.97,33,14.441,0,0,False,,,,61,83,4,22,0.1309838742017746,170,90.078,,39.142362,,-76.7304981,False,0.3681454810002833,94.36,,39.1423633,,-76.7304928,4.282,,39.1423633,,-76.7304928,-4.240578651428223,5.5451459884643555,-28.611282348632812,value_here,POSCTL,,,,436,,ACTIVE,176.10866022109985,0.19,-0.06,-1.38,12,1,15,2,17760768,0,13
1732730509.998942,0.0,True,0.026049310341477394,-0.005810375325381756,2.9706645011901855,23.97,33,14.441,0,0,False,,,,61,83,4,22,0.1309838742017746,170,90.078,,39.142362,,-76.7304981,False,0.47068014700016647,94.457,,39.1423634,,-76.7304927,4.379,,39.1423634,,-76.7304927,-4.391959190368652,5.564901351928711,-28.592811584472656,value_here,POSCTL,,,,436,,ACTIVE,1732730333.8902817,0.23,-0.07,-1.36,12,1,15,2,17760768,0,13
1732730510.0990639,0.0,True,-0.029257971793413162,-0.008398057892918587,2.971529722213745,23.97,33,14.441,0,0,False,,,,61,83,4,23,0.2689935266971588,170,90.078,,39.142362,,-76.7304981,False,0.5757243320003909,94.653,,39.1423637,,-76.7304925,4.574,,39.1423637,,-76.7304925,-4.552823066711426,5.58027982711792,-28.56945037841797,value_here,POSCTL,,,,436,,ACTIVE,176.20878219604492,0.25,-0.09,-1.39,12,1,15,2,17760768,0,13
1732730510.19928,0.0,True,-0.04890912398695946,-0.012289200909435749,2.974050998687744,23.97,33,14.441,0,0,False,,,,57,77,4,24,0.2689935266971588,170,90.078,,39.142362,,-76.7304981,False,0.676824072999807,94.75,,39.1423638,,-76.7304924,4.671,,39.1423638,,-76.7304924,-4.713249683380127,5.590421676635742,-28.54454231262207,value_here,POSCTL,,,,436,,ACTIVE,1732730333.9904978,0.24,-0.1,-1.41,12,1,15,2,17760768,0,13
1732730510.3000076,0.0,True,-0.05589604750275612,-0.011921831406652927,2.9762704372406006,23.97,33,14.441,0,0,False,,,,57,77,4,24,0.2689935266971588,170,90.078,,39.142362,,-76.7304981,False,0.7796722029997909,94.948,,39.1423641,,-76.7304924,4.87,,39.1423641,,-76.7304924,-4.874046325683594,5.595332145690918,-28.522916793823242,value_here,POSCTL,,,,483,,ACTIVE,176.3095097541809,0.19,-0.11,-1.41,12,1,15,2,17760768,0,13
1732730510.3995755,0.0,True,-0.05914347991347313,-0.014139033854007721,2.9753575325012207,23.9,33,14.431,0,0,False,,,,57,77,4,24,0.2689935266971588,170,90.078,,39.142362,,-76.7304981,False,0.8749097400004757,95.039,,39.1423641,,-76.7304923,4.96,,39.1423641,,-76.7304923,-5.036418437957764,5.6005377769470215,-28.510181427001953,value_here,POSCTL,,,,483,,ACTIVE,1732730334.0900657,0.16,-0.11,-1.41,12,1,15,2,17760768,0,13
1732730510.4997454,0.0,True,-0.05851423367857933,-0.0163873378187418,2.9717020988464355,23.9,33,14.431,0,0,False,,,,57,77,4,23,0.17329207062721252,170,90.078,,39.142362,,-76.7304981,False,0.9725025540001297,95.24,,39.1423642,,-76.7304923,5.162,,39.1423642,,-76.7304923,-5.203906059265137,5.605007648468018,-28.50069236755371,value_here,POSCTL,,,,483,,ACTIVE,176.40967965126038,0.1,-0.1,-1.43,12,1,15,2,17760768,0,13
1732730510.5999556,0.0,True,-0.05439985170960426,-0.018116313964128494,2.968262195587158,23.9,33,14.431,0,0,False,,,,57,77,4,24,0.17329207062721252,170,90.078,,39.142362,,-76.7304981,False,0.07454479600073682,95.334,,39.1423643,,-76.7304922,5.256,,39.1423643,,-76.7304922,-5.373222351074219,5.610769748687744,-28.495033264160156,value_here,POSCTL,,,,537,,ACTIVE,1732730334.190276,0.07,-0.09,-1.49,12,1,15,2,17760768,0,13
1732730510.700039,0.0,True,-0.04791605845093727,-0.016124866902828217,2.963688850402832,23.9,33,14.431,0,0,False,,,,57,77,4,22,0.17329207062721252,170,90.078,,39.142362,,-76.7304981,False,0.1741294260000359,95.542,,39.1423643,,-76.7304921,5.464,,39.1423643,,-76.7304921,-5.373222351074219,5.610769748687744,-28.495033264160156,value_here,POSCTL,,,,537,,ACTIVE,176.50976300239563,0.02,-0.08,-1.59,12,1,15,2,17760768,0,13
1732730510.8001478,0.0,True,-0.039958566427230835,-0.015828927978873253,2.9602890014648438,23.9,33,14.431,0,0,False,,,,58,78,4,22,0.08717220276594162,169,90.078,,39.142362,,-76.7304981,False,0.27899327800059837,95.66,,39.1423643,,-76.730492,5.582,,39.1423643,,-76.730492,-5.5515217781066895,5.619419574737549,-28.495445251464844,value_here,POSCTL,,,,537,,ACTIVE,1732730334.2903848,0.0,-0.08,-1.62,12,1,15,2,17760768,0,13
1732730510.9002967,0.0,True,-0.026531841605901718,-0.01599499210715294,2.9569339752197266,23.9,33,14.431,0,0,False,,,,58,78,4,22,0.08717220276594162,169,90.078,,39.142362,,-76.7304981,False,0.37997027700021135,95.776,,39.1423643,,-76.7304919,5.698,,39.1423643,,-76.7304919,-5.740117073059082,5.634590148925781,-28.497901916503906,value_here,POSCTL,,,,594,,ACTIVE,176.60991191864014,-0.03,-0.08,-1.67,12,1,15,2,17760768,0,13
1732730511.0004365,0.0,True,-0.013382244855165482,-0.015988389030098915,2.9538021087646484,23.9,33,14.431,0,0,False,,,,58,78,4,23,0.08717220276594162,169,90.078,,39.142362,,-76.7304981,False,0.46510050000051706,96.014,,39.1423642,,-76.7304918,5.936,,39.1423642,,-76.7304918,-5.9357218742370605,5.646543502807617,-28.50335693359375,value_here,POSCTL,,,,594,,ACTIVE,1732730334.3905246,-0.04,-0.08,-1.74,12,1,15,2,17760768,0,13
1732730511.1016073,0.0,True,-0.0074136992916464806,-0.014424578286707401,2.950263261795044,25.37,32,14.365,0,0,False,,,,58,78,4,22,0.08717220276594162,169,90.078,,39.142362,,-76.7304981,False,0.5821614250007769,96.124,,39.1423642,,-76.7304916,6.046,,39.1423642,,-76.7304916,-6.135951519012451,5.665707111358643,-28.506933212280273,value_here,POSCTL,,,,594,,ACTIVE,176.71108269691467,-0.04,-0.08,-1.76,12,1,15,2,17760768,0,13
1732730511.2007444,0.0,True,-0.007263218052685261,-0.013115528039634228,2.9477169513702393,25.37,32,14.365,0,0,False,,,,58,78,4,21,0.09220045059919357,169,90.078,,39.142362,,-76.7304981,False,0.6722773700003017,96.379,,39.1423641,,-76.7304913,6.301,,39.1423641,,-76.7304913,-6.342600345611572,5.688002109527588,-28.510494232177734,value_here,POSCTL,,,,594,,ACTIVE,1732730334.4896617,-0.03,-0.08,-1.84,12,1,15,2,17760768,0,13
1732730511.3009074,0.0,True,-0.00806268211454153,-0.013329937122762203,2.9454562664031982,25.37,32,14.365,0,0,False,,,,59,81,4,22,0.09220045059919357,169,90.078,,39.142362,,-76.7304981,False,0.7734346660008669,96.496,,39.1423641,,-76.7304912,6.418,,39.1423641,,-76.7304912,-6.543447494506836,5.704137325286865,-28.512176513671875,value_here,POSCTL,,,,655,,ACTIVE,176.81124567985535,-0.02,-0.09,-1.88,12,1,15,2,17760768,0,13
1732730511.4019547,0.0,True,-0.009060677140951157,-0.012751435860991478,2.94352388381958,25.37,32,14.365,0,0,False,,,,63,81,4,23,0.09220045059919357,169,90.078,,39.142362,,-76.7304981,False,0.8831770730002972,96.77,,39.1423641,,-76.7304908,6.692,,39.1423641,,-76.7304908,-6.765817165374756,5.733091831207275,-28.510822296142578,value_here,POSCTL,,,,655,,ACTIVE,1732730334.590709,-0.01,-0.09,-1.95,12,1,15,2,17760768,0,13
1732730511.502138,0.0,True,-0.01100309006869793,-0.00959416851401329,2.9418485164642334,25.37,32,14.365,0,0,False,,,,63,81,4,23,0.10156267136335373,168,90.078,,39.142362,,-76.7304981,False,0.9832533880007759,96.908,,39.1423642,,-76.7304907,6.83,,39.1423642,,-76.7304907,-6.765817165374756,5.733091831207275,-28.510822296142578,value_here,POSCTL,,,,655,,ACTIVE,176.91142892837524,0.0,-0.09,-1.99,12,1,15,2,17760768,0,13
1732730511.602123,0.0,True,-0.012111436575651169,-0.003336292924359441,2.9402899742126465,25.37,32,14.365,0,0,False,,,,59,81,4,23,0.10156267136335373,168,90.078,,39.142362,,-76.7304981,False,0.0780577590003304,97.167,,39.1423642,,-76.7304904,7.089,,39.1423642,,-76.7304904,-7.00096321105957,5.756321907043457,-28.508691787719727,value_here,POSCTL,,,,727,,ACTIVE,1732730334.690694,0.0,-0.1,-2.08,12,1,15,2,17760768,0,13
1732730511.7015104,0.0,True,-0.01051982119679451,-0.0005433488404378295,2.939311981201172,25.37,32,14.365,0,0,False,,,,59,81,4,23,0.10156267136335373,168,90.078,,39.142362,,-76.7304981,False,0.1469281850004336,97.31,,39.1423642,,-76.7304902,7.232,,39.1423642,,-76.7304902,-7.227368354797363,5.7810235023498535,-28.507320404052734,value_here,POSCTL,,,,727,,ACTIVE,177.0108163356781,0.0,-0.11,-2.12,12,1,15,2,17760768,0,13
1732730511.8018012,0.0,True,-0.00912521593272686,0.00024988013319671154,2.938547372817993,26.74,30,14.295,0,0,False,,,,65,91,4,22,0.12561587989330292,168,90.078,,39.142362,,-76.7304981,False,0.2764898149998771,97.451,,39.1423642,,-76.7304899,7.373,,39.1423642,,-76.7304899,-7.465987682342529,5.812923908233643,-28.507570266723633,value_here,POSCTL,,,,727,,ACTIVE,1732730334.7909849,-0.01,-0.11,-2.16,12,1,15,2,17760768,0,13
1732730511.9018908,0.0,True,-0.007610303349792957,-2.147288978449069e-05,2.9380407333374023,26.74,30,14.295,0,0,False,,,,65,91,4,24,0.12561587989330292,168,90.078,,39.142362,,-76.7304981,False,0.37569592599993484,97.744,,39.1423642,,-76.7304896,7.665,,39.1423642,,-76.7304896,-7.707311630249023,5.838399410247803,-28.507694244384766,value_here,POSCTL,,,,727,,ACTIVE,177.1109058856964,-0.01,-0.13,-2.26,12,1,15,2,17760768,0,13
1732730512.0028718,0.0,True,-0.006517985835671425,-0.00016744827735237777,2.9379723072052,26.74,30,14.295,0,0,False,,,,65,91,4,24,0.12561587989330292,168,90.078,,39.142362,,-76.7304981,False,0.4787981290000971,98.063,,39.1423642,,-76.7304892,7.984,,39.1423642,,-76.7304892,-7.972555160522461,5.859567642211914,-28.506732940673828,value_here,POSCTL,,,,799,,ACTIVE,1732730334.8919659,-0.01,-0.15,-2.35,12,1,15,2,17760768,0,13
1732730512.1021855,0.0,True,-0.009496072307229042,0.0013366756029427052,2.9381086826324463,26.74,30,14.295,0,0,False,,,,61,85,4,24,0.12561587989330292,168,90.078,,39.142362,,-76.7304981,False,0.5585002960006022,98.22,,39.1423642,,-76.7304891,8.142,,39.1423642,,-76.7304891,-8.231546401977539,5.884527683258057,-28.506906509399414,value_here,POSCTL,,,,799,,ACTIVE,177.21021962165833,-0.01,-0.16,-2.39,12,1,15,2,17760768,0,13
1732730512.2032757,0.0,True,-0.009220685809850693,0.00416011456400156,2.9378111362457275,26.74,30,14.295,0,0,False,,,,61,85,4,24,0.17145587503910065,168,90.078,,39.142362,,-76.7304981,False,0.6793285920002745,98.382,,39.1423642,,-76.7304889,8.304,,39.1423642,,-76.7304889,-8.516329765319824,5.905117034912109,-28.509469985961914,value_here,POSCTL,,,,799,,ACTIVE,1732730334.993056,-0.01,-0.17,-2.45,12,1,15,2,17760768,0,13
1732730512.30254,0.0,True,-0.007770088035613298,0.004590286407619715,2.937934398651123,26.74,30,14.295,0,0,False,,,,57,77,4,24,0.17145587503910065,168,90.078,,39.142362,,-76.7304981,False,0.7657180550004341,98.721,,39.1423641,,-76.7304887,8.643,,39.1423641,,-76.7304887,-8.516329765319824,5.905117034912109,-28.509469985961914,value_here,POSCTL,,,,884,,ACTIVE,177.30948400497437,-0.01,-0.19,-2.54,12,1,15,2,17760768,0,13
1732730512.4036758,0.0,True,-0.004186007659882307,0.006714289542287588,2.938009738922119,26.74,30,14.295,0,0,False,,,,57,77,4,24,0.17145587503910065,168,90.078,,39.142362,,-76.7304981,False,0.8798425920003865,98.876,,39.1423641,,-76.7304885,8.797,,39.1423641,,-76.7304885,-8.777057647705078,5.925450325012207,-28.512802124023438,value_here,POSCTL,,,,884,,ACTIVE,1732730335.0941918,-0.01,-0.2,-2.6,12,1,15,2,17760768,0,13
1732730512.5029314,0.0,True,-0.007584917359054089,0.010666034184396267,2.9392216205596924,27.32,29,14.261,0,0,False,,,,61,85,4,24,0.21582423150539398,168,90.078,,39.142362,,-76.7304981,False,0.9692864070002543,99.223,,39.1423641,,-76.7304881,9.145,,39.1423641,,-76.7304881,-9.073354721069336,5.953803062438965,-28.513309478759766,value_here,POSCTL,,,,884,,ACTIVE,177.40873956680298,0.0,-0.21,-2.62,12,1,15,2,17760768,0,13
1732730512.6033554,0.0,True,-0.008717452175915241,0.012920999899506569,2.940426826477051,27.32,29,14.261,0,0,False,,,,61,85,4,23,0.21582423150539398,168,90.078,,39.142362,,-76.7304981,False,0.0733796849999635,99.384,,39.1423641,,-76.7304879,9.306,,39.1423641,,-76.7304879,-9.34797477722168,5.981269836425781,-28.516569137573242,value_here,POSCTL,,,,884,,ACTIVE,1732730335.1946158,-0.01,-0.22,-2.59,12,1,15,2,17760768,0,13
1732730512.7033086,0.0,True,-0.005443572998046875,0.013307343237102032,2.941235065460205,27.32,29,14.261,0,0,False,,,,61,85,4,24,0.21582423150539398,168,90.078,,39.142362,,-76.7304981,False,0.1749760550001156,99.717,,39.142364,,-76.7304876,9.639,,39.142364,,-76.7304876,-9.611054420471191,6.002325534820557,-28.522310256958008,value_here,POSCTL,,,,971,,ACTIVE,177.50869274139404,-0.01,-0.24,-2.58,12,1,15,2,17760768,0,13
1732730512.8043554,0.0,True,-0.004652932286262512,0.011403009295463562,2.94111704826355,27.32,29,14.261,0,0,False,,,,57,77,4,23,0.21582423150539398,168,90.078,,39.142362,,-76.7304981,False,0.28070792600010464,99.875,,39.142364,,-76.7304874,9.796,,39.142364,,-76.7304874,-9.896933555603027,6.021149635314941,-28.52889060974121,value_here,POSCTL,,,,971,,ACTIVE,1732730335.2956626,-0.01,-0.25,-2.58,12,1,15,2,17760768,0,13
1732730512.9036624,0.0,True,-0.0029000064823776484,0.012078354135155678,2.9409689903259277,27.32,29,14.261,0,0,False,,,,57,77,4,23,0.26612433791160583,168,90.078,,39.142362,,-76.7304981,False,0.3681191290006609,100.193,,39.1423639,,-76.7304872,10.115,,39.1423639,,-76.7304872,-10.156909942626953,6.03729772567749,-28.536094665527344,value_here,POSCTL,,,,971,,ACTIVE,177.60799980163574,-0.01,-0.27,-2.6,12,1,15,2,17760768,0,13
1732730513.0038836,0.0,True,-0.0022279475815594196,0.012529045343399048,2.940598487854004,27.32,29,14.261,0,0,False,,,,57,77,4,23,0.26612433791160583,168,90.078,,39.142362,,-76.7304981,False,0.4672239070005162,100.38,,39.1423639,,-76.7304872,10.301,,39.1423639,,-76.7304872,-10.442900657653809,6.043073654174805,-28.544109344482422,value_here,POSCTL,,,,1059,,ACTIVE,1732730335.3958838,-0.01,-0.29,-2.62,12,1,15,2,17760768,0,13
1732730513.1047337,0.0,True,-0.00028536535683088005,0.008945485576987267,2.939650535583496,27.32,29,14.261,0,0,False,,,,57,77,4,24,0.26612433791160583,168,90.078,,39.142362,,-76.7304981,False,0.5810940920000576,100.694,,39.1423638,,-76.730487,10.615,,39.1423638,,-76.730487,-10.70290756225586,6.058520793914795,-28.55489730834961,value_here,POSCTL,,,,1059,,ACTIVE,177.7088499069214,-0.01,-0.32,-2.64,12,1,15,2,17760768,0,13
1732730513.2041295,0.0,True,0.0027361891698092222,0.007893821224570274,2.9381749629974365,26.68,28,14.227,0,0,False,,,,53,75,4,24,0.3380606472492218,168,90.078,,39.142362,,-76.7304981,False,0.6735008700006802,100.866,,39.1423637,,-76.730487,10.788,,39.1423637,,-76.730487,-10.70290756225586,6.058520793914795,-28.55489730834961,value_here,POSCTL,,,,1059,,ACTIVE,1732730335.4952796,-0.01,-0.34,-2.65,12,1,15,2,17760768,0,13
1732730513.3050897,0.0,True,0.0031900324393063784,0.0052637867629528046,2.9360625743865967,26.68,28,14.227,0,0,False,,,,53,75,4,24,0.3380606472492218,168,90.078,,39.142362,,-76.7304981,False,0.7812125360005666,101.193,,39.1423636,,-76.730487,11.115,,39.1423636,,-76.730487,-11.002309799194336,6.054315090179443,-28.564348220825195,value_here,POSCTL,,,,1142,,ACTIVE,177.80981016159058,0.0,-0.37,-2.67,12,1,15,2,17760768,0,13
1732730513.4045703,0.0,True,0.0017216879641637206,0.003137194784358144,2.9327545166015625,26.68,28,14.227,0,0,False,,,,53,75,4,24,0.3380606472492218,168,90.078,,39.142362,,-76.7304981,False,0.860636796000108,101.349,,39.1423635,,-76.7304869,11.271,,39.1423635,,-76.7304869,-11.258927345275879,6.063390731811523,-28.575170516967773,value_here,POSCTL,,,,1142,,ACTIVE,1732730335.5947602,0.0,-0.37,-2.68,12,1,15,2,17760768,0,13
1732730513.5053868,0.0,True,0.004875206388533115,0.0005667496589012444,2.9283318519592285,26.68,28,14.227,0,0,False,,,,53,75,4,24,0.38142669200897217,167,90.078,,39.142362,,-76.7304981,False,0.9817432400004691,101.516,,39.1423635,,-76.7304868,11.438,,39.1423635,,-76.7304868,-11.513535499572754,6.074169635772705,-28.588565826416016,value_here,POSCTL,,,,1142,,ACTIVE,177.91062664985657,0.0,-0.37,-2.69,12,1,15,2,17760768,0,13
1732730513.6048627,0.0,True,0.004941388498991728,0.0017917124787345529,2.9238462448120117,26.68,28,14.227,0,0,False,,,,53,75,4,24,0.38142669200897217,167,90.078,,39.142362,,-76.7304981,False,0.06824157400023978,101.815,,39.1423633,,-76.7304868,11.737,,39.1423633,,-76.7304868,-11.778610229492188,6.0744781494140625,-28.599475860595703,value_here,POSCTL,,,,1142,,ACTIVE,1732730335.694236,0.01,-0.39,-2.73,12,1,15,2,17760768,0,13
1732730513.7055514,0.0,True,0.0024624657817184925,-0.001221177401021123,2.919800281524658,26.68,28,14.227,0,0,False,,,,53,75,4,24,0.38142669200897217,167,90.078,,39.142362,,-76.7304981,False,0.18281946200022503,101.989,,39.1423633,,-76.7304868,11.911,,39.1423633,,-76.7304868,-12.05221176147461,6.074965476989746,-28.608617782592773,value_here,POSCTL,,,,1221,,ACTIVE,178.01131534576416,0.02,-0.4,-2.74,12,1,15,2,17760768,0,13
1732730513.8065314,0.0,True,0.003004704136401415,-0.001617839210666716,2.9158473014831543,26.99,27,14.203,0,0,False,,,,58,83,4,24,0.38142669200897217,167,90.078,,39.142362,,-76.7304981,False,0.2849459070002922,102.296,,39.1423632,,-76.7304867,12.218,,39.1423632,,-76.7304867,-12.307510375976562,6.079528331756592,-28.61781883239746,value_here,POSCTL,,,,1221,,ACTIVE,1732730335.795216,0.02,-0.41,-2.75,12,1,15,2,17760768,0,13
1732730513.9059262,0.0,True,0.004395266994833946,-0.0013735604006797075,2.912696123123169,26.99,27,14.203,0,0,False,,,,58,83,4,24,0.4238045811653137,167,90.078,,39.142362,,-76.7304981,False,0.3772487030000775,102.452,,39.1423632,,-76.7304868,12.374,,39.1423632,,-76.7304868,-12.307510375976562,6.079528331756592,-28.61781883239746,value_here,POSCTL,,,,1221,,ACTIVE,178.11071014404297,0.02,-0.41,-2.77,12,1,15,2,17760768,0,13
1732730514.0060475,0.0,True,0.005122996401041746,-0.0058365920558571815,2.908600330352783,26.99,27,14.203,0,0,False,,,,53,75,4,24,0.4238045811653137,167,90.078,,39.142362,,-76.7304981,False,0.4789413329999661,102.788,,39.1423631,,-76.7304869,12.71,,39.1423631,,-76.7304869,-12.590394973754883,6.07199239730835,-28.626373291015625,value_here,POSCTL,,,,1290,,ACTIVE,1732730335.8953373,0.03,-0.43,-2.78,12,1,15,2,17760768,0,13
1732730514.106227,0.0,True,0.0033505908213555813,-0.00914096925407648,2.9063687324523926,26.99,27,14.203,0,0,False,,,,53,75,4,24,0.4238045811653137,167,90.078,,39.142362,,-76.7304981,False,0.5812995730002513,102.933,,39.142363,,-76.7304869,12.854,,39.142363,,-76.7304869,-12.849602699279785,6.0640411376953125,-28.635011672973633,value_here,POSCTL,,,,1290,,ACTIVE,178.2108895778656,0.03,-0.44,-2.75,12,1,15,2,17760768,0,13
1732730514.2073236,0.0,True,0.0011530619813129306,-0.010105838999152184,2.9048750400543213,26.99,27,14.203,0,0,False,,,,53,75,4,24,0.4568445086479187,166,90.078,,39.142362,,-76.7304981,False,0.68573107300017,103.244,,39.1423629,,-76.7304872,13.165,,39.1423629,,-76.7304872,-13.096253395080566,6.052953243255615,-28.6419734954834,value_here,POSCTL,,,,1290,,ACTIVE,1732730335.996434,0.06,-0.45,-2.52,12,1,15,2,17760768,0,13
1732730514.3069017,0.0,True,-0.0025165581610053778,-0.013514070771634579,2.9041941165924072,26.99,27,14.203,0,0,False,,,,53,75,4,22,0.4568445086479187,166,90.078,,39.142362,,-76.7304981,False,0.7621955730000991,103.392,,39.1423629,,-76.7304873,13.314,,39.1423629,,-76.7304873,-13.340295791625977,6.031105041503906,-28.64459228515625,value_here,POSCTL,,,,1290,,ACTIVE,178.31046772003174,0.07,-0.45,-2.33,12,1,15,2,17760768,0,13
1732730514.406743,0.0,True,-0.006528523284941912,-0.019068649038672447,2.9045519828796387,26.99,27,14.203,0,0,False,,,,53,75,4,22,0.4568445086479187,166,90.078,,39.142362,,-76.7304981,False,0.8798349810003856,103.606,,39.1423629,,-76.7304875,13.527,,39.1423629,,-76.7304875,-13.528971672058105,6.021726131439209,-28.6469783782959,value_here,POSCTL,,,,1386,,ACTIVE,1732730336.0962753,0.08,-0.43,-1.9,12,1,15,2,17760768,0,13
1732730514.506862,0.0,True,-0.010705399326980114,-0.021161891520023346,2.905332326889038,18.39,26,14.354,0,0,False,,,,53,75,4,24,0.4568445086479187,166,90.078,,39.142362,,-76.7304981,False,0.9707192030000442,103.698,,39.1423629,,-76.7304875,13.62,,39.1423629,,-76.7304875,-13.674708366394043,6.009439468383789,-28.646900177001953,value_here,POSCTL,,,,1386,,ACTIVE,178.41058659553528,0.09,-0.43,-1.61,12,1,15,2,17760768,0,13
1732730514.6071227,0.0,True,-0.01108940877020359,-0.020995251834392548,2.9103188514709473,18.39,26,14.354,0,0,False,,,,53,75,4,24,0.44769835472106934,166,90.078,,39.142362,,-76.7304981,False,0.07207909299995663,103.809,,39.1423629,,-76.7304877,13.731,,39.1423629,,-76.7304877,-13.772988319396973,5.997907638549805,-28.645889282226562,value_here,POSCTL,,,,1386,,ACTIVE,1732730336.196536,0.11,-0.42,-1.16,12,1,15,2,17760768,0,13
1732730514.707164,0.0,True,-0.011029421351850033,-0.01763492450118065,2.9146697521209717,18.39,26,14.354,0,0,False,,,,53,75,4,24,0.44769835472106934,166,90.078,,39.142362,,-76.7304981,False,0.17218757400041795,103.856,,39.142363,,-76.7304878,13.777,,39.142363,,-76.7304878,-13.843876838684082,5.9781904220581055,-28.64142608642578,value_here,POSCTL,,,,1419,,ACTIVE,178.5106279850006,0.12,-0.42,-1.01,12,1,15,2,17760768,0,13
1732730514.8074782,0.0,True,-0.013380983844399452,-0.023900911211967468,2.917245864868164,18.39,26,14.354,0,0,False,,,,53,75,4,24,0.44769835472106934,166,90.078,,39.142362,,-76.7304981,False,0.2720810190003249,103.888,,39.142363,,-76.7304879,13.81,,39.142363,,-76.7304879,-13.843876838684082,5.9781904220581055,-28.64142608642578,value_here,POSCTL,,,,1419,,ACTIVE,1732730336.2968502,0.11,-0.41,-0.91,12,1,15,2,17760768,0,13
1732730514.9076257,0.0,True,-0.02004455216228962,-0.07622604072093964,2.916987895965576,18.39,26,14.354,0,0,False,,,,53,75,4,24,0.3806469440460205,167,90.078,,39.142362,,-76.7304981,False,0.3597034260001237,103.951,,39.142363,,-76.7304881,13.872,,39.142363,,-76.7304881,-13.894928932189941,5.964604377746582,-28.63539695739746,value_here,POSCTL,,,,1419,,ACTIVE,178.61077547073364,0.11,-0.35,-0.89,12,1,15,2,17760768,0,13
1732730515.0079181,0.0,True,-0.03965271636843681,-0.15740633010864258,2.9155097007751465,18.39,26,14.354,0,0,False,,,,53,75,4,24,0.3806469440460205,167,90.078,,39.142362,,-76.7304981,False,0.47152666700003465,103.987,,39.1423631,,-76.7304882,13.909,,39.1423631,,-76.7304882,-13.945454597473145,5.9532084465026855,-28.629558563232422,value_here,POSCTL,,,,1419,,ACTIVE,1732730336.3971426,0.11,-0.28,-0.96,12,1,15,2,17760768,0,13
1732730515.10798,0.0,True,-0.05270399525761604,-0.2317190021276474,2.9120469093322754,18.39,26,14.354,0,0,False,,,,53,75,4,24,0.3806469440460205,167,90.078,,39.142362,,-76.7304981,False,0.567360130000452,104.057,,39.1423631,,-76.7304881,13.978,,39.1423631,,-76.7304881,-14.008182525634766,5.961469650268555,-28.624696731567383,value_here,POSCTL,,,,1419,,ACTIVE,178.71083736419678,0.11,-0.06,-1.12,12,1,15,2,17760768,0,13
1732730515.2082596,0.0,True,-0.03944375738501549,-0.25732728838920593,2.905805826187134,24.32,27,14.269,0,0,False,,,,53,75,4,24,0.3806469440460205,167,90.078,,39.142362,,-76.7304981,False,0.670209388999865,104.1,,39.1423632,,-76.7304879,14.022,,39.1423632,,-76.7304879,-14.079289436340332,5.989246368408203,-28.61731719970703,value_here,POSCTL,,,,1419,,ACTIVE,1732730336.4974222,0.11,0.09,-1.17,12,1,15,2,17760768,0,13
1732730515.3084342,0.0,True,-0.021536339074373245,-0.22970014810562134,2.900383472442627,24.32,27,14.269,0,0,False,,,,53,75,4,24,0.2516495883464813,166,90.078,,39.142362,,-76.7304981,False,0.7731653520004329,104.215,,39.1423633,,-76.7304872,14.136,,39.1423633,,-76.7304872,-14.170514106750488,6.03741979598999,-28.605758666992188,value_here,POSCTL,,,,1419,,ACTIVE,178.81101202964783,0.13,0.37,-1.19,12,1,15,2,17760768,0,13
1732730515.4085371,0.0,True,-0.019306687638163567,-0.18452124297618866,2.8975419998168945,24.32,27,14.269,0,0,False,,,,53,75,4,24,0.2516495883464813,166,90.078,,39.142362,,-76.7304981,False,0.8577164630005427,104.25,,39.1423634,,-76.7304867,14.172,,39.1423634,,-76.7304867,-14.243306159973145,6.117429733276367,-28.580982208251953,value_here,POSCTL,,,,1419,,ACTIVE,1732730336.5975251,0.16,0.47,-1.17,12,1,15,2,17760768,0,13
1732730515.5087688,0.0,True,-0.024126050993800163,-0.09728536009788513,2.893510580062866,24.32,27,14.269,0,0,False,,,,53,75,4,24,0.2516495883464813,166,90.078,,39.142362,,-76.7304981,False,0.9708153700003095,104.336,,39.1423638,,-76.7304855,14.258,,39.1423638,,-76.7304855,-14.312625885009766,6.2049126625061035,-28.547657012939453,value_here,POSCTL,,,,1419,,ACTIVE,178.91124367713928,0.2,0.61,-1.12,12,1,15,2,17760768,0,13
1732730515.6088943,0.0,True,-0.02769446186721325,-0.0050761885941028595,2.884676456451416,24.32,27,14.269,0,0,False,,,,53,75,4,24,0.6547948718070984,165,90.078,,39.142362,,-76.7304981,False,0.07911981400047807,104.373,,39.1423639,,-76.7304849,14.295,,39.1423639,,-76.7304849,-14.312625885009766,6.2049126625061035,-28.547657012939453,value_here,POSCTL,,,,1419,,ACTIVE,1732730336.6976507,0.2,0.62,-1.11,12,1,15,2,17760768,0,13
1732730515.7091126,0.0,True,-0.027032913640141487,0.0821317732334137,2.866917848587036,24.32,27,14.269,0,0,False,,,,53,75,4,24,0.6547948718070984,165,90.078,,39.142362,,-76.7304981,False,0.18109342499974446,104.448,,39.1423645,,-76.7304836,14.369,,39.1423645,,-76.7304836,-14.371606826782227,6.293161869049072,-28.50482749938965,value_here,POSCTL,,,,1419,,ACTIVE,179.0114619731903,0.22,0.52,-1.11,12,1,15,2,17760768,0,13
1732730515.809175,0.0,True,-0.027166662737727165,0.11868122965097427,2.848400115966797,24.32,27,14.269,0,0,False,,,,53,75,4,24,0.6547948718070984,165,90.078,,39.142362,,-76.7304981,False,0.26815790700038633,104.487,,39.1423648,,-76.7304831,14.409,,39.1423648,,-76.7304831,-14.433537483215332,6.379836559295654,-28.449359893798828,value_here,POSCTL,,,,1419,,ACTIVE,1732730336.797713,0.22,0.45,-1.1,12,1,15,2,17760768,0,13
1732730515.9093828,0.0,True,-0.02890704944729805,0.11640511453151703,2.828294277191162,24.48,27,14.252,0,0,False,,,,53,75,4,24,0.34725815057754517,162,90.078,,39.142362,,-76.7304981,False,0.3874855550002394,104.527,,39.1423651,,-76.7304826,14.449,,39.1423651,,-76.7304826,-14.49885368347168,6.448072910308838,-28.394865036010742,value_here,POSCTL,,,,1419,,ACTIVE,179.11166977882385,0.21,0.37,-1.1,12,1,15,2,17760768,0,13
1732730516.009513,0.0,True,-0.028746673837304115,0.0933772549033165,2.804469585418701,24.48,27,14.252,0,0,False,,,,53,75,4,23,0.34725815057754517,162,90.078,,39.142362,,-76.7304981,False,0.47047518500039587,104.602,,39.1423657,,-76.7304818,14.524,,39.1423657,,-76.7304818,-14.566217422485352,6.504605770111084,-28.338958740234375,value_here,POSCTL,,,,1419,,ACTIVE,1732730336.8978431,0.16,0.19,-1.11,12,1,15,2,17760768,0,13
1732730516.1105516,0.0,True,-0.026122331619262695,0.06434350460767746,2.781078338623047,24.48,27,14.252,0,0,False,,,,56,79,4,23,0.34725815057754517,162,90.078,,39.142362,,-76.7304981,False,0.5921240180005043,104.641,,39.142366,,-76.7304815,14.563,,39.142366,,-76.7304815,-14.628266334533691,6.5478363037109375,-28.29022216796875,value_here,POSCTL,,,,1419,,ACTIVE,179.21270847320557,0.15,0.12,-1.1,12,1,15,2,17760768,0,13
1732730516.2100048,0.0,True,-0.02337716892361641,0.04558654874563217,2.757509231567383,24.48,27,14.252,0,0,False,,,,56,79,4,24,0.34725815057754517,162,90.078,,39.142362,,-76.7304981,False,0.6871219989998281,104.72,,39.1423665,,-76.730481,14.642,,39.1423665,,-76.730481,-14.697519302368164,6.5828752517700195,-28.240598678588867,value_here,POSCTL,,,,1419,,ACTIVE,1732730336.9972963,0.1,0.0,-1.17,12,1,15,2,17760768,0,13
1732730516.3101645,0.0,True,-0.021611234173178673,0.03510982543230057,2.731316328048706,24.48,27,14.252,0,0,False,,,,56,79,4,24,0.10480629652738571,157,90.078,,39.142362,,-76.7304981,False,0.7897208140002476,104.768,,39.1423667,,-76.7304808,14.69,,39.1423667,,-76.7304808,-14.697519302368164,6.5828752517700195,-28.240598678588867,value_here,POSCTL,,,,1419,,ACTIVE,179.31286811828613,0.09,-0.05,-1.22,12,1,15,2,17760768,0,13
1732730516.4111977,0.0,True,-0.022298971191048622,0.01804611273109913,2.7025671005249023,24.48,27,14.252,0,0,False,,,,53,75,4,24,0.10480629652738571,157,90.078,,39.142362,,-76.7304981,False,0.892533887999889,104.895,,39.1423671,,-76.7304806,14.817,,39.1423671,,-76.7304806,-14.781561851501465,6.605653285980225,-28.20293426513672,value_here,POSCTL,,,,1419,,ACTIVE,1732730337.0983295,0.05,-0.12,-1.36,12,1,15,2,17760768,0,13
