timestamp,airspeed,armed,attitude.pitch,attitude.roll,attitude.yaw,battery.current,battery.level,battery.voltage,commands.count,commands.next,ekf_ok,gimbal.pitch,gimbal.roll,gimbal.yaw,gps_0.eph,gps_0.epv,gps_0.fix_type,gps_0.satellites_visible,groundspeed,heading,home_location.alt,home_location.global_frame,home_location.lat,home_location.local_frame,home_location.lon,is_armable,last_heartbeat,location.global_frame.alt,location.global_frame.global_frame,location.global_frame.lat,location.global_frame.local_frame,location.global_frame.lon,location.global_relative_frame.alt,location.global_relative_frame.global_frame,location.global_relative_frame.lat,location.global_relative_frame.local_frame,location.global_relative_frame.lon,location.local_frame.down,location.local_frame.east,location.local_frame.north,ml_verdict,mode.name,mount_status[0],mount_status[1],mount_status[2],rangefinder.distance,rangefinder.voltage,system_status.state,timedelta,velocity[0],velocity[1],velocity[2],version.autopilot_type,version.major,version.minor,version.patch,version.raw_version,version.release,version.vehicle_type
1732729580.576419,0.0,True,-0.02410624548792839,-0.015358838252723217,-3.1020760536193848,0.21,76,16.111,0,0,False,,,,66,104,3,19,0.029861653223633766,182,81.35,,39.1424171,,-76.7304851,False,0.01377540700013924,80.881,,39.1424151,,-76.7304841,-0.017,,39.1424151,,-76.7304841,9.162005424499512,6.310528755187988,-22.84644317626953,value_here,POSCTL,,,,6,,ACTIVE,0,0.0,0.02,0.03,12,1,15,2,17760768,0,13
1732729580.6724284,0.0,True,-0.024241920560598373,-0.015261668711900711,-3.102018356323242,0.67,76,16.109,0,0,False,,,,66,104,3,19,0.03685440495610237,182,81.35,,39.1424171,,-76.7304851,False,0.1069239439998455,80.87,,39.1424151,,-76.730484,-0.028,,39.1424151,,-76.730484,9.162005424499512,6.310528755187988,-22.84644317626953,value_here,POSCTL,,,,6,,ACTIVE,1732729580.6724284,0.0,0.03,0.03,12,1,15,2,17760768,0,13
1732729580.7733417,0.0,True,-0.023615170270204544,-0.014958322048187256,-3.102501630783081,0.67,76,16.109,0,0,False,,,,66,104,3,19,0.03685440495610237,182,81.35,,39.1424171,,-76.7304851,False,0.2146838700000444,80.866,,39.1424151,,-76.730484,-0.032,,39.1424151,,-76.730484,9.169431686401367,6.314915180206299,-22.849828720092773,value_here,POSCTL,,,,6,,ACTIVE,0.10091328620910645,0.0,0.04,0.03,12,1,15,2,17760768,0,13
1732729580.8735106,0.0,True,-0.023641372099518776,-0.015012145042419434,-3.1026594638824463,0.67,76,16.109,0,0,False,,,,66,104,3,19,0.03685440495610237,182,81.35,,39.1424171,,-76.7304851,False,0.30883437000011327,80.858,,39.142415,,-76.730484,-0.039,,39.142415,,-76.730484,9.175080299377441,6.319031715393066,-22.852184295654297,value_here,POSCTL,,,,7,,ACTIVE,1732729580.7725973,0.0,0.04,0.02,12,1,15,2,17760768,0,13
1732729580.9737403,0.0,True,-0.023799646645784378,-0.01475526113063097,-3.102386951446533,0.67,76,16.109,0,0,False,,,,66,104,3,19,0.04226471483707428,182,81.35,,39.1424171,,-76.7304851,False,0.39405990700015536,80.854,,39.142415,,-76.7304839,-0.044,,39.142415,,-76.7304839,9.1824951171875,6.322281360626221,-22.85731315612793,value_here,POSCTL,,,,7,,ACTIVE,0.2011430263519287,0.0,0.03,0.02,12,1,15,2,17760768,0,13
1732729581.0739698,0.0,True,-0.02373392879962921,-0.014769429340958595,-3.102571964263916,0.67,76,16.109,0,0,False,,,,66,104,3,19,0.04226471483707428,182,81.35,,39.1424171,,-76.7304851,False,0.5090033139999832,80.847,,39.1424149,,-76.7304839,-0.051,,39.1424149,,-76.7304839,9.188312530517578,6.326178073883057,-22.862276077270508,value_here,POSCTL,,,,7,,ACTIVE,1732729580.8728268,0.0,0.03,0.02,12,1,15,2,17760768,0,13
1732729581.1739771,0.0,True,-0.024115148931741714,-0.01458218414336443,-3.102555274963379,0.67,76,16.109,0,0,False,,,,66,104,3,19,0.04226471483707428,182,81.35,,39.1424171,,-76.7304851,False,0.5999928510000245,80.843,,39.1424149,,-76.7304839,-0.055,,39.1424149,,-76.7304839,9.19371223449707,6.327859878540039,-22.866064071655273,value_here,POSCTL,,,,6,,ACTIVE,0.3011503219604492,0.0,0.02,0.01,12,1,15,2,17760768,0,13
1732729581.2743316,0.0,True,-0.024147894233465195,-0.014836214482784271,-3.102367877960205,1.17,76,16.094,0,0,False,,,,66,104,3,19,0.04226471483707428,182,81.35,,39.1424171,,-76.7304851,False,0.7155934620000153,80.836,,39.1424149,,-76.7304839,-0.062,,39.1424149,,-76.7304839,9.2000732421875,6.328510284423828,-22.871435165405273,value_here,POSCTL,,,,6,,ACTIVE,1732729580.9731812,-0.01,0.02,0.02,12,1,15,2,17760768,0,13
1732729581.3748622,0.0,True,-0.023967217653989792,-0.014560759998857975,-3.1025595664978027,1.17,76,16.094,0,0,False,,,,66,104,3,19,0.02385144680738449,182,80.898,,39.1424152,,-76.7304842,False,0.8161429249998946,80.832,,39.1424148,,-76.7304839,-0.066,,39.1424148,,-76.7304839,9.20672607421875,6.328780174255371,-22.876401901245117,value_here,POSCTL,,,,6,,ACTIVE,0.40168094635009766,-0.01,0.02,0.02,12,1,15,2,17760768,0,13
1732729581.4759376,0.0,True,-0.023910420015454292,-0.01455898117274046,-3.1025888919830322,1.17,76,16.094,0,0,False,,,,66,104,3,19,0.02385144680738449,182,80.898,,39.1424152,,-76.7304842,False,0.9173586289998639,80.825,,39.1424148,,-76.7304839,-0.073,,39.1424148,,-76.7304839,9.212494850158691,6.33035945892334,-22.881986618041992,value_here,POSCTL,,,,7,,ACTIVE,1732729581.0742567,-0.01,0.02,0.01,12,1,15,2,17760768,0,13
1732729581.5751152,0.0,True,-0.02335168793797493,-0.014378529973328114,-3.102687120437622,1.17,76,16.094,0,0,False,,,,66,104,3,20,0.02385144680738449,182,80.898,,39.1424152,,-76.7304842,False,0.014133352000044397,80.821,,39.1424148,,-76.7304838,-0.076,,39.1424148,,-76.7304838,9.212494850158691,6.33035945892334,-22.881986618041992,value_here,POSCTL,,,,7,,ACTIVE,0.5008585453033447,-0.01,0.01,0.02,12,1,15,2,17760768,0,13
1732729581.6757998,0.0,True,-0.022911427542567253,-0.014167746528983116,-3.1029839515686035,1.17,76,16.094,0,0,False,,,,66,104,3,20,0.024557223543524742,182,80.898,,39.1424152,,-76.7304842,False,0.12371407399996315,80.812,,39.1424147,,-76.7304838,-0.086,,39.1424147,,-76.7304838,9.219161987304688,6.332589626312256,-22.88605308532715,value_here,POSCTL,,,,7,,ACTIVE,1732729581.1749413,-0.01,0.02,0.02,12,1,15,2,17760768,0,13
1732729581.7762957,0.0,True,-0.023001307621598244,-0.013734884560108185,-3.103147506713867,1.17,76,16.094,0,0,False,,,,66,104,3,20,0.024557223543524742,182,80.898,,39.1424152,,-76.7304842,False,0.22386242600032347,80.807,,39.1424147,,-76.7304838,-0.091,,39.1424147,,-76.7304838,9.227636337280273,6.334011554718018,-22.890966415405273,value_here,POSCTL,,,,7,,ACTIVE,0.6013543605804443,-0.02,0.01,0.01,12,1,15,2,17760768,0,13
1732729581.875527,0.0,True,-0.023038411512970924,-0.01361738983541727,-3.1033880710601807,1.17,76,16.094,0,0,False,,,,66,104,3,20,0.024557223543524742,182,80.898,,39.1424152,,-76.7304842,False,0.3219560550001006,80.8,,39.1424146,,-76.7304838,-0.098,,39.1424146,,-76.7304838,9.234392166137695,6.334726810455322,-22.896015167236328,value_here,POSCTL,,,,6,,ACTIVE,1732729581.2741725,-0.01,0.0,0.01,12,1,15,2,17760768,0,13
1732729581.9763484,0.0,True,-0.022417133674025536,-0.013494119048118591,-3.1035492420196533,1.14,76,16.093,0,0,False,,,,66,104,3,20,0.025566186755895615,182,80.898,,39.1424152,,-76.7304842,False,0.42446329600034005,80.796,,39.1424146,,-76.7304838,-0.101,,39.1424146,,-76.7304838,9.239907264709473,6.335500717163086,-22.900644302368164,value_here,POSCTL,,,,6,,ACTIVE,0.7021758556365967,-0.02,0.01,0.01,12,1,15,2,17760768,0,13
1732729582.0760903,0.0,True,-0.022428248077630997,-0.013221904635429382,-3.1037840843200684,1.14,76,16.093,0,0,False,,,,66,104,3,20,0.025566186755895615,182,80.898,,39.1424152,,-76.7304842,False,0.5230675739999242,80.793,,39.1424146,,-76.7304838,-0.104,,39.1424146,,-76.7304838,9.24448013305664,6.3371171951293945,-22.904516220092773,value_here,POSCTL,,,,6,,ACTIVE,1732729581.3739145,-0.01,0.01,0.01,12,1,15,2,17760768,0,13
1732729582.176344,0.0,True,-0.022491639479994774,-0.013323408551514149,-3.10406231880188,1.14,76,16.093,0,0,False,,,,66,104,3,20,0.025566186755895615,182,80.898,,39.1424152,,-76.7304842,False,0.6083032400001684,80.787,,39.1424145,,-76.7304838,-0.111,,39.1424145,,-76.7304838,9.249984741210938,6.337856769561768,-22.90778350830078,value_here,POSCTL,,,,7,,ACTIVE,0.8024294376373291,0.0,0.0,0.01,12,1,15,2,17760768,0,13
1732729582.276371,0.0,True,-0.02160988189280033,-0.01310032606124878,-3.1041531562805176,1.14,76,16.093,0,0,False,,,,66,104,3,21,0.025566186755895615,182,80.898,,39.1424152,,-76.7304842,False,0.7150209989999894,80.784,,39.1424145,,-76.7304838,-0.114,,39.1424145,,-76.7304838,9.249984741210938,6.337856769561768,-22.90778350830078,value_here,POSCTL,,,,7,,ACTIVE,1732729581.4739416,0.0,0.0,0.01,12,1,15,2,17760768,0,13
1732729582.3765674,0.0,True,-0.021262958645820618,-0.012633086182177067,-3.1043589115142822,1.14,76,16.093,0,0,False,,,,66,104,3,21,0.002412243979051709,182,80.898,,39.1424152,,-76.7304842,False,0.8153405729999577,80.778,,39.1424145,,-76.7304838,-0.119,,39.1424145,,-76.7304838,9.254739761352539,6.337790489196777,-22.90996551513672,value_here,POSCTL,,,,7,,ACTIVE,0.9026257991790771,0.0,0.0,0.0,12,1,15,2,17760768,0,13
1732729582.4766812,0.0,True,-0.020521176978945732,-0.012845144607126713,-3.104203939437866,1.14,76,16.093,0,0,False,,,,66,104,3,21,0.002412243979051709,182,80.898,,39.1424152,,-76.7304842,False,0.907908110000335,80.777,,39.1424145,,-76.7304837,-0.121,,39.1424145,,-76.7304837,9.258429527282715,6.338772296905518,-22.91173553466797,value_here,POSCTL,,,,7,,ACTIVE,1732729581.5740554,0.0,-0.01,0.0,12,1,15,2,17760768,0,13
1732729582.576878,0.0,True,-0.020046839490532875,-0.012376361526548862,-3.104395627975464,1.14,76,16.093,0,0,False,,,,66,104,3,21,0.002412243979051709,182,80.898,,39.1424152,,-76.7304842,False,0.004410629999711091,80.772,,39.1424145,,-76.7304837,-0.126,,39.1424145,,-76.7304837,9.26230525970459,6.3394389152526855,-22.91315269470215,value_here,POSCTL,,,,6,,ACTIVE,1.0028226375579834,0.0,0.0,0.01,12,1,15,2,17760768,0,13
1732729582.677137,0.0,True,-0.020060954615473747,-0.011852651834487915,-3.1044921875,1.13,76,16.089,0,0,False,,,,66,104,3,21,0.01659393683075905,182,80.898,,39.1424152,,-76.7304842,False,0.11474783399989974,80.768,,39.1424145,,-76.7304837,-0.129,,39.1424145,,-76.7304837,9.26805305480957,6.339251518249512,-22.91572380065918,value_here,POSCTL,,,,6,,ACTIVE,1732729581.6743143,0.0,-0.01,0.01,12,1,15,2,17760768,0,13
1732729582.7773926,0.0,True,-0.019246332347393036,-0.012013697996735573,-3.1047894954681396,1.13,76,16.089,0,0,False,,,,66,104,3,21,0.01659393683075905,182,80.898,,39.1424152,,-76.7304842,False,0.20672683399970992,80.763,,39.1424144,,-76.7304837,-0.135,,39.1424144,,-76.7304837,9.272818565368652,6.33961820602417,-22.91781997680664,value_here,POSCTL,,,,6,,ACTIVE,1.1030783653259277,0.01,-0.01,0.01,12,1,15,2,17760768,0,13
1732729582.8776348,0.0,True,-0.01817748323082924,-0.012050909921526909,-3.1048552989959717,1.13,76,16.089,0,0,False,,,,66,104,3,21,0.01659393683075905,182,80.898,,39.1424152,,-76.7304842,False,0.31165070399993056,80.76,,39.1424144,,-76.7304837,-0.137,,39.1424144,,-76.7304837,9.276846885681152,6.339400291442871,-22.918771743774414,value_here,POSCTL,,,,7,,ACTIVE,1732729581.7745564,0.01,-0.02,0.0,12,1,15,2,17760768,0,13
1732729582.9780874,0.0,True,-0.018496036529541016,-0.01169556099921465,-3.1050593852996826,1.13,76,16.089,0,0,False,,,,66,104,3,21,0.01659393683075905,182,80.898,,39.1424152,,-76.7304842,False,0.415530611000122,80.755,,39.1424144,,-76.7304837,-0.143,,39.1424144,,-76.7304837,9.281720161437988,6.339174747467041,-22.91935157775879,value_here,POSCTL,,,,7,,ACTIVE,1.20353102684021,0.01,-0.01,0.0,12,1,15,2,17760768,0,13
1732729583.0782688,0.0,True,-0.018455520272254944,-0.011525309644639492,-3.105266571044922,1.13,76,16.089,0,0,False,,,,66,104,3,21,0.02576218545436859,182,80.898,,39.1424152,,-76.7304842,False,0.5108072039997751,80.752,,39.1424144,,-76.7304837,-0.145,,39.1424144,,-76.7304837,9.285893440246582,6.340028762817383,-22.9204158782959,value_here,POSCTL,,,,7,,ACTIVE,1732729581.8747377,0.01,-0.01,0.0,12,1,15,2,17760768,0,13
1732729583.1786335,0.0,True,-0.018157904967665672,-0.011289780959486961,-3.10508394241333,1.13,76,16.089,0,0,False,,,,66,104,3,21,0.02576218545436859,182,80.898,,39.1424152,,-76.7304842,False,0.6160552589999497,80.748,,39.1424144,,-76.7304837,-0.15,,39.1424144,,-76.7304837,9.285893440246582,6.340028762817383,-22.9204158782959,value_here,POSCTL,,,,7,,ACTIVE,1.3038957118988037,0.02,0.0,0.0,12,1,15,2,17760768,0,13
1732729583.2788208,0.0,True,-0.01845737360417843,-0.010942994616925716,-3.1053659915924072,1.13,76,16.089,0,0,False,,,,66,104,3,21,0.02576218545436859,182,80.898,,39.1424152,,-76.7304842,False,0.6929259439998532,80.746,,39.1424144,,-76.7304837,-0.152,,39.1424144,,-76.7304837,9.288722038269043,6.341992378234863,-22.92119789123535,value_here,POSCTL,,,,7,,ACTIVE,1732729581.974925,0.02,-0.01,0.0,12,1,15,2,17760768,0,13
1732729583.3797526,0.0,True,-0.017788754776120186,-0.011419150047004223,-3.1053292751312256,1.13,76,16.079,0,0,False,,,,66,104,3,21,0.03364066034555435,182,80.898,,39.1424152,,-76.7304842,False,0.8174919260000024,80.743,,39.1424144,,-76.7304837,-0.154,,39.1424144,,-76.7304837,9.292830467224121,6.343754768371582,-22.922151565551758,value_here,POSCTL,,,,7,,ACTIVE,1.40482759475708,0.03,0.0,0.0,12,1,15,2,17760768,0,13
1732729583.4789736,0.0,True,-0.017722785472869873,-0.01159947644919157,-3.105478048324585,1.13,76,16.079,0,0,False,,,,66,104,3,21,0.03364066034555435,182,80.898,,39.1424152,,-76.7304842,False,0.9040592589999505,80.738,,39.1424144,,-76.7304837,-0.16,,39.1424144,,-76.7304837,9.29736328125,6.346362113952637,-22.92253303527832,value_here,POSCTL,,,,7,,ACTIVE,1732729582.074146,0.03,-0.01,0.0,12,1,15,2,17760768,0,13
1732729583.5801332,0.0,True,-0.01792820543050766,-0.011299680918455124,-3.105496406555176,1.13,76,16.079,0,0,False,,,,66,104,3,21,0.03364066034555435,182,80.898,,39.1424152,,-76.7304842,False,0.027003945000160456,80.734,,39.1424144,,-76.7304836,-0.164,,39.1424144,,-76.7304836,9.302679061889648,6.349067211151123,-22.924562454223633,value_here,POSCTL,,,,7,,ACTIVE,1.5059871673583984,0.02,0.0,0.0,12,1,15,2,17760768,0,13
1732729583.680155,0.0,True,-0.01773039996623993,-0.011335000395774841,-3.105790376663208,1.13,76,16.079,0,0,False,,,,66,104,3,21,0.04266444593667984,182,80.898,,39.1424152,,-76.7304842,False,0.1272736860000805,80.728,,39.1424144,,-76.7304836,-0.17,,39.1424144,,-76.7304836,9.308333396911621,6.352090835571289,-22.92490005493164,value_here,POSCTL,,,,7,,ACTIVE,1732729582.1741679,0.04,0.0,0.0,12,1,15,2,17760768,0,13
1732729583.779854,0.0,True,-0.01806437410414219,-0.011334463953971863,-3.106257438659668,1.13,76,16.079,0,0,False,,,,66,104,3,21,0.04266444593667984,182,80.898,,39.1424152,,-76.7304842,False,0.21098220400017453,80.724,,39.1424144,,-76.7304836,-0.174,,39.1424144,,-76.7304836,9.314314842224121,6.356751441955566,-22.927133560180664,value_here,POSCTL,,,,7,,ACTIVE,1.6056861877441406,0.04,0.0,0.0,12,1,15,2,17760768,0,13
1732729583.8796277,0.0,True,-0.017964093014597893,-0.010913623496890068,-3.106522798538208,1.13,76,16.079,0,0,False,,,,66,104,3,21,0.04266444593667984,182,80.898,,39.1424152,,-76.7304842,False,0.31866237099984573,80.717,,39.1424144,,-76.7304835,-0.181,,39.1424144,,-76.7304835,9.314314842224121,6.356751441955566,-22.927133560180664,value_here,POSCTL,,,,7,,ACTIVE,1732729582.2739415,0.04,0.0,0.0,12,1,15,2,17760768,0,13
1732729583.9805024,0.0,True,-0.018320342525839806,-0.010935546830296516,-3.106581449508667,1.13,76,16.079,0,0,False,,,,66,104,3,21,0.04266444593667984,182,80.898,,39.1424152,,-76.7304842,False,0.4276213339999231,80.713,,39.1424143,,-76.7304835,-0.184,,39.1424143,,-76.7304835,9.321041107177734,6.359755039215088,-22.929046630859375,value_here,POSCTL,,,,7,,ACTIVE,1.7065608501434326,0.04,0.0,0.0,12,1,15,2,17760768,0,13
1732729584.0800362,0.0,True,-0.01806417666375637,-0.010808488354086876,-3.1067612171173096,1.12,75,16.077,0,0,False,,,,66,104,3,21,0.05280899256467819,181,80.898,,39.1424152,,-76.7304842,False,0.5173979820001477,80.709,,39.1424143,,-76.7304835,-0.189,,39.1424143,,-76.7304835,9.32520580291748,6.362840175628662,-22.930267333984375,value_here,POSCTL,,,,7,,ACTIVE,1732729582.3734753,0.05,0.0,0.0,12,1,15,2,17760768,0,13
1732729584.1799872,0.0,True,-0.01806757040321827,-0.010302461683750153,-3.1063625812530518,1.12,75,16.077,0,0,False,,,,66,104,3,21,0.05280899256467819,181,80.898,,39.1424152,,-76.7304842,False,0.6189251480000166,80.705,,39.1424143,,-76.7304834,-0.193,,39.1424143,,-76.7304834,9.330052375793457,6.365053653717041,-22.931276321411133,value_here,POSCTL,,,,7,,ACTIVE,1.8065118789672852,0.05,0.0,0.0,12,1,15,2,17760768,0,13
1732729584.2807121,0.0,True,-0.018614526838064194,-0.009831646457314491,-3.106259822845459,1.12,75,16.077,0,0,False,,,,66,104,3,21,0.05280899256467819,181,80.898,,39.1424152,,-76.7304842,False,0.726754721999896,80.698,,39.1424143,,-76.7304834,-0.199,,39.1424143,,-76.7304834,9.33507251739502,6.366507530212402,-22.931249618530273,value_here,POSCTL,,,,6,,ACTIVE,1732729582.4742002,0.04,0.0,0.0,12,1,15,2,17760768,0,13
1732729584.3815777,0.0,True,-0.018238946795463562,-0.009643744677305222,-3.106283187866211,1.12,75,16.077,0,0,False,,,,66,104,3,21,0.04518260434269905,182,80.898,,39.1424152,,-76.7304842,False,0.8285033699999076,80.693,,39.1424143,,-76.7304834,-0.204,,39.1424143,,-76.7304834,9.342843055725098,6.367987155914307,-22.932891845703125,value_here,POSCTL,,,,6,,ACTIVE,1.9073774814605713,0.04,0.0,0.0,12,1,15,2,17760768,0,13
1732729584.4810586,0.0,True,-0.01813446916639805,-0.009695125743746758,-3.1060357093811035,1.12,75,16.077,0,0,False,,,,66,104,3,21,0.04518260434269905,182,80.898,,39.1424152,,-76.7304842,False,0.926861388999896,80.683,,39.1424143,,-76.7304834,-0.215,,39.1424143,,-76.7304834,9.35268497467041,6.370234489440918,-22.935670852661133,value_here,POSCTL,,,,6,,ACTIVE,1732729582.573681,0.05,0.0,0.0,12,1,15,2,17760768,0,13
1732729584.5812523,0.0,True,-0.017760775983333588,-0.009742547757923603,-3.1062018871307373,1.12,75,16.077,0,0,False,,,,66,104,3,21,0.04518260434269905,182,80.898,,39.1424152,,-76.7304842,False,0.0045811489999323385,80.678,,39.1424143,,-76.7304834,-0.22,,39.1424143,,-76.7304834,9.360980033874512,6.372076988220215,-22.938058853149414,value_here,POSCTL,,,,6,,ACTIVE,2.007571220397949,0.05,-0.01,0.0,12,1,15,2,17760768,0,13
1732729584.682612,0.0,True,-0.017985330894589424,-0.009254414588212967,-3.1065714359283447,1.12,75,16.077,0,0,False,,,,66,104,3,21,0.04518260434269905,182,80.898,,39.1424152,,-76.7304842,False,0.12645253699975,80.673,,39.1424143,,-76.7304834,-0.225,,39.1424143,,-76.7304834,9.3676118850708,6.372583866119385,-22.940000534057617,value_here,POSCTL,,,,6,,ACTIVE,1732729582.6750407,0.05,-0.02,0.0,12,1,15,2,17760768,0,13
1732729584.7814875,0.0,True,-0.017906107008457184,-0.009111817926168442,-3.1063549518585205,1.12,75,16.059,0,0,False,,,,66,104,3,20,0.07190129160881042,182,80.898,,39.1424152,,-76.7304842,False,0.20108916699973634,80.665,,39.1424142,,-76.7304834,-0.232,,39.1424142,,-76.7304834,9.3676118850708,6.372583866119385,-22.940000534057617,value_here,POSCTL,,,,6,,ACTIVE,2.1064467430114746,0.06,-0.03,0.0,12,1,15,2,17760768,0,13
1732729584.881793,0.0,True,-0.017843089997768402,-0.008815649896860123,-3.1063544750213623,1.12,75,16.059,0,0,False,,,,66,104,3,21,0.07190129160881042,182,80.898,,39.1424152,,-76.7304842,False,0.30600603699986095,80.663,,39.1424142,,-76.7304834,-0.235,,39.1424142,,-76.7304834,9.372109413146973,6.372741222381592,-22.940528869628906,value_here,POSCTL,,,,6,,ACTIVE,1732729582.7753463,0.06,-0.03,0.0,12,1,15,2,17760768,0,13
1732729584.9819672,0.0,True,-0.017537148669362068,-0.008847161196172237,-3.1063029766082764,1.12,75,16.059,0,0,False,,,,66,104,3,21,0.07190129160881042,182,80.898,,39.1424152,,-76.7304842,False,0.4041525369998453,80.657,,39.1424142,,-76.7304834,-0.24,,39.1424142,,-76.7304834,9.376201629638672,6.371854782104492,-22.941143035888672,value_here,POSCTL,,,,6,,ACTIVE,2.206620931625366,0.06,-0.04,0.0,12,1,15,2,17760768,0,13
1732729585.082201,0.0,True,-0.01754377782344818,-0.008616477251052856,-3.1068432331085205,1.12,75,16.059,0,0,False,,,,66,104,3,21,0.07994488626718521,181,80.898,,39.1424152,,-76.7304842,False,0.5116443150000123,80.655,,39.1424142,,-76.7304834,-0.243,,39.1424142,,-76.7304834,9.381529808044434,6.371317386627197,-22.94357681274414,value_here,POSCTL,,,,6,,ACTIVE,1732729582.87558,0.06,-0.04,0.0,12,1,15,2,17760768,0,13
1732729585.1824868,0.0,True,-0.01700487732887268,-0.008540757931768894,-3.107072591781616,1.12,75,16.059,0,0,False,,,,66,104,3,20,0.07994488626718521,181,80.898,,39.1424152,,-76.7304842,False,0.625216110999645,80.65,,39.1424142,,-76.7304834,-0.248,,39.1424142,,-76.7304834,9.385720252990723,6.370612144470215,-22.945825576782227,value_here,POSCTL,,,,6,,ACTIVE,2.3069067001342773,0.06,-0.05,0.0,12,1,15,2,17760768,0,13
1732729585.282845,0.0,True,-0.01680121384561062,-0.008288247510790825,-3.1071696281433105,1.12,75,16.059,0,0,False,,,,66,104,3,20,0.07994488626718521,181,80.898,,39.1424152,,-76.7304842,False,0.7118066299999555,80.647,,39.1424142,,-76.7304834,-0.251,,39.1424142,,-76.7304834,9.390129089355469,6.369502544403076,-22.947174072265625,value_here,POSCTL,,,,6,,ACTIVE,1732729582.9759383,0.06,-0.05,0.01,12,1,15,2,17760768,0,13
1732729585.3834295,0.0,True,-0.016887439414858818,-0.008075305260717869,-3.1071979999542236,1.12,75,16.053,0,0,False,,,,66,104,3,20,0.07994488626718521,181,80.898,,39.1424152,,-76.7304842,False,0.8261294629996883,80.641,,39.1424142,,-76.7304834,-0.257,,39.1424142,,-76.7304834,9.395733833312988,6.3683061599731445,-22.94864845275879,value_here,POSCTL,,,,6,,ACTIVE,2.4074912071228027,0.06,-0.06,0.0,12,1,15,2,17760768,0,13
1732729585.4835505,0.0,True,-0.016641734167933464,-0.007809833157807589,-3.107905626296997,1.12,75,16.053,0,0,False,,,,66,104,3,20,0.09294433891773224,181,80.898,,39.1424152,,-76.7304842,False,0.9190207039996494,80.635,,39.1424141,,-76.7304834,-0.262,,39.1424141,,-76.7304834,9.403526306152344,6.368509769439697,-22.951961517333984,value_here,POSCTL,,,,6,,ACTIVE,1732729583.0760593,0.06,-0.05,0.01,12,1,15,2,17760768,0,13
1732729585.5840952,0.0,True,-0.017309384420514107,-0.007464633323252201,-3.108104944229126,1.12,75,16.053,0,0,False,,,,66,104,3,20,0.09294433891773224,181,80.898,,39.1424152,,-76.7304842,False,0.026797758999691723,80.627,,39.1424141,,-76.7304834,-0.271,,39.1424141,,-76.7304834,9.403526306152344,6.368509769439697,-22.951961517333984,value_here,POSCTL,,,,6,,ACTIVE,2.508035898208618,0.06,-0.05,0.0,12,1,15,2,17760768,0,13
1732729585.6839063,0.0,True,-0.01729043759405613,-0.007317778654396534,-3.10813570022583,1.12,75,16.053,0,0,False,,,,66,104,3,20,0.09294433891773224,181,80.898,,39.1424152,,-76.7304842,False,0.12790366599983827,80.624,,39.1424141,,-76.7304834,-0.274,,39.1424141,,-76.7304834,9.410266876220703,6.367858409881592,-22.95445442199707,value_here,POSCTL,,,,6,,ACTIVE,1732729583.1758704,0.07,-0.05,0.01,12,1,15,2,17760768,0,13
1732729585.7841728,0.0,True,-0.017074670642614365,-0.007054173853248358,-3.1083984375,1.12,75,16.053,0,0,False,,,,66,104,3,20,0.10144108533859253,181,80.898,,39.1424152,,-76.7304842,False,0.22720766599968556,80.613,,39.1424141,,-76.7304834,-0.285,,39.1424141,,-76.7304834,9.417747497558594,6.367010116577148,-22.9552001953125,value_here,POSCTL,,,,6,,ACTIVE,2.608302354812622,0.07,-0.05,0.0,12,1,15,2,17760768,0,13
1732729585.884288,0.0,True,-0.01675831899046898,-0.0067872535437345505,-3.1085598468780518,1.12,75,16.053,0,0,False,,,,66,104,3,20,0.10144108533859253,181,80.898,,39.1424152,,-76.7304842,False,0.3153405179996298,80.608,,39.1424141,,-76.7304834,-0.29,,39.1424141,,-76.7304834,9.426860809326172,6.368686199188232,-22.95816993713379,value_here,POSCTL,,,,6,,ACTIVE,1732729583.2759857,0.07,-0.05,0.0,12,1,15,2,17760768,0,13
1732729585.9845397,0.0,True,-0.016325607895851135,-0.00636558560654521,-3.1086461544036865,1.12,75,16.053,0,0,False,,,,66,104,3,20,0.10144108533859253,181,80.898,,39.1424152,,-76.7304842,False,0.42983812900001794,80.604,,39.1424141,,-76.7304834,-0.294,,39.1424141,,-76.7304834,9.434028625488281,6.370339393615723,-22.96122169494629,value_here,POSCTL,,,,7,,ACTIVE,2.7085540294647217,0.07,-0.05,0.01,12,1,15,2,17760768,0,13
1732729586.0847754,0.0,True,-0.01694151759147644,-0.005996880121529102,-3.108649969100952,2.3,74,16.025,0,0,False,,,,66,104,3,20,0.10305925458669662,181,80.898,,39.1424152,,-76.7304842,False,0.5251009809999232,80.596,,39.142414,,-76.7304834,-0.302,,39.142414,,-76.7304834,9.440460205078125,6.370312690734863,-22.962289810180664,value_here,POSCTL,,,,7,,ACTIVE,1732729583.3762214,0.08,-0.05,0.0,12,1,15,2,17760768,0,13
1732729586.1848943,0.0,True,-0.017204325646162033,-0.005678432993590832,-3.1087660789489746,2.3,74,16.025,0,0,False,,,,66,104,3,20,0.10305925458669662,181,80.898,,39.1424152,,-76.7304842,False,0.6089825730000484,80.592,,39.142414,,-76.7304834,-0.306,,39.142414,,-76.7304834,9.446210861206055,6.370328426361084,-22.962791442871094,value_here,POSCTL,,,,7,,ACTIVE,2.8086729049682617,0.09,-0.05,0.0,12,1,15,2,17760768,0,13
1732729586.2852185,0.0,True,-0.016469236463308334,-0.005869119893759489,-3.1084096431732178,2.3,74,16.025,0,0,False,,,,66,104,3,20,0.10305925458669662,181,80.898,,39.1424152,,-76.7304842,False,0.7189264809999258,80.586,,39.142414,,-76.7304834,-0.007,,39.142414,,-76.7304834,9.451346397399902,6.37003755569458,-22.963048934936523,value_here,POSCTL,,,,7,,ACTIVE,1732729583.4765456,0.09,-0.06,0.0,12,1,15,2,17760768,0,13
1732729586.3853765,0.0,True,-0.015070149675011635,-0.006059965118765831,-3.1078920364379883,2.3,74,16.025,0,0,False,,,,66,104,3,21,0.10305925458669662,181,80.898,,39.1424152,,-76.7304842,False,0.8252115729997058,80.582,,39.142414,,-76.7304834,-0.01,,39.142414,,-76.7304834,9.451346397399902,6.37003755569458,-22.963048934936523,value_here,POSCTL,,,,7,,ACTIVE,2.9088308811187744,0.08,-0.06,0.0,12,1,15,2,17760768,0,13
1732729586.4855573,0.0,True,-0.016012506559491158,-0.005647382698953152,-3.1079821586608887,2.3,74,16.025,0,0,False,,,,66,104,3,21,0.11167082190513611,181,80.898,,39.1424152,,-76.7304842,False,0.9157749619998867,80.575,,39.142414,,-76.7304834,-0.017,,39.142414,,-76.7304834,9.458003044128418,6.370729923248291,-22.964374542236328,value_here,POSCTL,,,,7,,ACTIVE,1732729583.5767264,0.08,-0.06,0.01,12,1,15,2,17760768,0,13
1732729586.5856586,0.0,True,-0.015593773685395718,-0.006995316129177809,-3.1078975200653076,2.3,74,16.025,0,0,False,,,,66,104,3,21,0.11167082190513611,181,80.898,,39.1424152,,-76.7304842,False,0.021337129000130517,80.573,,39.142414,,-76.7304834,-0.02,,39.142414,,-76.7304834,9.462786674499512,6.371596336364746,-22.965587615966797,value_here,POSCTL,,,,7,,ACTIVE,3.008932113647461,0.08,-0.06,0.0,12,1,15,2,17760768,0,13
1732729586.6860678,0.0,True,-0.015304326079785824,-0.005386983975768089,-3.1085400581359863,2.3,74,16.025,0,0,False,,,,66,104,3,21,0.11167082190513611,181,80.898,,39.1424152,,-76.7304842,False,0.12462942499996643,80.567,,39.142414,,-76.7304834,-0.026,,39.142414,,-76.7304834,9.467597007751465,6.372983932495117,-22.96678924560547,value_here,POSCTL,,,,7,,ACTIVE,1732729583.6771357,0.08,-0.06,0.0,12,1,15,2,17760768,0,13
1732729586.786251,0.0,True,-0.013948725536465645,-0.006830551195889711,-3.1093695163726807,8.44,73,15.851,0,0,False,,,,66,104,3,20,0.11742809414863586,181,80.898,,39.1424152,,-76.7304842,False,0.23148314800027947,80.563,,39.142414,,-76.7304833,-0.029,,39.142414,,-76.7304833,9.473291397094727,6.3737101554870605,-22.969036102294922,value_here,POSCTL,,,,7,,ACTIVE,3.1091153621673584,0.09,-0.06,0.0,12,1,15,2,17760768,0,13
1732729586.886298,0.0,True,-0.012761262245476246,-0.007691161707043648,-3.1107468605041504,8.44,73,15.851,0,0,False,,,,66,104,3,20,0.11742809414863586,181,80.898,,39.1424152,,-76.7304842,False,0.33104270300009375,80.558,,39.142414,,-76.7304833,-0.034,,39.142414,,-76.7304833,9.47732925415039,6.374706268310547,-22.96920394897461,value_here,POSCTL,,,,7,,ACTIVE,1732729583.7771826,0.08,-0.08,-0.02,12,1,15,2,17760768,0,13
1732729586.9866245,0.0,True,-0.011411006562411785,-0.008287450298666954,-3.1142969131469727,8.44,73,15.851,0,0,False,,,,66,104,3,20,0.11742809414863586,181,80.898,,39.1424152,,-76.7304842,False,0.4336869809999371,80.556,,39.142414,,-76.7304833,-0.036,,39.142414,,-76.7304833,9.480647087097168,6.374251842498779,-22.96967887878418,value_here,POSCTL,,,,7,,ACTIVE,3.209441900253296,0.08,-0.08,-0.02,12,1,15,2,17760768,0,13
1732729587.0876966,0.0,True,-0.009148169308900833,-0.011819790117442608,-3.1194822788238525,8.44,73,15.851,0,0,False,,,,66,104,3,20,0.11742809414863586,181,80.898,,39.1424152,,-76.7304842,False,0.5361717590003536,80.558,,39.142414,,-76.7304833,-0.034,,39.142414,,-76.7304833,9.47839069366455,6.373783588409424,-22.97145652770996,value_here,POSCTL,,,,7,,ACTIVE,1732729583.8782547,0.09,-0.09,-0.1,12,1,15,2,17760768,0,13
1732729587.1877298,0.0,True,2.8225455025676638e-05,-0.013251548632979393,-3.133070230484009,8.44,73,15.851,0,0,False,,,,66,104,3,21,0.1387614607810974,180,80.898,,39.1424152,,-76.7304842,False,0.6357696100003523,80.566,,39.142414,,-76.7304834,-0.026,,39.142414,,-76.7304834,9.460923194885254,6.370225429534912,-22.9718074798584,value_here,POSCTL,,,,7,,ACTIVE,3.3094751834869385,0.09,-0.11,-0.2,12,1,15,2,17760768,0,13
1732729587.2879572,0.0,True,0.00810189824551344,-0.02157003805041313,3.130976676940918,8.44,73,15.851,0,0,False,,,,64,98,3,21,0.1387614607810974,180,80.898,,39.1424152,,-76.7304842,False,0.736967740000182,80.602,,39.1424139,,-76.7304834,0.009,,39.1424139,,-76.7304834,9.460923194885254,6.370225429534912,-22.9718074798584,value_here,POSCTL,,,,7,,ACTIVE,1732729583.978482,0.07,-0.12,-0.41,12,1,15,2,17760768,0,13
1732729587.3872147,0.0,True,0.01284774113446474,-0.03366271033883095,3.107877492904663,8.44,73,15.851,0,0,False,,,,64,98,3,21,0.1387614607810974,180,80.898,,39.1424152,,-76.7304842,False,0.8195465550002154,80.63,,39.1424139,,-76.7304834,0.037,,39.1424139,,-76.7304834,9.42313003540039,6.368074417114258,-22.978185653686523,value_here,POSCTL,,,,17,,ACTIVE,3.4087326526641846,0.06,-0.13,-0.46,12,1,15,2,17760768,0,13
1732729587.4878743,0.0,True,0.015271269716322422,-0.03535199165344238,3.0895726680755615,19.08,67,15.477,0,0,False,,,,64,98,3,21,0.1467636376619339,177,80.898,,39.1424152,,-76.7304842,False,0.93567910999991,80.662,,39.1424138,,-76.7304835,0.069,,39.1424138,,-76.7304835,9.374269485473633,6.364432334899902,-22.984806060791016,value_here,POSCTL,,,,17,,ACTIVE,1732729584.0791416,0.06,-0.13,-0.53,12,1,15,2,17760768,0,13
1732729587.5879881,0.0,True,0.005984154064208269,-0.03080085478723049,3.0739457607269287,19.08,67,15.477,0,0,False,,,,64,98,3,21,0.1467636376619339,177,80.898,,39.1424152,,-76.7304842,False,0.026909332999821345,80.733,,39.1424137,,-76.7304835,0.139,,39.1424137,,-76.7304835,9.318133354187012,6.359622955322266,-22.99427032470703,value_here,POSCTL,,,,17,,ACTIVE,3.5088465213775635,0.06,-0.11,-0.57,12,1,15,2,17760768,0,13
1732729587.68824,0.0,True,0.006914799101650715,-0.02787504531443119,3.061084508895874,19.08,67,15.477,0,0,False,,,,64,98,3,21,0.1467636376619339,177,80.898,,39.1424152,,-76.7304842,False,0.11641240700009803,80.766,,39.1424137,,-76.7304835,0.172,,39.1424137,,-76.7304835,9.25967788696289,6.361725330352783,-23.00664710998535,value_here,POSCTL,,,,38,,ACTIVE,1732729584.1793935,0.05,-0.1,-0.59,12,1,15,2,17760768,0,13
1732729587.78921,0.0,True,0.0090202447026968,-0.02172301895916462,3.0515992641448975,19.08,67,15.477,0,0,False,,,,64,98,3,21,0.1467636376619339,177,80.898,,39.1424152,,-76.7304842,False,0.2374940360000437,80.841,,39.1424135,,-76.7304834,0.247,,39.1424135,,-76.7304834,9.1956205368042,6.36685037612915,-23.02163314819336,value_here,POSCTL,,,,38,,ACTIVE,3.609816551208496,0.04,-0.09,-0.63,12,1,15,2,17760768,0,13
1732729587.8885837,0.0,True,0.014395615085959435,-0.0176701657474041,3.0455422401428223,19.08,67,15.477,0,0,False,,,,64,98,3,21,0.09635589271783829,174,80.898,,39.1424152,,-76.7304842,False,0.3230507769999349,80.882,,39.1424134,,-76.7304834,0.289,,39.1424134,,-76.7304834,9.130193710327148,6.375808238983154,-23.03622055053711,value_here,POSCTL,,,,38,,ACTIVE,1732729584.278767,0.04,-0.08,-0.63,12,1,15,2,17760768,0,13
1732729587.9888132,0.0,True,0.015963239595294,-0.02246711589396,3.041951894760132,19.08,67,15.477,0,0,False,,,,64,98,3,21,0.09635589271783829,174,80.898,,39.1424152,,-76.7304842,False,0.4351969250001275,80.958,,39.1424133,,-76.7304832,0.365,,39.1424133,,-76.7304832,9.130193710327148,6.375808238983154,-23.03622055053711,value_here,POSCTL,,,,56,,ACTIVE,3.7100460529327393,0.03,-0.06,-0.65,12,1,15,2,17760768,0,13
1732729588.088916,0.0,True,0.016315853223204613,-0.021513333544135094,3.0409040451049805,19.08,67,15.477,0,0,False,,,,64,98,3,21,0.09635589271783829,174,80.898,,39.1424152,,-76.7304842,False,0.5288377960000616,81.008,,39.1424132,,-76.7304832,0.415,,39.1424132,,-76.7304832,9.061293601989746,6.385913372039795,-23.05146026611328,value_here,POSCTL,,,,56,,ACTIVE,1732729584.37887,0.03,-0.06,-0.66,12,1,15,2,17760768,0,13
1732729588.1895115,0.0,True,0.015604812651872635,-0.015220461413264275,3.0422422885894775,20.97,62,15.302,0,0,False,,,,64,98,3,21,0.07237324118614197,174,80.898,,39.1424152,,-76.7304842,False,0.6368770549997862,81.091,,39.1424131,,-76.730483,0.498,,39.1424131,,-76.730483,8.99178695678711,6.393864154815674,-23.062408447265625,value_here,POSCTL,,,,56,,ACTIVE,3.8106415271759033,0.03,-0.06,-0.68,12,1,15,2,17760768,0,13
1732729588.29029,0.0,True,0.015006204135715961,-0.01484357938170433,3.0471346378326416,20.97,62,15.302,0,0,False,,,,64,98,3,21,0.07237324118614197,174,80.593,,39.142414,,-76.7304834,False,0.7388280919999488,81.132,,39.142413,,-76.730483,0.539,,39.142413,,-76.730483,8.913098335266113,6.403010368347168,-23.075157165527344,value_here,POSCTL,,,,56,,ACTIVE,1732729584.4796486,0.03,-0.06,-0.68,12,1,15,2,17760768,0,13
1732729588.3900056,0.0,True,0.013993330299854279,-0.018655505031347275,3.052229881286621,20.97,62,15.302,0,0,False,,,,64,98,3,21,0.07237324118614197,174,80.593,,39.142414,,-76.7304834,False,0.836230832000183,81.226,,39.1424129,,-76.7304829,0.632,,39.1424129,,-76.7304829,8.843789100646973,6.410852909088135,-23.087331771850586,value_here,POSCTL,,,,81,,ACTIVE,3.9103569984436035,0.03,-0.07,-0.69,12,1,15,2,17760768,0,13
1732729588.4901347,0.0,True,0.013498876243829727,-0.018011726438999176,3.056934118270874,20.97,62,15.302,0,0,False,,,,64,98,3,21,0.07586690783500671,175,80.593,,39.142414,,-76.7304834,False,0.9333187950001047,81.264,,39.1424128,,-76.7304828,0.671,,39.1424128,,-76.7304828,8.772043228149414,6.420650959014893,-23.100370407104492,value_here,POSCTL,,,,81,,ACTIVE,1732729584.5797777,0.02,-0.07,-0.69,12,1,15,2,17760768,0,13
1732729588.590399,0.0,True,0.014851708896458149,-0.013289133086800575,3.0641093254089355,20.97,62,15.302,0,0,False,,,,64,98,3,21,0.07586690783500671,175,80.593,,39.142414,,-76.7304834,False,0.037030037000022276,81.309,,39.1424127,,-76.7304827,0.716,,39.1424127,,-76.7304827,8.694864273071289,6.433086395263672,-23.113882064819336,value_here,POSCTL,,,,81,,ACTIVE,4.0106213092803955,0.02,-0.06,-0.71,12,1,15,2,17760768,0,13
1732729588.6906347,0.0,True,0.019138837233185768,-0.009887161664664745,3.071826457977295,20.97,62,15.302,0,0,False,,,,64,98,3,21,0.07586690783500671,175,80.593,,39.142414,,-76.7304834,False,0.12836874100003115,81.403,,39.1424125,,-76.7304825,0.809,,39.1424125,,-76.7304825,8.620680809020996,6.451522350311279,-23.134178161621094,value_here,POSCTL,,,,105,,ACTIVE,1732729584.6800134,0.01,-0.06,-0.72,12,1,15,2,17760768,0,13
1732729588.79073,0.0,True,0.024961549788713455,-0.01129471231251955,3.079854965209961,20.97,62,15.302,0,0,False,,,,64,98,3,21,0.07586690783500671,175,80.593,,39.142414,,-76.7304834,False,0.22835470400013946,81.452,,39.1424124,,-76.7304824,0.859,,39.1424124,,-76.7304824,8.620680809020996,6.451522350311279,-23.134178161621094,value_here,POSCTL,,,,105,,ACTIVE,4.1107165813446045,0.01,-0.06,-0.72,12,1,15,2,17760768,0,13
1732729588.8909364,0.0,True,0.02857518196105957,-0.006120543461292982,3.087733507156372,21.43,58,15.187,0,0,False,,,,64,98,3,21,0.07110908627510071,176,80.593,,39.142414,,-76.7304834,False,0.32432992599979116,81.55,,39.1424123,,-76.7304821,0.957,,39.1424123,,-76.7304821,8.534814834594727,6.467891216278076,-23.15115737915039,value_here,POSCTL,,,,105,,ACTIVE,1732729584.7802198,0.01,-0.06,-0.73,12,1,15,2,17760768,0,13
1732729588.9909627,0.0,True,0.03329721465706825,-0.0005552817601710558,3.095578193664551,21.43,58,15.187,0,0,False,,,,64,98,3,21,0.07110908627510071,176,80.593,,39.142414,,-76.7304834,False,0.4364966479997747,81.595,,39.1424122,,-76.730482,1.002,,39.1424122,,-76.730482,8.46068000793457,6.482585430145264,-23.16684913635254,value_here,POSCTL,,,,105,,ACTIVE,4.210742950439453,0.02,-0.07,-0.74,12,1,15,2,17760768,0,13
1732729589.0912826,0.0,True,0.037648070603609085,0.0034291257616132498,3.10251784324646,21.43,58,15.187,0,0,False,,,,64,98,3,21,0.07110908627510071,176,80.593,,39.142414,,-76.7304834,False,0.5241893890001847,81.694,,39.1424121,,-76.7304818,1.1,,39.1424121,,-76.7304818,8.378705024719238,6.497191905975342,-23.177831649780273,value_here,POSCTL,,,,133,,ACTIVE,1732729584.8805397,0.04,-0.09,-0.74,12,1,15,2,17760768,0,13
1732729589.191514,0.0,True,0.0355001762509346,0.00016945527750067413,3.108384847640991,21.43,58,15.187,0,0,False,,,,64,98,3,21,0.11766911298036575,178,80.593,,39.142414,,-76.7304834,False,0.6293586480001068,81.742,,39.142412,,-76.7304817,1.149,,39.142412,,-76.7304817,8.29382038116455,6.511645317077637,-23.19219970703125,value_here,POSCTL,,,,133,,ACTIVE,4.310974359512329,0.05,-0.1,-0.73,12,1,15,2,17760768,0,13
1732729589.292556,0.0,True,0.03161049634218216,-0.0023061404936015606,3.113823413848877,21.43,58,15.187,0,0,False,,,,64,98,3,21,0.11766911298036575,178,80.593,,39.142414,,-76.7304834,False,0.7403921850000188,81.839,,39.1424119,,-76.7304816,1.246,,39.1424119,,-76.7304816,8.217011451721191,6.523003101348877,-23.19856834411621,value_here,POSCTL,,,,133,,ACTIVE,1732729584.9815817,0.07,-0.11,-0.76,12,1,15,2,17760768,0,13
1732729589.391836,0.0,True,0.03228747844696045,-0.003454506164416671,3.118072509765625,21.43,58,15.187,0,0,False,,,,64,98,3,21,0.11766911298036575,178,80.593,,39.142414,,-76.7304834,False,0.8309716849998949,81.892,,39.1424119,,-76.7304815,1.299,,39.1424119,,-76.7304815,8.125702857971191,6.539185523986816,-23.205232620239258,value_here,POSCTL,,,,158,,ACTIVE,4.410254240036011,0.08,-0.11,-0.77,12,1,15,2,17760768,0,13
1732729589.4921136,0.0,True,0.03248189762234688,-0.0034868805669248104,3.120975971221924,21.38,56,15.117,0,0,False,,,,64,98,3,21,0.11766911298036575,178,80.593,,39.142414,,-76.7304834,False,0.9378133509999316,81.995,,39.1424118,,-76.7304813,1.402,,39.1424118,,-76.7304813,8.041329383850098,6.553469181060791,-23.210176467895508,value_here,POSCTL,,,,158,,ACTIVE,1732729585.0818594,0.09,-0.11,-0.77,12,1,15,2,17760768,0,13
1732729589.5922148,0.0,True,0.024858303368091583,0.0020301539916545153,3.125230312347412,21.38,56,15.117,0,0,False,,,,64,98,3,20,0.15276877582073212,178,80.593,,39.142414,,-76.7304834,False,0.034032537000257435,82.051,,39.1424118,,-76.7304811,1.458,,39.1424118,,-76.7304811,7.947651386260986,6.572253704071045,-23.21808624267578,value_here,POSCTL,,,,158,,ACTIVE,4.510355472564697,0.09,-0.12,-0.76,12,1,15,2,17760768,0,13
1732729589.6923516,0.0,True,0.023538174107670784,0.0050434391014277935,3.127110004425049,21.38,56,15.117,0,0,False,,,,66,98,3,20,0.15276877582073212,178,80.593,,39.142414,,-76.7304834,False,0.13696618500034674,82.154,,39.1424117,,-76.7304809,1.561,,39.1424117,,-76.7304809,7.947651386260986,6.572253704071045,-23.21808624267578,value_here,POSCTL,,,,186,,ACTIVE,1732729585.181996,0.09,-0.13,-0.76,12,1,15,2,17760768,0,13
1732729589.7925634,0.0,True,0.02609075792133808,0.010720581747591496,3.13006591796875,21.38,56,15.117,0,0,False,,,,66,98,3,20,0.15276877582073212,178,80.593,,39.142414,,-76.7304834,False,0.20882838800025638,82.209,,39.1424117,,-76.7304808,1.615,,39.1424117,,-76.7304808,7.859529972076416,6.586866855621338,-23.223459243774414,value_here,POSCTL,,,,186,,ACTIVE,4.610567331314087,0.09,-0.14,-0.76,12,1,15,2,17760768,0,13
1732729589.8927507,0.0,True,0.030810710042715073,0.011739755980670452,3.1329185962677,21.38,56,15.117,0,0,False,,,,64,98,3,20,0.18904772400856018,179,80.593,,39.142414,,-76.7304834,False,0.33724759200003973,82.264,,39.1424117,,-76.7304807,1.671,,39.1424117,,-76.7304807,7.771859169006348,6.598545551300049,-23.227378845214844,value_here,POSCTL,,,,186,,ACTIVE,1732729585.2821834,0.09,-0.15,-0.76,12,1,15,2,17760768,0,13
1732729589.9928544,0.0,True,0.03559817001223564,0.00941909197717905,3.135942220687866,21.38,56,15.117,0,0,False,,,,64,98,3,20,0.18904772400856018,179,80.593,,39.142414,,-76.7304834,False,0.4292407960001583,82.369,,39.1424116,,-76.7304805,1.776,,39.1424116,,-76.7304805,7.6868767738342285,6.612979888916016,-23.235078811645508,value_here,POSCTL,,,,186,,ACTIVE,4.7106709480285645,0.09,-0.17,-0.76,12,1,15,2,17760768,0,13
1732729590.0941067,0.0,True,0.03734820708632469,0.011624651961028576,3.1386032104492188,21.38,56,15.117,0,0,False,,,,64,98,3,20,0.18904772400856018,179,80.593,,39.142414,,-76.7304834,False,0.5389083140003095,82.425,,39.1424116,,-76.7304804,1.832,,39.1424116,,-76.7304804,7.597162246704102,6.627347946166992,-23.238479614257812,value_here,POSCTL,,,,211,,ACTIVE,1732729585.3834357,0.1,-0.18,-0.77,12,1,15,2,17760768,0,13
1732729590.1941957,0.0,True,0.037089306861162186,0.013967939652502537,-3.1410324573516846,21.44,54,15.064,0,0,False,,,,64,98,3,20,0.18904772400856018,179,80.593,,39.142414,,-76.7304834,False,0.6399294810003084,82.531,,39.1424115,,-76.7304803,1.937,,39.1424115,,-76.7304803,7.505706310272217,6.633880615234375,-23.240463256835938,value_here,POSCTL,,,,211,,ACTIVE,4.810760021209717,0.12,-0.2,-0.76,12,1,15,2,17760768,0,13
1732729590.2935698,0.0,True,0.03687531501054764,0.010881085880100727,-3.1379263401031494,21.44,54,15.064,0,0,False,,,,64,98,3,20,0.25022077560424805,180,80.593,,39.142414,,-76.7304834,False,0.7207066099999793,82.58,,39.1424115,,-76.7304802,1.986,,39.1424115,,-76.7304802,7.420517444610596,6.646250247955322,-23.2418270111084,value_here,POSCTL,,,,211,,ACTIVE,1732729585.4828098,0.13,-0.21,-0.77,12,1,15,2,17760768,0,13
1732729590.3937373,0.0,True,0.03652394562959671,0.006448454689234495,-3.1337478160858154,21.44,54,15.064,0,0,False,,,,64,98,3,20,0.25022077560424805,180,80.593,,39.142414,,-76.7304834,False,0.8332118319999609,82.687,,39.1424115,,-76.7304801,2.094,,39.1424115,,-76.7304801,7.329969882965088,6.655409812927246,-23.241762161254883,value_here,POSCTL,,,,238,,ACTIVE,4.9109275341033936,0.14,-0.23,-0.77,12,1,15,2,17760768,0,13
1732729590.4938984,0.0,True,0.03645866736769676,0.004542268812656403,-3.1296963691711426,21.44,54,15.064,0,0,False,,,,64,98,3,20,0.25022077560424805,180,80.593,,39.142414,,-76.7304834,False,0.9379404810001688,82.745,,39.1424115,,-76.73048,2.151,,39.1424115,,-76.73048,7.329969882965088,6.655409812927246,-23.241762161254883,value_here,POSCTL,,,,238,,ACTIVE,1732729585.5829709,0.15,-0.24,-0.77,12,1,15,2,17760768,0,13
1732729590.5940905,0.0,True,0.03133506327867508,0.004162176046520472,-3.12569260597229,21.44,54,15.064,0,0,False,,,,64,98,3,20,0.2969733476638794,180,80.593,,39.142414,,-76.7304834,False,0.03044837000015832,82.847,,39.1424116,,-76.7304799,2.254,,39.1424116,,-76.7304799,7.242983818054199,6.663381576538086,-23.24115753173828,value_here,POSCTL,,,,238,,ACTIVE,5.011119604110718,0.16,-0.25,-0.78,12,1,15,2,17760768,0,13
1732729590.6943758,0.0,True,0.026602301746606827,0.005605706013739109,-3.1224679946899414,21.44,54,15.064,0,0,False,,,,64,98,3,20,0.2969733476638794,180,80.593,,39.142414,,-76.7304834,False,0.1294294260001152,82.9,,39.1424116,,-76.7304799,2.306,,39.1424116,,-76.7304799,7.143884658813477,6.67189359664917,-23.23778533935547,value_here,POSCTL,,,,238,,ACTIVE,1732729585.6832561,0.17,-0.25,-0.77,12,1,15,2,17760768,0,13
1732729590.7944055,0.0,True,0.02350240759551525,0.008161612786352634,-3.1200034618377686,21.44,54,15.064,0,0,False,,,,64,98,3,20,0.2969733476638794,180,80.593,,39.142414,,-76.7304834,False,0.23239424100029282,83.01,,39.1424116,,-76.7304798,2.417,,39.1424116,,-76.7304798,7.063029766082764,6.678747177124023,-23.236753463745117,value_here,POSCTL,,,,266,,ACTIVE,5.111149311065674,0.17,-0.26,-0.78,12,1,15,2,17760768,0,13
1732729590.8946016,0.0,True,0.024236580356955528,0.008247073739767075,-3.11826491355896,21.36,52,15.018,0,0,False,,,,64,98,3,20,0.33025869727134705,181,80.593,,39.142414,,-76.7304834,False,0.3385582410001007,83.069,,39.1424116,,-76.7304798,2.476,,39.1424116,,-76.7304798,6.967121124267578,6.681699275970459,-23.232603073120117,value_here,POSCTL,,,,266,,ACTIVE,1732729585.7834523,0.17,-0.27,-0.79,12,1,15,2,17760768,0,13
1732729590.9956336,0.0,True,0.02786100097000599,0.008395150303840637,-3.11606502532959,21.36,52,15.018,0,0,False,,,,64,98,3,20,0.33025869727134705,181,80.593,,39.142414,,-76.7304834,False,0.44050574099992446,83.179,,39.1424116,,-76.7304797,2.586,,39.1424116,,-76.7304797,6.874993801116943,6.6894659996032715,-23.23185157775879,value_here,POSCTL,,,,266,,ACTIVE,5.212181329727173,0.17,-0.28,-0.8,12,1,15,2,17760768,0,13
1732729591.094952,0.0,True,0.03169764578342438,0.004607656504958868,-3.114820718765259,21.36,52,15.018,0,0,False,,,,64,98,3,20,0.33025869727134705,181,80.593,,39.142414,,-76.7304834,False,0.5199144810003418,83.229,,39.1424116,,-76.7304796,2.636,,39.1424116,,-76.7304796,6.7861328125,6.69373893737793,-23.22913360595703,value_here,POSCTL,,,,291,,ACTIVE,1732729585.8827708,0.17,-0.29,-0.8,12,1,15,2,17760768,0,13
1732729591.1956463,0.0,True,0.032550014555454254,0.0001750578812789172,-3.114091396331787,21.36,52,15.018,0,0,False,,,,64,98,3,20,0.33025869727134705,181,80.593,,39.142414,,-76.7304834,False,0.6399321480002982,83.289,,39.1424117,,-76.7304796,2.695,,39.1424117,,-76.7304796,6.697812080383301,6.687729358673096,-23.220521926879883,value_here,POSCTL,,,,291,,ACTIVE,5.312875509262085,0.18,-0.29,-0.79,12,1,15,2,17760768,0,13
1732729591.2958457,0.0,True,0.02652863971889019,-0.001634083571843803,-3.1136598587036133,21.36,52,15.018,0,0,False,,,,64,98,3,20,0.3611181676387787,181,80.593,,39.142414,,-76.7304834,False,0.7154282960000273,83.4,,39.1424118,,-76.7304797,2.807,,39.1424118,,-76.7304797,6.697812080383301,6.687729358673096,-23.220521926879883,value_here,POSCTL,,,,291,,ACTIVE,1732729585.9829702,0.2,-0.29,-0.81,12,1,15,2,17760768,0,13
1732729591.3960087,0.0,True,0.019748974591493607,-0.0010896861786022782,-3.113198757171631,21.36,52,15.018,0,0,False,,,,64,98,3,20,0.3611181676387787,181,80.593,,39.142414,,-76.7304834,False,0.8169543510002768,83.457,,39.1424118,,-76.7304797,2.864,,39.1424118,,-76.7304797,6.601297855377197,6.686887741088867,-23.2133731842041,value_here,POSCTL,,,,291,,ACTIVE,5.413038492202759,0.2,-0.29,-0.81,12,1,15,2,17760768,0,13
1732729591.496107,0.0,True,0.020334629341959953,0.0010344801703467965,-3.1133217811584473,21.36,52,15.018,0,0,False,,,,64,98,3,20,0.3611181676387787,181,80.593,,39.142414,,-76.7304834,False,0.9377793510002448,83.563,,39.1424118,,-76.7304795,2.97,,39.1424118,,-76.7304795,6.509644985198975,6.699831962585449,-23.211483001708984,value_here,POSCTL,,,,319,,ACTIVE,1732729586.0830686,0.19,-0.28,-0.82,12,1,15,2,17760768,0,13
1732729591.5962737,0.0,True,0.021959325298666954,0.0033746580593287945,-3.1129589080810547,21.22,52,15.012,0,0,False,,,,64,98,3,20,0.34992584586143494,181,80.593,,39.142414,,-76.7304834,False,0.02912644400021236,83.622,,39.1424119,,-76.7304795,3.028,,39.1424119,,-76.7304795,6.414492130279541,6.704170227050781,-23.205068588256836,value_here,POSCTL,,,,319,,ACTIVE,5.513205051422119,0.19,-0.28,-0.83,12,1,15,2,17760768,0,13
1732729591.6964848,0.0,True,0.018030619248747826,0.005469617899507284,-3.1122448444366455,21.22,52,15.012,0,0,False,,,,64,98,3,20,0.34992584586143494,181,80.593,,39.142414,,-76.7304834,False,0.13972751800019978,83.737,,39.1424119,,-76.7304794,3.144,,39.1424119,,-76.7304794,6.317336559295654,6.712190628051758,-23.199222564697266,value_here,POSCTL,,,,319,,ACTIVE,1732729586.1832798,0.2,-0.28,-0.82,12,1,15,2,17760768,0,13
1732729591.7964594,0.0,True,0.012844007462263107,0.007642101962119341,-3.1111955642700195,21.22,52,15.012,0,0,False,,,,64,98,3,20,0.34992584586143494,181,80.593,,39.142414,,-76.7304834,False,0.22860970300007466,83.79,,39.1424119,,-76.7304793,3.196,,39.1424119,,-76.7304793,6.2301483154296875,6.721433162689209,-23.193012237548828,value_here,POSCTL,,,,346,,ACTIVE,5.613179683685303,0.2,-0.28,-0.82,12,1,15,2,17760768,0,13
1732729591.8968253,0.0,True,0.017990833148360252,0.010526406578719616,-3.109342336654663,21.22,52,15.012,0,0,False,,,,64,98,3,20,0.34992584586143494,181,80.593,,39.142414,,-76.7304834,False,0.34133514799987097,83.903,,39.142412,,-76.7304792,3.31,,39.142412,,-76.7304792,6.1334028244018555,6.728924751281738,-23.190380096435547,value_here,POSCTL,,,,346,,ACTIVE,1732729586.2836456,0.19,-0.29,-0.82,12,1,15,2,17760768,0,13
1732729591.9968927,0.0,True,0.025016700848937035,0.013485809788107872,-3.1078429222106934,21.22,52,15.012,0,0,False,,,,64,98,3,20,0.3499489724636078,181,80.593,,39.142414,,-76.7304834,False,0.4395904809998683,83.96,,39.142412,,-76.7304791,3.366,,39.142412,,-76.7304791,6.039205074310303,6.737972736358643,-23.188631057739258,value_here,POSCTL,,,,346,,ACTIVE,5.713247060775757,0.18,-0.28,-0.82,12,1,15,2,17760768,0,13
1732729592.097014,0.0,True,0.026076048612594604,0.014983020722866058,-3.1070139408111572,21.22,52,15.012,0,0,False,,,,64,98,3,20,0.3499489724636078,181,80.593,,39.142414,,-76.7304834,False,0.5432337769998412,84.073,,39.142412,,-76.7304791,3.48,,39.142412,,-76.7304791,6.039205074310303,6.737972736358643,-23.188631057739258,value_here,POSCTL,,,,373,,ACTIVE,1732729586.383767,0.19,-0.3,-0.81,12,1,15,2,17760768,0,13
1732729592.1971693,0.0,True,0.0201200433075428,0.010705222375690937,-3.1054558753967285,21.22,52,15.012,0,0,False,,,,64,98,3,20,0.3499489724636078,181,80.593,,39.142414,,-76.7304834,False,0.640465813999981,84.129,,39.1424121,,-76.7304791,3.536,,39.1424121,,-76.7304791,5.948758602142334,6.7413530349731445,-23.186124801635742,value_here,POSCTL,,,,373,,ACTIVE,5.813402414321899,0.19,-0.31,-0.83,12,1,15,2,17760768,0,13
1732729592.2974362,0.0,True,0.017543548718094826,0.007067980710417032,-3.1048483848571777,21.78,50,14.948,0,0,False,,,,64,98,3,20,0.38608860969543457,182,80.593,,39.142414,,-76.7304834,False,0.7407640920000631,84.242,,39.1424121,,-76.7304791,3.649,,39.1424121,,-76.7304791,5.849699974060059,6.741194248199463,-23.181407928466797,value_here,POSCTL,,,,373,,ACTIVE,1732729586.4840338,0.18,-0.33,-0.93,12,1,15,2,17760768,0,13
1732729592.397554,0.0,True,0.020656995475292206,0.004186040721833706,-3.1036152839660645,21.78,50,14.948,0,0,False,,,,64,98,3,20,0.38608860969543457,182,80.593,,39.142414,,-76.7304834,False,0.8247891480000362,84.316,,39.1424121,,-76.730479,3.722,,39.1424121,,-76.730479,5.753087997436523,6.746909141540527,-23.181089401245117,value_here,POSCTL,,,,373,,ACTIVE,5.913520097732544,0.18,-0.34,-1.08,12,1,15,2,17760768,0,13
1732729592.4975953,0.0,True,0.026126420125365257,0.0005636654095724225,-3.1049113273620605,21.78,50,14.948,0,0,False,,,,64,98,3,20,0.38608860969543457,182,80.593,,39.142414,,-76.7304834,False,0.942477166000117,84.384,,39.1424121,,-76.730479,3.79,,39.1424121,,-76.730479,5.616275787353516,6.752811908721924,-23.182323455810547,value_here,POSCTL,,,,402,,ACTIVE,1732729586.5840752,0.17,-0.35,-1.23,12,1,15,2,17760768,0,13
1732729592.5978427,0.0,True,0.02363019809126854,0.0018187775276601315,-3.1068267822265625,21.78,50,14.948,0,0,False,,,,64,98,3,20,0.405155211687088,181,80.593,,39.142414,,-76.7304834,False,0.03998327799990875,84.577,,39.1424121,,-76.7304789,3.983,,39.1424121,,-76.7304789,5.459610462188721,6.754451751708984,-23.181442260742188,value_here,POSCTL,,,,402,,ACTIVE,6.01376748085022,0.17,-0.36,-1.54,12,1,15,2,17760768,0,13
1732729592.6979067,0.0,True,0.02227342501282692,0.0008958125254139304,-3.1084890365600586,21.78,50,14.948,0,0,False,,,,64,98,3,20,0.405155211687088,181,80.593,,39.142414,,-76.7304834,False,0.12655822199985778,84.694,,39.1424121,,-76.7304789,4.101,,39.1424121,,-76.7304789,5.268609523773193,6.757903099060059,-23.183940887451172,value_here,POSCTL,,,,402,,ACTIVE,1732729586.6841393,0.16,-0.37,-1.6,12,1,15,2,17760768,0,13
1732729592.7980874,0.0,True,0.021005144342780113,0.0029314695857465267,-3.109557628631592,21.78,50,14.948,0,0,False,,,,64,98,3,20,0.405155211687088,181,80.593,,39.142414,,-76.7304834,False,0.23393455499990523,84.902,,39.1424121,,-76.7304789,4.309,,39.1424121,,-76.7304789,5.104748249053955,6.756030082702637,-23.181621551513672,value_here,POSCTL,,,,452,,ACTIVE,6.113948106765747,0.16,-0.37,-1.53,12,1,15,2,17760768,0,13
1732729592.8982518,0.0,True,0.022247040644288063,0.0037940540350973606,-3.1087491512298584,21.78,50,14.948,0,0,False,,,,64,98,3,20,0.405155211687088,181,80.593,,39.142414,,-76.7304834,False,0.34200374100009867,85.0,,39.1424121,,-76.7304788,4.407,,39.1424121,,-76.7304788,5.104748249053955,6.756030082702637,-23.181621551513672,value_here,POSCTL,,,,452,,ACTIVE,1732729586.7843037,0.16,-0.36,-1.49,12,1,15,2,17760768,0,13
1732729592.9993782,0.0,True,0.023213202133774757,0.0032353331334888935,-3.1083807945251465,22.5,48,14.892,0,0,False,,,,64,98,3,20,0.40541478991508484,181,80.593,,39.142414,,-76.7304834,False,0.4489181290000488,85.206,,39.1424121,,-76.7304788,4.612,,39.1424121,,-76.7304788,4.928575038909912,6.760783672332764,-23.179109573364258,value_here,POSCTL,,,,452,,ACTIVE,6.21507453918457,0.17,-0.36,-1.43,12,1,15,2,17760768,0,13
1732729593.0984213,0.0,True,0.02024444378912449,0.0036854224745184183,-3.10830020904541,22.5,48,14.892,0,0,False,,,,64,98,3,20,0.40541478991508484,181,80.593,,39.142414,,-76.7304834,False,0.531887536999875,85.299,,39.1424121,,-76.7304788,4.706,,39.1424121,,-76.7304788,4.76696252822876,6.766033172607422,-23.17687225341797,value_here,POSCTL,,,,452,,ACTIVE,1732729586.8833468,0.17,-0.36,-1.42,12,1,15,2,17760768,0,13
1732729593.198674,0.0,True,0.022158628329634666,0.01079338975250721,-3.1073474884033203,22.5,48,14.892,0,0,False,,,,64,98,3,20,0.40541478991508484,181,80.593,,39.142414,,-76.7304834,False,0.6444296479999139,85.492,,39.1424122,,-76.7304787,4.899,,39.1424122,,-76.7304787,4.6122355461120605,6.777552127838135,-23.173614501953125,value_here,POSCTL,,,,502,,ACTIVE,6.315327167510986,0.18,-0.35,-1.44,12,1,15,2,17760768,0,13
1732729593.2990937,0.0,True,0.022819625213742256,0.012388840317726135,-3.1074674129486084,22.5,48,14.892,0,0,False,,,,64,98,3,20,0.41054487228393555,181,80.593,,39.142414,,-76.7304834,False,0.747422128999915,85.594,,39.1424122,,-76.7304787,5.0,,39.1424122,,-76.7304787,4.442469596862793,6.774770736694336,-23.162527084350586,value_here,POSCTL,,,,502,,ACTIVE,1732729586.9837666,0.18,-0.36,-1.47,12,1,15,2,17760768,0,13
1732729593.3991725,0.0,True,0.020773736760020256,0.008351375348865986,-3.1079788208007812,22.5,48,14.892,0,0,False,,,,64,98,3,20,0.41054487228393555,181,80.593,,39.142414,,-76.7304834,False,0.8468607220002013,85.794,,39.1424123,,-76.7304786,5.2,,39.1424123,,-76.7304786,4.272858619689941,6.786269187927246,-23.15760612487793,value_here,POSCTL,,,,502,,ACTIVE,6.415405988693237,0.19,-0.37,-1.54,12,1,15,2,17760768,0,13
1732729593.499334,0.0,True,0.019250091165304184,0.0005168960196897388,-3.1090946197509766,22.5,48,14.892,0,0,False,,,,64,98,3,20,0.41054487228393555,181,80.593,,39.142414,,-76.7304834,False,0.9458966850002071,85.91,,39.1424123,,-76.7304786,5.316,,39.1424123,,-76.7304786,4.095493316650391,6.7853312492370605,-23.149572372436523,value_here,POSCTL,,,,552,,ACTIVE,1732729587.083928,0.18,-0.37,-1.58,12,1,15,2,17760768,0,13
1732729593.5994592,0.0,True,0.01844586245715618,0.0002897165541071445,-3.109832286834717,23.34,47,14.84,0,0,False,,,,64,98,3,20,0.41054487228393555,181,80.593,,39.142414,,-76.7304834,False,0.04543242599993391,86.017,,39.1424124,,-76.7304786,5.424,,39.1424124,,-76.7304786,3.9084784984588623,6.792004108428955,-23.142995834350586,value_here,POSCTL,,,,552,,ACTIVE,6.515531063079834,0.18,-0.38,-1.62,12,1,15,2,17760768,0,13
1732729593.6997662,0.0,True,0.01854763738811016,0.005434764549136162,-3.1108877658843994,23.34,47,14.84,0,0,False,,,,64,98,3,20,0.42738670110702515,181,80.593,,39.142414,,-76.7304834,False,0.1465802600000643,86.24,,39.1424125,,-76.7304785,5.647,,39.1424125,,-76.7304785,3.7180824279785156,6.789699077606201,-23.132993698120117,value_here,POSCTL,,,,552,,ACTIVE,1732729587.184235,0.19,-0.38,-1.69,12,1,15,2,17760768,0,13
1732729593.8002584,0.0,True,0.01633927971124649,0.010351168923079967,-3.112354040145874,23.34,47,14.84,0,0,False,,,,64,98,3,20,0.42738670110702515,181,80.593,,39.142414,,-76.7304834,False,0.247657166999943,86.465,,39.1424126,,-76.7304785,5.871,,39.1424126,,-76.7304785,3.7180824279785156,6.789699077606201,-23.132993698120117,value_here,POSCTL,,,,552,,ACTIVE,6.616023302078247,0.19,-0.39,-1.74,12,1,15,2,17760768,0,13
1732729593.900438,0.0,True,0.012127690948545933,0.00974105391651392,-3.113158941268921,23.34,47,14.84,0,0,False,,,,64,98,3,20,0.42738670110702515,181,80.593,,39.142414,,-76.7304834,False,0.32628650000015114,86.591,,39.1424126,,-76.7304785,5.998,,39.1424126,,-76.7304785,3.527315139770508,6.792621612548828,-23.126529693603516,value_here,POSCTL,,,,607,,ACTIVE,1732729587.2844148,0.19,-0.39,-1.78,12,1,15,2,17760768,0,13
1732729594.0005298,0.0,True,0.00920435693114996,0.002786453580483794,-3.1140360832214355,23.34,47,14.84,0,0,False,,,,64,98,3,20,0.44668638706207275,181,80.593,,39.142414,,-76.7304834,False,0.44592092599987154,86.729,,39.1424127,,-76.7304785,6.135,,39.1424127,,-76.7304785,3.3223865032196045,6.788532733917236,-23.116315841674805,value_here,POSCTL,,,,607,,ACTIVE,6.7161149978637695,0.19,-0.4,-1.83,12,1,15,2,17760768,0,13
1732729594.100789,0.0,True,0.007300236262381077,0.0019890349358320236,-3.114452838897705,23.34,47,14.84,0,0,False,,,,64,98,3,20,0.44668638706207275,181,80.593,,39.142414,,-76.7304834,False,0.5408699820000038,86.969,,39.1424127,,-76.7304785,6.376,,39.1424127,,-76.7304785,3.115438222885132,6.794967174530029,-23.11153793334961,value_here,POSCTL,,,,607,,ACTIVE,1732729587.384674,0.18,-0.41,-1.91,12,1,15,2,17760768,0,13
1732729594.200872,0.0,True,0.010140744969248772,0.0038734176196157932,-3.115097999572754,23.34,47,14.84,0,0,False,,,,64,98,3,20,0.44668638706207275,181,80.593,,39.142414,,-76.7304834,False,0.6301993330002915,87.111,,39.1424128,,-76.7304786,6.518,,39.1424128,,-76.7304786,2.8858680725097656,6.779006004333496,-23.099634170532227,value_here,POSCTL,,,,672,,ACTIVE,6.816197872161865,0.18,-0.41,-1.94,12,1,15,2,17760768,0,13
1732729594.3009777,0.0,True,0.009344188496470451,0.003855610964819789,-3.1160643100738525,24.06,47,14.813,0,0,False,,,,64,98,3,20,0.44668638706207275,181,80.593,,39.142414,,-76.7304834,False,0.7455922780000037,87.377,,39.1424129,,-76.7304787,6.783,,39.1424129,,-76.7304787,2.6594841480255127,6.774759292602539,-23.093664169311523,value_here,POSCTL,,,,672,,ACTIVE,1732729587.4847798,0.17,-0.41,-2.02,12,1,15,2,17760768,0,13
1732729594.4012518,0.0,True,0.007242125459015369,-0.0017344015650451183,-3.1164400577545166,24.06,47,14.813,0,0,False,,,,64,98,3,20,0.4487932026386261,181,80.593,,39.142414,,-76.7304834,False,0.8376313150001806,87.506,,39.1424129,,-76.7304787,6.913,,39.1424129,,-76.7304787,2.4256815910339355,6.771450996398926,-23.08824348449707,value_here,POSCTL,,,,672,,ACTIVE,6.9164719581604,0.16,-0.41,-2.05,12,1,15,2,17760768,0,13
1732729594.5012906,0.0,True,0.0025863118935376406,-0.006194941699504852,-3.1181960105895996,24.06,47,14.813,0,0,False,,,,64,98,3,20,0.4487932026386261,181,80.593,,39.142414,,-76.7304834,False,0.9472460000001774,87.797,,39.1424129,,-76.7304788,7.204,,39.1424129,,-76.7304788,2.4256815910339355,6.771450996398926,-23.08824348449707,value_here,POSCTL,,,,739,,ACTIVE,1732729587.5848186,0.14,-0.41,-2.14,12,1,15,2,17760768,0,13
