timestamp,airspeed,armed,attack_type,attitude.pitch,attitude.roll,attitude.yaw,battery.current,battery.level,battery.voltage,commands.count,commands.next,companion_computer.cpu_temp,companion_computer.cpu_usage,companion_computer.ram_usage,ekf_ok,gimbal.pitch,gimbal.roll,gimbal.yaw,gps_0.eph,gps_0.epv,gps_0.fix_type,gps_0.satellites_visible,groundspeed,heading,home_location.alt,home_location.global_frame,home_location.lat,home_location.local_frame,home_location.lon,is_armable,last_heartbeat,location.global_frame.alt,location.global_frame.global_frame,location.global_frame.lat,location.global_frame.local_frame,location.global_frame.lon,location.global_relative_frame.alt,location.global_relative_frame.global_frame,location.global_relative_frame.lat,location.global_relative_frame.local_frame,location.global_relative_frame.lon,location.local_frame.down,location.local_frame.east,location.local_frame.north,ml_verdict,mode.name,mount_status[0],mount_status[1],mount_status[2],rangefinder.distance,rangefinder.voltage,system_status.state,timedelta,velocity[0],velocity[1],velocity[2],version.autopilot_type,version.major,version.minor,version.patch,version.raw_version,version.release,version.vehicle_type
1733609187,0,True,benign,-0.009198057,-0.020674635,3.073096991,3.26,79,16.127,0,0,58.4,4.4,6.6,False,,,,84,135,4,17,0.049031369,175,80.555,,39.142395,,-76.7304815,False,0.019154166,81.145,,39.1423948,,-76.7304808,0.026,,39.1423948,,-76.7304808,8.364935875,7.098098755,-21.36360741,0,POSCTL,,,,9,,ACTIVE,0.0,0.01,0.04,-0.17,12,1,15,2,17760768,0,13
1733609188,0,True,benign,-0.008713222,-0.017137967,3.075330496,3.57,78,16.092,0,0,57.9,1.0,6.6,False,,,,84,135,4,16,0.030456658,176,81.118,,39.142395,,-76.7304809,False,0.030665722,81.181,,39.1423945,,-76.7304808,0.062,,39.1423945,,-76.7304808,8.329969406,7.106895447,-21.39879227,0,POSCTL,,,,9,,ACTIVE,1733609188.0,0.02,0.03,-0.18,12,1,15,2,17760768,0,13
1733609189,0,True,benign,-0.008784279,-0.016840415,3.075721979,3.57,78,16.092,0,0,57.9,4.4,6.6,False,,,,84,135,4,16,0.020893479,176,81.118,,39.142395,,-76.7304809,False,0.129387315,81.186,,39.1423945,,-76.7304807,0.067,,39.1423945,,-76.7304807,8.324910164,7.107613564,-21.40075111,0,POSCTL,,,,9,,ACTIVE,0.099625826,0.02,0.02,-0.18,12,1,15,2,17760768,0,13
1733609189,0,True,benign,-0.00854747,-0.016108338,3.076392889,3.57,78,16.092,0,0,58.4,2.3,6.6,False,,,,84,135,4,16,0.020893479,176,81.118,,39.142395,,-76.7304809,False,0.223044296,81.19,,39.1423945,,-76.7304807,0.071,,39.1423945,,-76.7304807,8.324910164,7.107613564,-21.40075111,0,POSCTL,,,,9,,ACTIVE,1733609189.0,0.03,0.02,-0.17,12,1,15,2,17760768,0,13
1733609189,0,True,benign,-0.007697451,-0.015624858,3.076385975,3.57,78,16.092,0,0,58.4,6.5,6.6,False,,,,84,135,4,16,0.020893479,176,81.118,,39.142395,,-76.7304809,False,0.328940074,81.192,,39.1423945,,-76.7304807,0.073,,39.1423945,,-76.7304807,8.319700241,7.107474804,-21.40122795,0,POSCTL,,,,9,,ACTIVE,0.199819803,0.03,0.0,-0.16,12,1,15,2,17760768,0,13
1733609189,0,True,benign,-0.007514083,-0.015910368,3.076881409,3.61,77,16.056,0,0,58.9,2.2,6.6,False,,,,84,135,4,16,0.037609749,176,81.118,,39.142395,,-76.7304809,False,0.418449296,81.195,,39.1423945,,-76.7304808,0.076,,39.1423945,,-76.7304808,8.317727089,7.106616497,-21.40069771,0,POSCTL,,,,9,,ACTIVE,1733609189.0,0.03,-0.01,-0.17,12,1,15,2,17760768,0,13
1733609189,0,True,benign,-0.007349507,-0.015371976,3.077489376,3.61,77,16.056,0,0,57.9,6.4,6.6,False,,,,84,135,4,16,0.037609749,176,81.118,,39.142395,,-76.7304809,False,0.531447129,81.197,,39.1423945,,-76.7304808,0.078,,39.1423945,,-76.7304808,8.314353943,7.105128765,-21.40066338,1,POSCTL,,,,9,,ACTIVE,0.300647736,0.03,-0.02,-0.16,12,1,15,2,17760768,0,13
1733609189,0,True,benign,-0.007279105,-0.015018445,3.077552795,3.61,77,16.056,0,0,58.9,2.3,6.6,False,,,,84,135,4,16,0.037609749,176,81.118,,39.142395,,-76.7304809,False,0.619275574,81.201,,39.1423945,,-76.7304808,0.082,,39.1423945,,-76.7304808,8.310311317,7.105242729,-21.40014076,0,POSCTL,,,,9,,ACTIVE,1733609189.0,0.04,-0.01,-0.16,12,1,15,2,17760768,0,13
1733609189,0,True,benign,-0.008300554,-0.015097552,3.077745914,3.61,77,16.056,0,0,58.4,4.4,6.6,False,,,,84,135,4,16,0.037609749,176,81.118,,39.142395,,-76.7304809,False,0.727328814,81.204,,39.1423945,,-76.7304808,0.086,,39.1423945,,-76.7304808,8.305431366,7.104766846,-21.40002441,1,POSCTL,,,,9,,ACTIVE,0.40076375,0.03,-0.03,-0.16,12,1,15,2,17760768,0,13
1733609189,0,True,benign,-0.007029276,-0.014527232,3.077969074,3.61,77,16.056,0,0,59.4,4.4,6.6,False,,,,84,135,4,16,0.032839611,176,81.118,,39.142395,,-76.7304809,False,0.826069648,81.209,,39.1423945,,-76.7304808,0.09,,39.1423945,,-76.7304808,8.302452087,7.10381794,-21.40190887,1,POSCTL,,,,9,,ACTIVE,1733609189.0,0.02,-0.04,-0.16,12,1,15,2,17760768,0,13
1733609189,0,True,benign,-0.008252701,-0.014158773,3.077740669,3.61,77,16.056,0,0,58.4,2.2,6.6,False,,,,84,135,4,16,0.032839611,176,81.118,,39.142395,,-76.7304809,False,0.932274759,81.208,,39.1423945,,-76.7304808,0.09,,39.1423945,,-76.7304808,8.302319527,7.102174759,-21.40723991,0,POSCTL,,,,9,,ACTIVE,0.501853704,0.01,-0.03,-0.15,12,1,15,2,17760768,0,13
1733609189,0,True,benign,-0.007437094,-0.014341013,3.07875824,3.61,77,16.056,0,0,59.4,2.3,6.6,False,,,,84,135,4,16,0.032839611,176,81.118,,39.142395,,-76.7304809,False,0.034537092,81.209,,39.1423944,,-76.7304808,0.091,,39.1423944,,-76.7304808,8.302319527,7.102174759,-21.40723991,0,POSCTL,,,,9,,ACTIVE,1733609189.0,0.01,-0.05,-0.15,12,1,15,2,17760768,0,13
1733609190,0,True,benign,-0.007855339,-0.013923875,3.078439951,3.48,76,16.043,0,0,58.9,4.3,6.6,False,,,,84,135,4,16,0.042870671,176,81.118,,39.142395,,-76.7304809,False,0.135820833,81.212,,39.1423944,,-76.7304808,0.094,,39.1423944,,-76.7304808,8.300702095,7.10027504,-21.41025162,0,POSCTL,,,,9,,ACTIVE,0.602959633,0.01,-0.04,-0.15,12,1,15,2,17760768,0,13
1733609190,0,True,benign,-0.008355916,-0.014207021,3.077714443,3.48,76,16.043,0,0,57.9,2.3,6.6,False,,,,84,135,4,16,0.042870671,176,81.118,,39.142395,,-76.7304809,False,0.231829462,81.211,,39.1423944,,-76.7304808,0.092,,39.1423944,,-76.7304808,8.299729347,7.099204063,-21.41314125,0,POSCTL,,,,9,,ACTIVE,1733609189.0,0.01,-0.05,-0.13,12,1,15,2,17760768,0,13
1733609190,0,True,benign,-0.008341248,-0.013891308,3.077819586,3.48,76,16.043,0,0,58.4,4.4,6.6,False,,,,84,135,4,16,0.042870671,176,81.118,,39.142395,,-76.7304809,False,0.306970277,81.209,,39.1423943,,-76.7304808,0.091,,39.1423943,,-76.7304808,8.301792145,7.098433971,-21.41740417,0,POSCTL,,,,9,,ACTIVE,0.70323801,0.0,-0.03,-0.14,12,1,15,2,17760768,0,13
1733609190,0,True,benign,-0.008445222,-0.013512154,3.078200579,3.48,76,16.043,0,0,58.4,6.3,6.6,False,,,,84,135,4,16,0.049620852,176,81.118,,39.142395,,-76.7304809,False,0.432293184,81.205,,39.1423943,,-76.7304808,0.086,,39.1423943,,-76.7304808,8.307355881,7.099738598,-21.42161751,0,POSCTL,,,,9,,ACTIVE,1733609189.0,0.01,-0.04,-0.14,12,1,15,2,17760768,0,13
1733609190,0,True,benign,-0.008424582,-0.01340949,3.078129768,3.48,76,16.043,0,0,58.9,8.0,6.6,False,,,,84,135,4,16,0.049620852,176,81.118,,39.142395,,-76.7304809,False,0.513726555,81.202,,39.1423943,,-76.7304808,0.083,,39.1423943,,-76.7304808,8.309897423,7.101489067,-21.42512321,0,POSCTL,,,,9,,ACTIVE,0.803474903,0.0,-0.03,-0.14,12,1,15,2,17760768,0,13
1733609190,0,True,benign,-0.007902912,-0.013049484,3.078252077,3.48,76,16.043,0,0,57.4,4.1,6.6,False,,,,84,135,4,16,0.049620852,176,81.118,,39.142395,,-76.7304809,False,0.634153666,81.204,,39.1423943,,-76.7304808,0.085,,39.1423943,,-76.7304808,8.306261063,7.100989819,-21.42663383,0,POSCTL,,,,9,,ACTIVE,1733609189.0,0.01,-0.06,-0.14,12,1,15,2,17760768,0,13
1733609190,0,True,benign,-0.008208717,-0.012971053,3.078834057,3.48,76,16.043,0,0,58.4,8.0,6.6,False,,,,84,135,4,16,0.049620852,176,81.118,,39.142395,,-76.7304809,False,0.730384147,81.204,,39.1423942,,-76.7304808,0.086,,39.1423942,,-76.7304808,8.308081627,7.100656033,-21.42992592,0,POSCTL,,,,9,,ACTIVE,0.903697252,0.0,-0.04,-0.14,12,1,15,2,17760768,0,13
1733609190,0,True,benign,-0.007813025,-0.01257058,3.07945776,3.5,76,16.035,0,0,58.4,4.1,6.6,False,,,,84,135,4,16,0.083159328,176,81.118,,39.142395,,-76.7304809,False,0.837288573,81.204,,39.1423942,,-76.7304808,0.085,,39.1423942,,-76.7304808,8.308081627,7.100656033,-21.42992592,1,POSCTL,,,,9,,ACTIVE,1733609189.0,0.0,-0.08,-0.14,12,1,15,2,17760768,0,13
1733609190,0,True,benign,-0.007378238,-0.012235741,3.079824209,3.5,76,16.035,0,0,57.4,4.3,6.6,False,,,,84,135,4,16,0.083159328,176,81.118,,39.142395,,-76.7304809,False,0.925421499,81.205,,39.1423942,,-76.7304809,0.087,,39.1423942,,-76.7304809,8.305737495,7.09836483,-21.43259048,1,POSCTL,,,,9,,ACTIVE,1.002754211,0.01,-0.06,-0.16,12,1,15,2,17760768,0,13
1733609190,0,True,benign,-0.007350123,-0.012015817,3.080044985,3.5,76,16.035,0,0,57.4,8.0,6.6,False,,,,84,135,4,16,0.083159328,176,81.118,,39.142395,,-76.7304809,False,0.040354889,81.207,,39.1423942,,-76.7304809,0.088,,39.1423942,,-76.7304809,8.304535866,7.096092701,-21.43398857,1,POSCTL,,,,9,,ACTIVE,1733609189.0,0.01,-0.08,-0.16,12,1,15,2,17760768,0,13
1733609191,0,True,benign,-0.007265979,-0.011719341,3.080969572,3.5,76,16.035,0,0,57.9,4.1,6.6,False,,,,84,135,4,16,0.085916869,176,81.118,,39.142395,,-76.7304809,False,0.140297907,81.206,,39.1423942,,-76.7304809,0.088,,39.1423942,,-76.7304809,8.304924965,7.096224308,-21.43577003,1,POSCTL,,,,9,,ACTIVE,1.102694511,0.02,-0.06,-0.17,12,1,15,2,17760768,0,13
1733609191,0,True,benign,-0.007138147,-0.011777626,3.080569267,3.5,76,16.035,0,0,57.9,9.6,6.6,False,,,,84,135,4,16,0.085916869,176,81.118,,39.142395,,-76.7304809,False,0.236433944,81.207,,39.1423942,,-76.7304808,0.088,,39.1423942,,-76.7304808,8.303952217,7.097583294,-21.43305016,0,POSCTL,,,,9,,ACTIVE,1733609190.0,0.02,-0.09,-0.16,12,1,15,2,17760768,0,13
1733609191,0,True,benign,-0.007697958,-0.011590653,3.081228495,3.5,76,16.035,0,0,58.4,8.0,6.6,False,,,,84,135,4,16,0.085916869,176,81.118,,39.142395,,-76.7304809,False,0.320453629,81.211,,39.1423942,,-76.7304808,0.092,,39.1423942,,-76.7304808,8.300746918,7.09795475,-21.43277931,1,POSCTL,,,,9,,ACTIVE,1.202843904,0.03,-0.09,-0.17,12,1,15,2,17760768,0,13
1733609191,0,True,benign,-0.00777767,-0.011570825,3.081575155,3.57,75,16.019,0,0,56.9,8.2,6.6,False,,,,84,136,4,16,0.085916869,176,81.118,,39.142395,,-76.7304809,False,0.439133111,81.211,,39.1423942,,-76.7304808,0.093,,39.1423942,,-76.7304808,8.298418045,7.100034714,-21.43283844,1,POSCTL,,,,9,,ACTIVE,1733609190.0,0.03,-0.09,-0.17,12,1,15,2,17760768,0,13
1733609191,0,True,benign,-0.007816096,-0.011566544,3.081727266,3.57,75,16.019,0,0,56.4,6.1,6.6,False,,,,84,136,4,16,0.082241327,176,81.118,,39.142395,,-76.7304809,False,0.533538055,81.209,,39.1423942,,-76.7304808,0.091,,39.1423942,,-76.7304808,8.300515175,7.100344181,-21.43304062,1,POSCTL,,,,9,,ACTIVE,1.302993298,0.04,-0.1,-0.17,12,1,15,2,17760768,0,13
1733609191,0,True,benign,-0.008055783,-0.010959712,3.08227396,3.57,75,16.019,0,0,57.9,4.2,6.6,False,,,,84,136,4,16,0.082241327,176,81.118,,39.142395,,-76.7304809,False,0.641327148,81.214,,39.1423942,,-76.7304808,0.095,,39.1423942,,-76.7304808,8.300515175,7.100344181,-21.43304062,1,POSCTL,,,,9,,ACTIVE,1733609190.0,0.04,-0.07,-0.16,12,1,15,2,17760768,0,13
1733609191,0,True,benign,-0.007544794,-0.010978024,3.081298351,3.57,75,16.019,0,0,56.9,6.2,6.6,False,,,,84,136,4,16,0.082241327,176,81.118,,39.142395,,-76.7304809,False,0.732998685,81.22,,39.1423942,,-76.7304809,0.101,,39.1423942,,-76.7304809,8.29404068,7.096923351,-21.43224144,1,POSCTL,,,,9,,ACTIVE,1.4026649,0.03,-0.09,-0.15,12,1,15,2,17760768,0,13
1733609191,0,True,benign,-0.007272454,-0.011115707,3.082832098,3.57,75,16.019,0,0,57.9,8.0,6.6,False,,,,84,136,4,16,0.114477471,176,81.118,,39.142395,,-76.7304809,False,0.822588703,81.219,,39.1423942,,-76.7304809,0.101,,39.1423942,,-76.7304809,8.292170525,7.095653057,-21.43247986,1,POSCTL,,,,9,,ACTIVE,1733609190.0,0.03,-0.1,-0.16,12,1,15,2,17760768,0,13
1733609191,0,True,benign,-0.005915292,-0.011047664,3.082794189,3.57,75,16.019,0,0,57.4,4.2,6.6,False,,,,84,136,4,16,0.114477471,176,81.118,,39.142395,,-76.7304809,False,0.937946648,81.218,,39.1423942,,-76.7304809,0.099,,39.1423942,,-76.7304809,8.293564796,7.095445633,-21.43227768,1,POSCTL,,,,9,,ACTIVE,1.502896309,0.04,-0.11,-0.15,12,1,15,2,17760768,0,13
1733609191,0,True,benign,-0.005082621,-0.011203067,3.082920313,3.57,75,16.019,0,0,58.4,4.3,6.6,False,,,,84,136,4,17,0.114477471,176,81.118,,39.142395,,-76.7304809,False,0.005139315,81.216,,39.1423942,,-76.7304809,0.097,,39.1423942,,-76.7304809,8.295685768,7.096394539,-21.43171692,1,POSCTL,,,,9,,ACTIVE,1733609190.0,0.03,-0.1,-0.15,12,1,15,2,17760768,0,13
1733609192,0,True,benign,-0.004602463,-0.011580593,3.08313489,7.84,73,15.882,0,0,56.4,6.1,6.6,False,,,,84,136,4,16,0.114477471,176,81.118,,39.142395,,-76.7304809,False,0.114171592,81.217,,39.1423942,,-76.7304809,0.0,,39.1423942,,-76.7304809,8.294530869,7.095352173,-21.43120384,3,POSCTL,,,,9,,ACTIVE,1.603969336,0.04,-0.11,-0.15,12,1,15,2,17760768,0,13
1733609192,0,True,benign,-0.005400667,-0.012051265,3.083184958,7.84,73,15.882,0,0,57.4,8.0,6.6,False,,,,84,136,4,16,0.122443303,176,81.118,,39.142395,,-76.7304809,False,0.203952166,81.219,,39.1423942,,-76.7304809,0.001,,39.1423942,,-76.7304809,8.292853355,7.094235897,-21.42915154,3,POSCTL,,,,9,,ACTIVE,1733609190.0,0.05,-0.11,-0.15,12,1,15,2,17760768,0,13
1733609192,0,True,benign,-0.006598929,-0.011427277,3.083975554,7.84,73,15.882,0,0,57.4,8.2,6.6,False,,,,84,136,4,16,0.122443303,176,81.118,,39.142395,,-76.7304809,False,0.307007166,81.219,,39.1423942,,-76.7304809,0.002,,39.1423942,,-76.7304809,8.291215897,7.092720509,-21.42736816,3,POSCTL,,,,9,,ACTIVE,1.704221964,0.05,-0.11,-0.15,12,1,15,2,17760768,0,13
1733609192,0,True,benign,-0.00631131,-0.011032498,3.084436655,7.84,73,15.882,0,0,56.9,6.1,6.6,False,,,,84,136,4,16,0.122443303,176,81.118,,39.142395,,-76.7304809,False,0.410349592,81.222,,39.1423943,,-76.7304809,0.004,,39.1423943,,-76.7304809,8.291215897,7.092720509,-21.42736816,3,POSCTL,,,,9,,ACTIVE,1733609190.0,0.06,-0.11,-0.15,12,1,15,2,17760768,0,13
1733609192,0,True,benign,-0.005871234,-0.010719012,3.083802462,7.84,73,15.882,0,0,56.4,6.1,6.6,False,,,,84,136,4,16,0.150490955,176,81.118,,39.142395,,-76.7304809,False,0.513611629,81.223,,39.1423943,,-76.7304809,0.005,,39.1423943,,-76.7304809,8.288827896,7.092634201,-21.42443657,3,POSCTL,,,,9,,ACTIVE,1.804709911,0.08,-0.12,-0.15,12,1,15,2,17760768,0,13
1733609192,0,True,benign,-0.007248356,-0.010940894,3.084549665,7.84,73,15.882,0,0,56.9,6.1,6.6,False,,,,84,136,4,16,0.150490955,176,81.118,,39.142395,,-76.7304809,False,0.596678314,81.232,,39.1423943,,-76.730481,0.015,,39.1423943,,-76.730481,8.283169746,7.089361191,-21.42030716,3,POSCTL,,,,9,,ACTIVE,1733609190.0,0.07,-0.12,-0.17,12,1,15,2,17760768,0,13
1733609192,0,True,benign,-0.007175463,-0.011336139,3.083935022,7.84,73,15.882,0,0,57.9,6.1,6.6,False,,,,84,136,4,16,0.150490955,176,81.118,,39.142395,,-76.7304809,False,0.68506037,81.232,,39.1423943,,-76.730481,0.015,,39.1423943,,-76.730481,8.27955246,7.08873415,-21.41695595,3,POSCTL,,,,9,,ACTIVE,1.905050993,0.07,-0.12,-0.17,12,1,15,2,17760768,0,13
1733609192,0,True,benign,-0.007187874,-0.012065257,3.083379507,11.97,71,15.723,0,0,56.9,6.0,6.6,False,,,,84,136,4,16,0.133781374,176,81.118,,39.142395,,-76.7304809,False,0.816247314,81.231,,39.1423943,,-76.7304809,0.014,,39.1423943,,-76.7304809,8.279794693,7.09318161,-21.41767502,2,POSCTL,,,,9,,ACTIVE,1733609190.0,0.07,-0.11,-0.17,12,1,15,2,17760768,0,13
1733609192,0,True,benign,-0.008396802,-0.013760899,3.081912994,11.97,71,15.723,0,0,56.0,6.3,6.6,False,,,,84,136,4,16,0.133781374,176,81.118,,39.142395,,-76.7304809,False,0.890312796,81.235,,39.1423943,,-76.7304809,0.018,,39.1423943,,-76.7304809,8.274879456,7.094174862,-21.41579247,2,POSCTL,,,,9,,ACTIVE,2.004376888,0.07,-0.11,-0.18,12,1,15,2,17760768,0,13
1733609192,0,True,benign,-0.009950094,-0.021051399,3.076589584,11.97,71,15.723,0,0,57.4,8.2,6.6,False,,,,84,136,4,16,0.133781374,176,81.118,,39.142395,,-76.7304809,False,0.032291463,81.253,,39.1423944,,-76.7304809,0.036,,39.1423944,,-76.7304809,8.259549141,7.092478752,-21.41197586,2,POSCTL,,,,9,,ACTIVE,1733609190.0,0.06,-0.1,-0.27,12,1,15,2,17760768,0,13
1733609193,0,True,benign,-0.01229513,-0.029764658,3.06012392,11.97,71,15.723,0,0,57.9,8.0,6.6,False,,,,84,136,4,16,0.133781374,176,81.118,,39.142395,,-76.7304809,False,0.126241037,81.267,,39.1423944,,-76.7304809,0.049,,39.1423944,,-76.7304809,8.238452911,7.09657526,-21.4133091,2,POSCTL,,,,9,,ACTIVE,2.10438633,0.06,-0.1,-0.36,12,1,15,2,17760768,0,13
1733609193,0,True,benign,-0.014340529,-0.033330731,3.038483858,11.97,71,15.723,0,0,57.4,9.6,6.6,False,,,,84,136,4,16,0.127312601,174,81.118,,39.142395,,-76.7304809,False,0.23786713,81.307,,39.1423943,,-76.7304808,0.09,,39.1423943,,-76.7304808,8.238452911,7.09657526,-21.4133091,2,POSCTL,,,,14,,ACTIVE,1733609191.0,0.04,-0.11,-0.59,12,1,15,2,17760768,0,13
1733609193,0,True,benign,-0.011842388,-0.035986975,3.011208534,11.97,71,15.723,0,0,57.9,6.3,6.6,False,,,,84,136,4,16,0.127312601,174,81.118,,39.142395,,-76.7304809,False,0.3259235,81.34,,39.1423943,,-76.7304808,0.122,,39.1423943,,-76.7304808,8.199748039,7.099696159,-21.41724968,3,POSCTL,,,,14,,ACTIVE,2.204390049,0.02,-0.12,-0.71,12,1,15,2,17760768,0,13
1733609193,0,True,benign,-0.001941681,-0.038056094,2.985876799,11.97,71,15.723,0,0,56.9,4.2,6.6,False,,,,84,136,4,16,0.127312601,174,81.118,,39.142395,,-76.7304809,False,0.437133611,81.381,,39.1423943,,-76.7304808,0.164,,39.1423943,,-76.7304808,8.130479813,7.102680683,-21.4246521,2,POSCTL,,,,14,,ACTIVE,1733609191.0,0.01,-0.11,-0.84,12,1,15,2,17760768,0,13
1733609193,0,True,benign,0.005375201,-0.033801112,2.96011591,24.19,65,15.312,0,0,56.9,4.3,6.6,False,,,,84,136,4,16,0.108654886,169,81.118,,39.142395,,-76.7304809,False,0.535843278,81.504,,39.1423942,,-76.7304808,0.287,,39.1423942,,-76.7304808,8.043972015,7.105038643,-21.43276024,2,POSCTL,,,,35,,ACTIVE,2.304654121,0.01,-0.1,-1.14,12,1,15,2,17760768,0,13
1733609193,0,True,benign,-0.000302438,-0.025292866,2.938716888,24.19,65,15.312,0,0,57.4,7.8,6.6,False,,,,84,136,4,16,0.108654886,169,81.118,,39.142395,,-76.7304809,False,0.633906741,81.58,,39.1423941,,-76.7304807,0.363,,39.1423941,,-76.7304807,7.919307232,7.107495785,-21.43992424,2,POSCTL,,,,35,,ACTIVE,1733609191.0,0.01,-0.11,-1.25,12,1,15,2,17760768,0,13
1733609193,0,True,benign,-0.001255709,-0.026323659,2.92372036,24.19,65,15.312,0,0,56.9,6.1,6.6,False,,,,84,136,4,16,0.108654886,169,81.118,,39.142395,,-76.7304809,False,0.737230759,81.738,,39.1423941,,-76.7304807,0.521,,39.1423941,,-76.7304807,7.800424099,7.110321522,-21.44872284,2,POSCTL,,,,35,,ACTIVE,2.404958963,0.02,-0.11,-1.37,12,1,15,2,17760768,0,13
1733609193,0,True,benign,-0.004787739,-0.026245577,2.9167943,24.19,65,15.312,0,0,57.4,6.1,6.6,False,,,,84,136,4,16,0.108654886,169,81.118,,39.142395,,-76.7304809,False,0.839019889,81.816,,39.142394,,-76.7304807,0.599,,39.142394,,-76.7304807,7.643513203,7.114929676,-21.4574585,2,POSCTL,,,,72,,ACTIVE,1733609191.0,0.01,-0.11,-1.38,12,1,15,2,17760768,0,13
1733609193,0,True,benign,-0.006060481,-0.025465352,2.91036129,24.19,65,15.312,0,0,56.9,4.2,6.6,False,,,,84,136,4,16,0.120331571,166,81.118,,39.142395,,-76.7304809,False,0.941404481,81.991,,39.1423939,,-76.7304806,0.774,,39.1423939,,-76.7304806,7.494124889,7.119565964,-21.46750641,2,POSCTL,,,,72,,ACTIVE,2.505761385,0.0,-0.12,-1.41,12,1,15,2,17760768,0,13
1733609193,0,True,benign,-0.007147092,-0.024319351,2.909530878,24.19,65,15.312,0,0,57.4,8.2,6.6,False,,,,84,136,4,16,0.120331571,166,81.118,,39.142395,,-76.7304809,False,0.039530851,82.077,,39.1423938,,-76.7304806,0.86,,39.1423938,,-76.7304806,7.494124889,7.119565964,-21.46750641,2,POSCTL,,,,72,,ACTIVE,1733609191.0,0.0,-0.13,-1.41,12,1,15,2,17760768,0,13
1733609194,0,True,benign,-0.005640986,-0.022145456,2.912994623,24.19,65,15.312,0,0,57.4,7.8,6.6,False,,,,84,136,4,16,0.120331571,166,81.118,,39.142395,,-76.7304809,False,0.130683388,82.252,,39.1423937,,-76.7304806,1.035,,39.1423937,,-76.7304806,7.374139786,7.122756958,-21.47699356,2,POSCTL,,,,72,,ACTIVE,2.605918646,0.0,-0.13,-1.41,12,1,15,2,17760768,0,13
1733609194,0,True,benign,-0.00085863,-0.02393735,2.918765783,24.16,60,15.175,0,0,57.4,4.2,6.6,False,,,,84,136,4,17,0.142505437,167,81.118,,39.142395,,-76.7304809,False,0.223526055,82.334,,39.1423937,,-76.7304806,1.117,,39.1423937,,-76.7304806,7.218245983,7.122653484,-21.48896027,2,POSCTL,,,,113,,ACTIVE,1733609191.0,0.0,-0.14,-1.4,12,1,15,2,17760768,0,13
1733609194,0,True,benign,0.005239807,-0.028341472,2.926326275,24.16,60,15.175,0,0,56.4,6.2,6.6,False,,,,84,136,4,17,0.142505437,167,81.118,,39.142395,,-76.7304809,False,0.333518203,82.503,,39.1423935,,-76.7304805,1.286,,39.1423935,,-76.7304805,7.07669878,7.128530025,-21.50395775,2,POSCTL,,,,113,,ACTIVE,2.705906868,0.0,-0.14,-1.41,12,1,15,2,17760768,0,13
1733609194,0,True,benign,0.009880291,-0.02990208,2.935228825,24.16,60,15.175,0,0,56.9,8.0,6.6,False,,,,84,136,4,17,0.142505437,167,81.118,,39.142395,,-76.7304809,False,0.420603314,82.587,,39.1423934,,-76.7304805,1.37,,39.1423934,,-76.7304805,6.939172268,7.128686428,-21.51667213,2,POSCTL,,,,113,,ACTIVE,1733609191.0,0.0,-0.14,-1.41,12,1,15,2,17760768,0,13
1733609194,0,True,benign,0.010340575,-0.029190615,2.944960117,24.16,60,15.175,0,0,56.4,6.1,6.6,False,,,,75,125,4,17,0.144651949,168,81.118,,39.142395,,-76.7304809,False,0.539857184,82.669,,39.1423934,,-76.7304805,1.452,,39.1423934,,-76.7304805,6.788847446,7.127925873,-21.52784729,2,POSCTL,,,,155,,ACTIVE,2.806390524,0.0,-0.14,-1.4,12,1,15,2,17760768,0,13
1733609194,0,True,benign,0.014964576,-0.031098641,2.954735041,24.16,60,15.175,0,0,56.4,9.8,6.6,False,,,,75,125,4,17,0.144651949,168,81.118,,39.142395,,-76.7304809,False,0.629693444,82.849,,39.1423933,,-76.7304805,1.631,,39.1423933,,-76.7304805,6.649036884,7.129261017,-21.53575706,2,POSCTL,,,,155,,ACTIVE,1733609191.0,0.02,-0.15,-1.44,12,1,15,2,17760768,0,13
1733609194,0,True,benign,0.012778643,-0.031170901,2.963427067,24.16,60,15.175,0,0,57.4,6.0,6.6,False,,,,75,125,4,17,0.144651949,168,81.118,,39.142395,,-76.7304809,False,0.74415211,82.934,,39.1423932,,-76.7304805,1.717,,39.1423932,,-76.7304805,6.492033005,7.129262924,-21.53993034,2,POSCTL,,,,155,,ACTIVE,2.907674074,0.02,-0.15,-1.44,12,1,15,2,17760768,0,13
1733609194,0,True,benign,0.007334634,-0.029142428,2.972336769,24.16,60,15.175,0,0,56.9,4.2,6.6,False,,,,75,125,4,17,0.144651949,168,81.118,,39.142395,,-76.7304809,False,0.843988869,83.118,,39.1423932,,-76.7304805,1.901,,39.1423932,,-76.7304805,6.346438885,7.127093315,-21.53936195,2,POSCTL,,,,155,,ACTIVE,1733609191.0,0.04,-0.15,-1.45,12,1,15,2,17760768,0,13
1733609194,0,True,benign,0.005992685,-0.027697895,2.980345249,24.16,56,15.071,0,0,57.4,8.2,6.6,False,,,,75,125,4,17,0.167585313,170,81.118,,39.142395,,-76.7304809,False,0.938130832,83.208,,39.1423932,,-76.7304805,1.991,,39.1423932,,-76.7304805,6.346438885,7.127093315,-21.53936195,3,POSCTL,,,,200,,ACTIVE,3.007169008,0.05,-0.15,-1.45,12,1,15,2,17760768,0,13
1733609194,0,True,benign,0.004587501,-0.028775301,2.987679005,24.16,56,15.071,0,0,56.4,8.2,6.6,False,,,,75,125,4,17,0.167585313,170,81.118,,39.142395,,-76.7304809,False,0.040985741,83.389,,39.1423933,,-76.7304805,2.172,,39.1423933,,-76.7304805,6.201476574,7.129748821,-21.53906631,3,POSCTL,,,,200,,ACTIVE,1733609191.0,0.07,-0.15,-1.46,12,1,15,2,17760768,0,13
1733609195,0,True,benign,0.001854159,-0.028577374,2.991956711,24.16,56,15.071,0,0,57.9,6.0,6.6,False,,,,75,125,4,17,0.167585313,170,81.118,,39.142395,,-76.7304809,False,0.126844018,83.479,,39.1423933,,-76.7304805,2.262,,39.1423933,,-76.7304805,6.031928062,7.130216599,-21.53401756,3,POSCTL,,,,200,,ACTIVE,3.107306004,0.08,-0.15,-1.47,12,1,15,2,17760768,0,13
1733609195,0,True,benign,-0.0011126,-0.029424654,2.997400999,24.16,56,15.071,0,0,57.9,6.1,6.6,False,,,,75,125,4,17,0.182184026,171,81.118,,39.142395,,-76.7304809,False,0.241363592,83.67,,39.1423933,,-76.7304803,2.453,,39.1423933,,-76.7304803,5.891181469,7.139173031,-21.53075981,3,POSCTL,,,,245,,ACTIVE,1733609192.0,0.09,-0.15,-1.47,12,1,15,2,17760768,0,13
1733609195,0,True,benign,-0.005278696,-0.027423449,3.001827002,24.16,56,15.071,0,0,57.4,6.2,6.6,False,,,,75,125,4,17,0.182184026,171,81.217,,39.1423942,,-76.7304809,False,0.313869666,83.768,,39.1423934,,-76.7304803,2.551,,39.1423934,,-76.7304803,5.730481625,7.147913933,-21.52515411,3,POSCTL,,,,245,,ACTIVE,3.207126379,0.09,-0.14,-1.46,12,1,15,2,17760768,0,13
1733609195,0,True,benign,-0.005477079,-0.022805221,3.005473614,24.16,56,15.071,0,0,57.4,4.2,6.6,False,,,,75,125,4,17,0.182184026,171,81.217,,39.1423942,,-76.7304809,False,0.444489296,83.968,,39.1423934,,-76.7304802,2.751,,39.1423934,,-76.7304802,5.558035374,7.15273428,-21.51727867,3,POSCTL,,,,245,,ACTIVE,1733609192.0,0.08,-0.14,-1.47,12,1,15,2,17760768,0,13
1733609195,0,True,benign,-0.00170824,-0.025860768,3.008794308,23.89,53,15.004,0,0,56.4,6.1,6.6,False,,,,75,125,4,17,0.182184026,171,81.217,,39.1423942,,-76.7304809,False,0.54381587,84.057,,39.1423935,,-76.7304802,2.84,,39.1423935,,-76.7304802,5.397668362,7.156891346,-21.51069641,3,POSCTL,,,,245,,ACTIVE,3.307249069,0.09,-0.14,-1.47,12,1,15,2,17760768,0,13
1733609195,0,True,benign,-0.002489652,-0.025542574,3.011887789,23.89,53,15.004,0,0,56.4,6.0,6.6,False,,,,75,125,4,17,0.168386579,172,81.217,,39.1423942,,-76.7304809,False,0.64671574,84.261,,39.1423936,,-76.7304801,3.044,,39.1423936,,-76.7304801,5.23512125,7.16287899,-21.50455475,3,POSCTL,,,,291,,ACTIVE,1733609192.0,0.07,-0.13,-1.47,12,1,15,2,17760768,0,13
1733609195,0,True,benign,-0.002445555,-0.023715906,3.015139103,23.89,53,15.004,0,0,57.9,6.3,6.6,False,,,,75,125,4,17,0.168386579,172,81.217,,39.1423942,,-76.7304809,False,0.726671407,84.347,,39.1423936,,-76.7304801,3.13,,39.1423936,,-76.7304801,5.23512125,7.16287899,-21.50455475,3,POSCTL,,,,291,,ACTIVE,3.406532526,0.07,-0.13,-1.48,12,1,15,2,17760768,0,13
1733609195,0,True,benign,-0.002662752,-0.022129742,3.017827272,23.89,53,15.004,0,0,56.9,8.0,6.6,False,,,,75,125,4,17,0.168386579,172,81.217,,39.1423942,,-76.7304809,False,0.842899796,84.546,,39.1423937,,-76.7304799,3.329,,39.1423937,,-76.7304799,5.066146374,7.174245358,-21.49798012,3,POSCTL,,,,291,,ACTIVE,1733609192.0,0.07,-0.14,-1.48,12,1,15,2,17760768,0,13
1733609195,0,True,benign,-0.004486773,-0.020557856,3.020309448,23.89,53,15.004,0,0,56.0,8.0,6.6,False,,,,75,125,4,17,0.159616634,173,81.217,,39.1423942,,-76.7304809,False,0.939299147,84.664,,39.1423937,,-76.7304798,3.447,,39.1423937,,-76.7304798,4.894162178,7.187044621,-21.49058342,3,POSCTL,,,,337,,ACTIVE,3.506980896,0.07,-0.14,-1.47,12,1,15,2,17760768,0,13
1733609195,0,True,benign,-0.005072182,-0.019875504,3.023033381,23.89,53,15.004,0,0,56.0,6.1,6.6,False,,,,75,125,4,17,0.159616634,173,81.217,,39.1423942,,-76.7304809,False,0.043982222,84.755,,39.1423937,,-76.7304797,3.538,,39.1423937,,-76.7304797,4.739595413,7.198002815,-21.48435211,3,POSCTL,,,,337,,ACTIVE,1733609192.0,0.08,-0.13,-1.46,12,1,15,2,17760768,0,13
1733609196,0,True,benign,-0.00860275,-0.016416458,3.025557518,23.89,53,15.004,0,0,56.9,4.3,6.6,False,,,,75,125,4,17,0.159616634,173,81.217,,39.1423942,,-76.7304809,False,0.136126648,84.956,,39.1423939,,-76.7304795,3.739,,39.1423939,,-76.7304795,4.5886693,7.208668709,-21.47271919,3,POSCTL,,,,337,,ACTIVE,3.607135534,0.08,-0.15,-1.46,12,1,15,2,17760768,0,13
1733609196,0,True,benign,-0.010362921,-0.016641157,3.02684474,23.94,52,14.966,0,0,57.9,8.0,6.6,False,,,,75,125,4,17,0.159616634,173,81.217,,39.1423942,,-76.7304809,False,0.24670037,85.049,,39.1423939,,-76.7304795,3.832,,39.1423939,,-76.7304795,4.412249088,7.215631962,-21.46103287,3,POSCTL,,,,384,,ACTIVE,1733609192.0,0.08,-0.16,-1.47,12,1,15,2,17760768,0,13
1733609196,0,True,benign,-0.012549327,-0.018214729,3.030322552,23.94,52,14.966,0,0,57.4,8.2,6.6,False,,,,75,125,4,17,0.181981429,173,81.217,,39.1423942,,-76.7304809,False,0.340061315,85.241,,39.142394,,-76.7304794,4.023,,39.142394,,-76.7304794,4.240546703,7.223230839,-21.44991684,3,POSCTL,,,,384,,ACTIVE,3.70650816,0.07,-0.16,-1.47,12,1,15,2,17760768,0,13
1733609196,0,True,benign,-0.010150596,-0.019619992,3.03230381,23.94,52,14.966,0,0,57.4,6.1,6.6,False,,,,75,125,4,17,0.181981429,173,81.217,,39.1423942,,-76.7304809,False,0.446606018,85.333,,39.1423941,,-76.7304793,4.116,,39.1423941,,-76.7304793,4.083664417,7.233325481,-21.43824577,3,POSCTL,,,,384,,ACTIVE,1733609192.0,0.06,-0.17,-1.48,12,1,15,2,17760768,0,13
1733609196,0,True,benign,-0.00846439,-0.017446786,3.034702778,23.94,52,14.966,0,0,56.9,6.1,6.6,False,,,,75,125,4,17,0.181981429,173,81.217,,39.1423942,,-76.7304809,False,0.547008222,85.536,,39.1423942,,-76.7304792,4.319,,39.1423942,,-76.7304792,4.083664417,7.233325481,-21.43824577,3,POSCTL,,,,384,,ACTIVE,3.806674004,0.06,-0.17,-1.49,12,1,15,2,17760768,0,13
1733609196,0,True,benign,-0.01143481,-0.016218809,3.036303759,23.94,52,14.966,0,0,56.9,6.2,6.6,False,,,,75,125,3,17,0.190200642,173,81.217,,39.1423942,,-76.7304809,False,0.628187426,85.633,,39.1423943,,-76.7304791,4.416,,39.1423943,,-76.7304791,3.911805153,7.243495464,-21.42832375,3,POSCTL,,,,431,,ACTIVE,1733609192.0,0.06,-0.18,-1.48,12,1,15,2,17760768,0,13
1733609196,0,True,benign,-0.011976799,-0.016876884,3.038649082,23.94,52,14.966,0,0,56.4,9.8,6.6,False,,,,75,125,3,17,0.190200642,173,81.217,,39.1423942,,-76.7304809,False,0.732395018,85.838,,39.1423943,,-76.730479,4.621,,39.1423943,,-76.730479,3.751242638,7.252008915,-21.42126274,3,POSCTL,,,,431,,ACTIVE,3.906679392,0.04,-0.18,-1.48,12,1,15,2,17760768,0,13
1733609196,0,True,benign,-0.009068614,-0.015579841,3.040826321,23.94,52,14.966,0,0,56.9,8.2,6.6,False,,,,79,132,3,16,0.190200642,173,81.217,,39.1423942,,-76.7304809,False,0.821405555,85.949,,39.1423944,,-76.730479,4.732,,39.1423944,,-76.730479,3.577675819,7.260484219,-21.41591072,3,POSCTL,,,,431,,ACTIVE,1733609192.0,0.04,-0.19,-1.48,12,1,15,2,17760768,0,13
1733609196,0,True,benign,-0.008232558,-0.016294951,3.042696953,23.88,51,14.946,0,0,56.9,4.1,6.6,False,,,,82,148,4,17,0.196680218,174,81.217,,39.1423942,,-76.7304809,False,0.947939611,86.043,,39.1423944,,-76.7304789,4.826,,39.1423944,,-76.7304789,3.42092967,7.268931866,-21.41084671,3,POSCTL,,,,479,,ACTIVE,4.007887602,0.03,-0.19,-1.48,12,1,15,2,17760768,0,13
1733609196,0,True,benign,-0.007496366,-0.01469626,3.044241667,23.88,51,14.946,0,0,57.4,8.0,6.6,False,,,,82,148,4,17,0.196680218,174,81.217,,39.1423942,,-76.7304809,False,0.028769963,86.246,,39.1423945,,-76.7304787,5.029,,39.1423945,,-76.7304787,3.251277447,7.280884743,-21.40280151,3,POSCTL,,,,479,,ACTIVE,1733609192.0,0.03,-0.19,-1.48,12,1,15,2,17760768,0,13
1733609197,0,True,benign,-0.01164057,-0.012988304,3.045027494,23.88,51,14.946,0,0,56.0,6.1,6.6,False,,,,82,148,4,18,0.196680218,174,81.217,,39.1423942,,-76.7304809,False,0.149179463,86.443,,39.1423946,,-76.7304786,5.226,,39.1423946,,-76.7304786,3.0798316,7.288366795,-21.39415359,3,POSCTL,,,,479,,ACTIVE,4.108623505,0.03,-0.19,-1.5,12,1,15,2,17760768,0,13
1733609197,0,True,benign,-0.012498247,-0.013998109,3.045911074,23.88,51,14.946,0,0,56.4,6.3,6.6,False,,,,79,132,3,17,0.196680218,174,81.217,,39.1423942,,-76.7304809,False,0.244318667,86.545,,39.1423946,,-76.7304786,5.328,,39.1423946,,-76.7304786,2.916001558,7.297067642,-21.38462067,3,POSCTL,,,,479,,ACTIVE,1733609193.0,0.03,-0.19,-1.51,12,1,15,2,17760768,0,13
1733609197,0,True,benign,-0.014385702,-0.010298263,3.046486616,23.88,51,14.946,0,0,56.9,6.1,6.6,False,,,,79,132,3,17,0.204641491,174,81.217,,39.1423942,,-76.7304809,False,0.348517278,86.655,,39.1423947,,-76.7304785,5.438,,39.1423947,,-76.7304785,2.916001558,7.297067642,-21.38462067,3,POSCTL,,,,527,,ACTIVE,4.20903945,0.03,-0.2,-1.56,12,1,15,2,17760768,0,13
1733609197,0,True,benign,-0.015657166,-0.011791131,3.046746016,23.88,51,14.946,0,0,56.0,4.1,6.6,False,,,,79,132,3,17,0.204641491,174,81.217,,39.1423942,,-76.7304809,False,0.440370815,86.849,,39.1423948,,-76.7304784,5.632,,39.1423948,,-76.7304784,2.747753382,7.303513527,-21.37600136,3,POSCTL,,,,527,,ACTIVE,1733609193.0,0.03,-0.2,-1.61,12,1,15,2,17760768,0,13
1733609197,0,True,benign,-0.015261428,-0.011916292,3.047190189,23.88,51,14.946,0,0,56.4,10.0,6.6,False,,,,79,132,3,17,0.204641491,174,81.217,,39.1423942,,-76.7304809,False,0.542369907,86.954,,39.1423948,,-76.7304783,5.737,,39.1423948,,-76.7304783,2.572594166,7.314272881,-21.36526108,3,POSCTL,,,,527,,ACTIVE,4.309303284,0.02,-0.21,-1.64,12,1,15,2,17760768,0,13
1733609197,0,True,benign,-0.013861441,-0.011959424,3.047629833,25.03,49,14.864,0,0,56.9,4.2,6.6,False,,,,79,132,3,17,0.217357472,174,81.217,,39.1423942,,-76.7304809,False,0.646452037,87.192,,39.1423949,,-76.7304781,5.975,,39.1423949,,-76.7304781,2.376558781,7.332922935,-21.35502815,3,POSCTL,,,,575,,ACTIVE,1733609193.0,0.01,-0.21,-1.72,12,1,15,2,17760768,0,13
1733609197,0,True,benign,-0.016563026,-0.01006308,3.048141479,25.03,49,14.864,0,0,56.0,4.2,6.6,False,,,,79,132,3,17,0.217357472,174,81.217,,39.1423942,,-76.7304809,False,0.748262778,87.306,,39.142395,,-76.730478,6.089,,39.142395,,-76.730478,2.167203665,7.342381001,-21.34660339,3,POSCTL,,,,575,,ACTIVE,4.409260035,0.0,-0.22,-1.75,12,1,15,2,17760768,0,13
1733609197,0,True,benign,-0.016877206,-0.009652951,3.048754692,25.03,49,14.864,0,0,56.9,8.0,6.6,False,,,,79,132,3,17,0.217357472,174,81.217,,39.1423942,,-76.7304809,False,0.835932759,87.556,,39.142395,,-76.730478,6.339,,39.142395,,-76.730478,1.972292662,7.34667778,-21.33927727,3,POSCTL,,,,575,,ACTIVE,1733609193.0,0.0,-0.23,-1.81,12,1,15,2,17760768,0,13
1733609197,0,True,benign,-0.016536975,-0.010856642,3.04961133,25.03,49,14.864,0,0,56.9,8.0,6.6,False,,,,79,132,4,18,0.217357472,174,81.217,,39.1423942,,-76.7304809,False,0.951676833,87.668,,39.1423951,,-76.730478,6.451,,39.1423951,,-76.730478,1.764101267,7.350058079,-21.332201,3,POSCTL,,,,632,,ACTIVE,4.51052475,0.0,-0.23,-1.84,12,1,15,2,17760768,0,13
1733609197,0,True,benign,-0.01584425,-0.011000963,3.050583124,25.03,49,14.864,0,0,56.4,4.3,6.6,False,,,,70,109,4,18,0.244526356,174,81.217,,39.1423942,,-76.7304809,False,0.039324871,87.934,,39.1423951,,-76.7304778,6.717,,39.1423951,,-76.7304778,1.536592722,7.35819912,-21.32666397,3,POSCTL,,,,632,,ACTIVE,1733609193.0,-0.02,-0.24,-1.91,12,1,15,2,17760768,0,13
1733609198,0,True,benign,-0.016033148,-0.010971467,3.052300215,25.03,49,14.864,0,0,56.4,6.1,6.6,False,,,,70,109,4,18,0.244526356,174,81.217,,39.1423942,,-76.7304809,False,0.119246185,88.066,,39.1423952,,-76.7304778,6.849,,39.1423952,,-76.7304778,1.536592722,7.35819912,-21.32666397,3,POSCTL,,,,632,,ACTIVE,4.610742331,-0.03,-0.24,-1.94,12,1,15,2,17760768,0,13
1733609198,0,True,benign,-0.014065385,-0.009983918,3.053958416,25.03,49,14.864,0,0,56.4,6.3,6.6,False,,,,70,109,4,18,0.244526356,174,81.217,,39.1423942,,-76.7304809,False,0.241423759,88.349,,39.1423952,,-76.7304777,7.132,,39.1423952,,-76.7304777,1.315732718,7.366467476,-21.32463264,3,POSCTL,,,,632,,ACTIVE,1733609193.0,-0.04,-0.26,-2.01,12,1,15,2,17760768,0,13
1733609198,0,True,benign,-0.011712092,-0.012158721,3.055548191,25.73,48,14.821,0,0,56.9,8.0,6.6,False,,,,70,109,4,18,0.272440523,175,81.217,,39.1423942,,-76.7304809,False,0.334084111,88.485,,39.1423952,,-76.7304777,7.268,,39.1423952,,-76.7304777,1.095865607,7.370419979,-21.32316017,3,POSCTL,,,,691,,ACTIVE,4.710914612,-0.05,-0.26,-2.04,12,1,15,2,17760768,0,13
1733609198,0,True,benign,-0.014444634,-0.010395524,3.056762457,25.73,48,14.821,0,0,56.0,6.0,6.6,False,,,,70,109,4,18,0.272440523,175,81.217,,39.1423942,,-76.7304809,False,0.446916352,88.776,,39.1423952,,-76.7304776,7.559,,39.1423952,,-76.7304776,0.845552087,7.379092693,-21.32135391,2,POSCTL,,,,691,,ACTIVE,1733609193.0,-0.06,-0.27,-2.11,12,1,15,2,17760768,0,13
1733609198,0,True,benign,-0.012454384,-0.011491152,3.058022499,25.73,48,14.821,0,0,56.4,6.3,6.6,False,,,,70,109,4,18,0.272440523,175,81.217,,39.1423942,,-76.7304809,False,0.533909333,88.914,,39.1423952,,-76.7304775,7.697,,39.1423952,,-76.7304775,0.620765388,7.387236118,-21.32100868,3,POSCTL,,,,691,,ACTIVE,4.809744835,-0.06,-0.28,-2.14,12,1,15,2,17760768,0,13
1733609198,0,True,benign,-0.010730093,-0.01078923,3.058936596,25.73,48,14.821,0,0,56.0,8.0,6.6,False,,,,70,109,4,18,0.272440523,175,81.217,,39.1423942,,-76.7304809,False,0.645751704,89.047,,39.1423952,,-76.7304775,7.83,,39.1423952,,-76.7304775,0.356215239,7.388890743,-21.3212738,3,POSCTL,,,,758,,ACTIVE,1733609193.0,-0.06,-0.29,-2.17,12,1,15,2,17760768,0,13
1733609198,0,True,benign,-0.012042324,-0.011216994,3.061018467,25.73,48,14.821,0,0,56.4,6.1,6.6,False,,,,70,109,4,18,0.305757403,175,81.217,,39.1423942,,-76.7304809,False,0.746999074,89.342,,39.1423952,,-76.7304774,8.125,,39.1423952,,-76.7304774,0.118996508,7.397256374,-21.32056046,2,POSCTL,,,,758,,ACTIVE,4.910168886,-0.07,-0.29,-2.15,12,1,15,2,17760768,0,13
1733609198,0,True,benign,-0.011505312,-0.013150611,3.064516068,25.73,48,14.821,0,0,56.4,8.0,6.6,False,,,,70,109,4,18,0.305757403,175,81.217,,39.1423942,,-76.7304809,False,0.843197611,89.502,,39.1423952,,-76.7304773,8.285,,39.1423952,,-76.7304773,-0.097311877,7.406162262,-21.31984329,3,POSCTL,,,,758,,ACTIVE,1733609193.0,-0.07,-0.28,-2.04,12,1,15,2,17760768,0,13
1733609198,0,True,benign,-0.010615696,-0.012692179,3.069051266,25.73,48,14.821,0,0,57.4,6.1,6.6,False,,,,79,132,3,17,0.305757403,175,81.217,,39.1423942,,-76.7304809,False,0.9451555,89.747,,39.1423952,,-76.7304772,8.53,,39.1423952,,-76.7304772,-0.097311877,7.406162262,-21.31984329,2,POSCTL,,,,758,,ACTIVE,5.010274649,-0.07,-0.29,-1.71,12,1,15,2,17760768,0,13
1733609198,0,True,benign,-0.012791228,-0.008905392,3.075412989,19.89,48,14.941,0,0,56.9,6.1,6.6,False,,,,79,132,4,18,0.297001213,175,81.217,,39.1423942,,-76.7304809,False,0.03353887,89.85,,39.1423953,,-76.7304771,8.633,,39.1423953,,-76.7304771,-0.304887056,7.416482449,-21.31651497,3,POSCTL,,,,820,,ACTIVE,1733609193.0,-0.07,-0.28,-1.52,12,1,15,2,17760768,0,13
1733609199,0,True,benign,-0.015286599,-0.007693011,3.080590963,19.89,48,14.941,0,0,56.4,6.3,6.6,False,,,,79,132,3,17,0.297001213,175,81.217,,39.1423942,,-76.7304809,False,0.115646703,90.033,,39.1423953,,-76.730477,8.816,,39.1423953,,-76.730477,-0.458744168,7.423996925,-21.31403542,3,POSCTL,,,,820,,ACTIVE,5.109833717,-0.06,-0.29,-1.07,12,1,15,2,17760768,0,13
1733609199,0,True,benign,-0.012534411,-0.006794049,3.086386919,19.89,48,14.941,0,0,56.4,7.8,6.6,False,,,,79,132,4,18,0.297001213,175,81.217,,39.1423942,,-76.7304809,False,0.212128851,90.107,,39.1423953,,-76.730477,8.89,,39.1423953,,-76.730477,-0.585045874,7.430733204,-21.31017113,3,POSCTL,,,,820,,ACTIVE,1733609194.0,-0.06,-0.29,-0.93,12,1,15,2,17760768,0,13
1733609199,0,True,benign,-0.011689085,-0.004648587,3.08838439,19.89,48,14.941,0,0,56.9,8.0,6.6,False,,,,79,132,4,18,0.317885965,176,81.217,,39.1423942,,-76.7304809,False,0.331433444,90.166,,39.1423953,,-76.7304769,8.949,,39.1423953,,-76.7304769,-0.68269515,7.437906742,-21.30554581,3,POSCTL,,,,847,,ACTIVE,5.209944487,-0.06,-0.3,-0.87,12,1,15,2,17760768,0,13
1733609199,0,True,benign,-0.012717864,-0.009046881,3.088406801,19.89,48,14.941,0,0,56.0,4.3,6.6,False,,,,79,132,4,18,0.317885965,176,81.217,,39.1423942,,-76.7304809,False,0.408163092,90.291,,39.1423954,,-76.7304768,9.074,,39.1423954,,-76.7304768,-0.779679239,7.442598343,-21.30225182,3,POSCTL,,,,847,,ACTIVE,1733609194.0,-0.07,-0.31,-0.91,12,1,15,2,17760768,0,13
1733609199,0,True,benign,-0.014415693,-0.011355618,3.086696148,19.89,48,14.941,0,0,56.9,9.8,6.6,False,,,,70,109,4,18,0.317885965,176,81.217,,39.1423942,,-76.7304809,False,0.529524758,90.423,,39.1423954,,-76.7304768,9.206,,39.1423954,,-76.7304768,-0.899334729,7.44759655,-21.29626656,3,POSCTL,,,,847,,ACTIVE,5.310190439,-0.07,-0.32,-1.03,12,1,15,2,17760768,0,13
1733609199,0,True,benign,-0.015132309,-0.013142797,3.084099054,22.87,49,14.914,0,0,56.9,8.0,6.6,False,,,,70,109,4,18,0.317885965,176,81.217,,39.1423942,,-76.7304809,False,0.630670666,90.491,,39.1423955,,-76.7304768,9.274,,39.1423955,,-76.7304768,-1.025835514,7.452082634,-21.29082298,3,POSCTL,,,,847,,ACTIVE,1733609194.0,-0.08,-0.32,-1.05,12,1,15,2,17760768,0,13
1733609199,0,True,benign,-0.013844322,-0.00764796,3.080343008,22.87,49,14.914,0,0,56.0,4.1,6.6,False,,,,70,109,4,18,0.338142216,176,81.217,,39.1423942,,-76.7304809,False,0.731638814,90.56,,39.1423955,,-76.7304767,9.343,,39.1423955,,-76.7304767,-1.025835514,7.452082634,-21.29082298,3,POSCTL,,,,874,,ACTIVE,5.410342216,-0.08,-0.32,-1.07,12,1,15,2,17760768,0,13
1733609199,0,True,benign,-0.016949998,-0.00515989,3.076624155,22.87,49,14.914,0,0,56.0,6.3,6.6,False,,,,70,109,4,18,0.338142216,176,81.217,,39.1423942,,-76.7304809,False,0.820903999,90.713,,39.1423955,,-76.7304767,9.496,,39.1423955,,-76.7304767,-1.142286181,7.458498955,-21.28663445,3,POSCTL,,,,874,,ACTIVE,1733609194.0,-0.08,-0.32,-1.08,12,1,15,2,17760768,0,13
1733609199,0,True,benign,-0.016452534,-0.004570436,3.073145151,22.87,49,14.914,0,0,56.0,9.8,6.6,False,,,,70,109,4,18,0.338142216,176,81.217,,39.1423942,,-76.7304809,False,0.924209258,90.796,,39.1423955,,-76.7304766,9.579,,39.1423955,,-76.7304766,-1.271736145,7.460545063,-21.28467941,3,POSCTL,,,,874,,ACTIVE,5.510502338,-0.09,-0.33,-1.08,12,1,15,2,17760768,0,13
1733609199,0,True,benign,-0.015506967,-0.006771399,3.071103334,22.87,49,14.914,0,0,56.4,6.2,6.6,False,,,,79,132,4,18,0.345331669,176,81.217,,39.1423942,,-76.7304809,False,0.049720111,90.921,,39.1423956,,-76.7304766,9.704,,39.1423956,,-76.7304766,-1.386782169,7.466181278,-21.28207397,3,POSCTL,,,,896,,ACTIVE,1733609194.0,-0.09,-0.33,-1.06,12,1,15,2,17760768,0,13
1733609200,0,True,benign,-0.016140696,-0.010341601,3.0692029,22.87,49,14.914,0,0,56.9,6.0,6.6,False,,,,70,109,4,18,0.345331669,176,81.217,,39.1423942,,-76.7304809,False,0.144838555,90.999,,39.1423956,,-76.7304766,9.782,,39.1423956,,-76.7304766,-1.498227239,7.468831539,-21.28049278,3,POSCTL,,,,896,,ACTIVE,5.610793591,-0.09,-0.33,-1.04,12,1,15,2,17760768,0,13
1733609200,0,True,benign,-0.015036806,-0.010676322,3.068592787,22.87,49,14.914,0,0,56.9,8.0,6.6,False,,,,70,109,4,18,0.345331669,176,81.217,,39.1423942,,-76.7304809,False,0.250029611,91.13,,39.1423956,,-76.7304764,9.913,,39.1423956,,-76.7304764,-1.609972835,7.476183414,-21.2761097,3,POSCTL,,,,896,,ACTIVE,1733609194.0,-0.08,-0.32,-0.89,12,1,15,2,17760768,0,13
1733609200,0,True,benign,-0.013745669,-0.006332329,3.068841934,21.42,49,14.918,0,0,56.0,4.2,6.6,False,,,,70,109,4,18,0.345331669,176,81.217,,39.1423942,,-76.7304809,False,0.352741889,91.183,,39.1423956,,-76.7304764,9.966,,39.1423956,,-76.7304764,-1.704934478,7.4807868,-21.27204323,3,POSCTL,,,,918,,ACTIVE,5.711987495,-0.09,-0.33,-0.81,12,1,15,2,17760768,0,13
1733609200,0,True,benign,-0.017109374,-0.001181201,3.068449736,21.42,49,14.918,0,0,56.4,8.2,6.6,False,,,,70,109,4,18,0.346768618,175,81.217,,39.1423942,,-76.7304809,False,0.441295314,91.285,,39.1423957,,-76.7304764,10.068,,39.1423957,,-76.7304764,-1.781802416,7.483046532,-21.27154922,3,POSCTL,,,,918,,ACTIVE,1733609194.0,-0.09,-0.33,-0.73,12,1,15,2,17760768,0,13
1733609200,0,True,benign,-0.018906688,-0.000101505,3.067703009,21.42,49,14.918,0,0,56.9,6.1,6.6,False,,,,70,109,4,18,0.346768618,175,81.217,,39.1423942,,-76.7304809,False,0.522926629,91.329,,39.1423957,,-76.7304763,10.111,,39.1423957,,-76.7304763,-1.781802416,7.483046532,-21.27154922,3,POSCTL,,,,918,,ACTIVE,5.812230825,-0.08,-0.34,-0.73,12,1,15,2,17760768,0,13
1733609200,0,True,benign,-0.020790866,-0.000209085,3.067490578,21.42,49,14.918,0,0,56.9,6.1,6.6,False,,,,70,109,4,18,0.346768618,175,81.217,,39.1423942,,-76.7304809,False,0.641323296,91.412,,39.1423957,,-76.7304763,10.195,,39.1423957,,-76.7304763,-1.853808761,7.487780571,-21.26895332,3,POSCTL,,,,918,,ACTIVE,1733609194.0,-0.09,-0.35,-0.65,12,1,15,2,17760768,0,13
1733609200,0,True,benign,-0.019906024,-0.004628604,3.067260027,21.42,49,14.918,0,0,57.4,6.1,6.6,False,,,,70,109,4,18,0.378864557,175,81.217,,39.1423942,,-76.7304809,False,0.734285425,91.457,,39.1423957,,-76.7304763,10.24,,39.1423957,,-76.7304763,-1.926335573,7.490993977,-21.26496315,3,POSCTL,,,,932,,ACTIVE,5.912599564,-0.09,-0.36,-0.64,12,1,15,2,17760768,0,13
1733609200,0,True,benign,-0.019691799,-0.009394534,3.065850735,21.42,49,14.918,0,0,57.4,8.2,6.6,False,,,,70,109,4,18,0.378864557,175,81.217,,39.1423942,,-76.7304809,False,0.847374981,91.535,,39.1423957,,-76.7304763,10.318,,39.1423957,,-76.7304763,-1.996926665,7.492242813,-21.2623558,3,POSCTL,,,,932,,ACTIVE,1733609194.0,-0.1,-0.37,-0.68,12,1,15,2,17760768,0,13
1733609200,0,True,benign,-0.016034491,-0.010170516,3.06508708,21.42,49,14.918,0,0,57.4,6.1,6.6,False,,,,70,109,4,18,0.378864557,175,81.217,,39.1423942,,-76.7304809,False,0.953166888,91.581,,39.1423957,,-76.7304763,10.363,,39.1423957,,-76.7304763,-2.063734055,7.491256237,-21.2613163,3,POSCTL,,,,932,,ACTIVE,6.013592243,-0.11,-0.37,-0.7,12,1,15,2,17760768,0,13
1733609200,0,True,benign,-0.01411829,-0.010755609,3.064399004,23.14,48,14.862,0,0,56.0,8.0,6.6,False,,,,70,109,4,18,0.378864557,175,81.217,,39.1423942,,-76.7304809,False,0.050320537,91.621,,39.1423957,,-76.7304763,10.404,,39.1423957,,-76.7304763,-2.129018307,7.494357586,-21.26153946,3,POSCTL,,,,939,,ACTIVE,1733609194.0,-0.11,-0.37,-0.71,12,1,15,2,17760768,0,13
1733609201,0,True,benign,-0.015323711,-0.007289604,3.064211607,23.14,48,14.862,0,0,55.5,6.1,6.6,False,,,,70,109,4,18,0.394853413,175,81.217,,39.1423942,,-76.7304809,False,0.143940074,91.706,,39.1423957,,-76.7304762,10.489,,39.1423957,,-76.7304762,-2.201050282,7.495337963,-21.26395607,3,POSCTL,,,,939,,ACTIVE,6.113699436,-0.12,-0.37,-0.72,12,1,15,2,17760768,0,13
1733609201,0,True,benign,-0.014898133,-0.006332436,3.06449008,23.14,48,14.862,0,0,56.9,8.2,6.6,False,,,,70,109,4,18,0.394853413,175,81.217,,39.1423942,,-76.7304809,False,0.250776463,91.746,,39.1423957,,-76.7304762,10.528,,39.1423957,,-76.7304762,-2.271731615,7.497743607,-21.26639938,3,POSCTL,,,,939,,ACTIVE,1733609195.0,-0.12,-0.37,-0.72,12,1,15,2,17760768,0,13
1733609201,0,True,benign,-0.015639171,-0.007951569,3.064707279,23.14,48,14.862,0,0,56.4,8.2,6.6,False,,,,70,109,4,18,0.394853413,175,81.217,,39.1423942,,-76.7304809,False,0.348220129,91.827,,39.1423957,,-76.7304762,10.61,,39.1423957,,-76.7304762,-2.271731615,7.497743607,-21.26639938,3,POSCTL,,,,939,,ACTIVE,6.213810444,-0.12,-0.38,-0.72,12,1,15,2,17760768,0,13
1733609201,0,True,benign,-0.012204336,-0.013366265,3.065629959,23.14,48,14.862,0,0,56.4,7.8,6.6,False,,,,70,109,4,18,0.400395393,175,81.217,,39.1423942,,-76.7304809,False,0.450020055,91.866,,39.1423957,,-76.7304762,10.649,,39.1423957,,-76.7304762,-2.337880135,7.495595455,-21.27057076,3,POSCTL,,,,951,,ACTIVE,1733609195.0,-0.12,-0.38,-0.71,12,1,15,2,17760768,0,13
1733609201,0,True,benign,-0.012327327,-0.013543698,3.067345858,23.14,48,14.862,0,0,57.9,8.0,6.6,False,,,,70,109,4,18,0.400395393,175,81.217,,39.1423942,,-76.7304809,False,0.554740481,91.937,,39.1423956,,-76.7304763,10.72,,39.1423956,,-76.7304763,-2.40149498,7.49274826,-21.27495003,3,POSCTL,,,,951,,ACTIVE,6.314233541,-0.11,-0.38,-0.73,12,1,15,2,17760768,0,13
1733609201,0,True,benign,-0.015715962,-0.013999498,3.068091154,23.14,48,14.862,0,0,56.4,6.1,6.6,False,,,,70,109,4,18,0.400395393,175,81.217,,39.1423942,,-76.7304809,False,0.620077074,91.979,,39.1423956,,-76.7304763,10.762,,39.1423956,,-76.7304763,-2.467776775,7.490228653,-21.27901649,3,POSCTL,,,,951,,ACTIVE,1733609195.0,-0.11,-0.39,-0.73,12,1,15,2,17760768,0,13
1733609201,0,True,benign,-0.016309172,-0.013308321,3.069658279,23.62,47,14.827,0,0,56.9,8.0,6.6,False,,,,70,109,4,18,0.405163854,175,81.217,,39.1423942,,-76.7304809,False,0.754744851,92.058,,39.1423955,,-76.7304763,10.84,,39.1423955,,-76.7304763,-2.522692442,7.494659424,-21.28322411,3,POSCTL,,,,963,,ACTIVE,6.414367914,-0.11,-0.38,-0.74,12,1,15,2,17760768,0,13
1733609201,0,True,benign,-0.011411323,-0.009554638,3.070864201,23.62,47,14.827,0,0,56.9,6.2,6.6,False,,,,70,109,4,18,0.405163854,175,81.217,,39.1423942,,-76.7304809,False,0.855738222,92.089,,39.1423955,,-76.7304762,10.872,,39.1423955,,-76.7304762,-2.592892647,7.494496822,-21.28808975,3,POSCTL,,,,963,,ACTIVE,1733609195.0,-0.12,-0.38,-0.73,12,1,15,2,17760768,0,13
1733609201,0,True,benign,-0.007811476,-0.008469555,3.07216835,23.62,47,14.827,0,0,56.0,7.7,6.6,False,,,,70,109,4,18,0.405163854,175,81.217,,39.1423942,,-76.7304809,False,0.950042481,92.171,,39.1423955,,-76.7304762,10.953,,39.1423955,,-76.7304762,-2.652327299,7.496319771,-21.29274178,3,POSCTL,,,,963,,ACTIVE,6.514672518,-0.12,-0.38,-0.76,12,1,15,2,17760768,0,13
1733609201,0,True,benign,-0.007299466,-0.003992041,3.073575974,23.62,47,14.827,0,0,56.9,6.2,6.6,False,,,,70,109,4,18,0.405163854,175,81.217,,39.1423942,,-76.7304809,False,0.044463574,92.205,,39.1423954,,-76.7304761,10.988,,39.1423954,,-76.7304761,-2.715322971,7.509658813,-21.29597092,3,POSCTL,,,,963,,ACTIVE,1733609195.0,-0.12,-0.38,-0.76,12,1,15,2,17760768,0,13
1733609202,0,True,benign,-0.008975078,-0.009671196,3.074210882,23.62,47,14.827,0,0,56.0,4.2,6.6,False,,,,70,109,4,18,0.398870051,176,81.217,,39.1423942,,-76.7304809,False,0.150710407,92.275,,39.1423954,,-76.7304759,11.058,,39.1423954,,-76.7304759,-2.715322971,7.509658813,-21.29597092,3,POSCTL,,,,976,,ACTIVE,6.614833117,-0.11,-0.38,-0.76,12,1,15,2,17760768,0,13
1733609202,0,True,benign,-0.012181832,-0.006903321,3.074653149,23.62,47,14.827,0,0,55.5,6.1,6.6,False,,,,70,109,4,18,0.398870051,176,81.217,,39.1423942,,-76.7304809,False,0.239452722,92.31,,39.1423954,,-76.7304759,11.093,,39.1423954,,-76.7304759,-2.775141478,7.523127556,-21.29808998,3,POSCTL,,,,976,,ACTIVE,1733609195.0,-0.12,-0.38,-0.75,12,1,15,2,17760768,0,13
1733609202,0,True,benign,-0.009285766,-0.00444575,3.074427843,23.62,47,14.827,0,0,56.4,6.1,6.6,False,,,,70,109,4,18,0.398870051,176,81.217,,39.1423942,,-76.7304809,False,0.356342574,92.387,,39.1423953,,-76.7304759,11.169,,39.1423953,,-76.7304759,-2.832537413,7.526923656,-21.30282402,3,POSCTL,,,,976,,ACTIVE,6.715097666,-0.12,-0.39,-0.77,12,1,15,2,17760768,0,13
1733609202,0,True,benign,-0.009139463,-0.005377789,3.074483395,23.75,46,14.807,0,0,56.4,6.1,6.6,False,,,,70,109,4,18,0.424968392,176,81.217,,39.1423942,,-76.7304809,False,0.448635648,92.422,,39.1423953,,-76.7304759,11.205,,39.1423953,,-76.7304759,-2.898356199,7.526250839,-21.31081772,3,POSCTL,,,,989,,ACTIVE,1733609195.0,-0.13,-0.4,-0.77,12,1,15,2,17760768,0,13
1733609202,0,True,benign,-0.006754544,-0.004740052,3.074863672,23.75,46,14.807,0,0,56.9,6.1,6.6,False,,,,70,109,4,18,0.424968392,176,81.217,,39.1423942,,-76.7304809,False,0.557091833,92.459,,39.1423952,,-76.7304759,11.242,,39.1423952,,-76.7304759,-2.961304426,7.524764538,-21.31779099,3,POSCTL,,,,989,,ACTIVE,6.815201283,-0.13,-0.4,-0.78,12,1,15,2,17760768,0,13
1733609202,0,True,benign,-0.004528177,-0.007084829,3.076280355,23.75,46,14.807,0,0,56.4,6.1,6.6,False,,,,70,109,4,18,0.424968392,176,81.217,,39.1423942,,-76.7304809,False,0.654226277,92.541,,39.1423952,,-76.7304759,11.323,,39.1423952,,-76.7304759,-3.023826599,7.523690701,-21.32333183,3,POSCTL,,,,989,,ACTIVE,1733609195.0,-0.12,-0.4,-0.75,12,1,15,2,17760768,0,13
1733609202,0,True,benign,-0.006044137,-0.010379996,3.077815294,23.75,46,14.807,0,0,56.0,4.1,6.6,False,,,,70,109,4,18,0.424968392,176,81.217,,39.1423942,,-76.7304809,False,0.75638487,92.581,,39.1423951,,-76.7304759,11.364,,39.1423951,,-76.7304759,-3.084530354,7.523766518,-21.32834625,3,POSCTL,,,,1003,,ACTIVE,6.915419817,-0.11,-0.4,-0.69,12,1,15,2,17760768,0,13
1733609202,0,True,benign,-0.005624491,-0.012091874,3.079388142,23.75,46,14.807,0,0,55.5,8.0,6.6,False,,,,70,109,4,18,0.416283548,176,81.217,,39.1423942,,-76.7304809,False,0.856841055,92.641,,39.1423951,,-76.7304759,11.423,,39.1423951,,-76.7304759,-3.140458345,7.519798279,-21.33347702,3,POSCTL,,,,1003,,ACTIVE,1733609195.0,-0.11,-0.4,-0.64,12,1,15,2,17760768,0,13
1733609202,0,True,benign,-0.003715119,-0.011364597,3.079980612,23.75,46,14.807,0,0,56.9,6.2,6.6,False,,,,79,132,3,17,0.416283548,176,81.217,,39.1423942,,-76.7304809,False,0.958107277,92.67,,39.1423951,,-76.7304759,11.453,,39.1423951,,-76.7304759,-3.191369534,7.51568222,-21.33956718,3,POSCTL,,,,1003,,ACTIVE,7.015715837,-0.11,-0.39,-0.65,12,1,15,2,17760768,0,13
1733609202,0,True,benign,-0.001269129,-0.008736072,3.081089973,23.75,46,14.807,0,0,57.4,6.2,6.6,False,,,,79,132,4,18,0.416283548,176,81.217,,39.1423942,,-76.7304809,False,0.04287763,92.739,,39.142395,,-76.730476,11.522,,39.142395,,-76.730476,-3.191369534,7.51568222,-21.33956718,3,POSCTL,,,,1003,,ACTIVE,1733609195.0,-0.11,-0.4,-0.68,12,1,15,2,17760768,0,13
1733609203,0,True,benign,-0.001492201,-0.009060989,3.081466913,23.51,45,14.778,0,0,56.0,8.0,6.6,False,,,,70,109,4,18,0.42158249,176,81.217,,39.1423942,,-76.7304809,False,0.137744037,92.774,,39.142395,,-76.7304761,11.556,,39.142395,,-76.7304761,-3.241791725,7.514579773,-21.34296036,3,POSCTL,,,,1013,,ACTIVE,7.115786314,-0.12,-0.4,-0.68,12,1,15,2,17760768,0,13
1733609203,0,True,benign,-0.002520144,-0.010513653,3.081207275,23.51,45,14.778,0,0,56.9,6.1,6.6,False,,,,70,109,4,18,0.42158249,176,81.217,,39.1423942,,-76.7304809,False,0.253893704,92.827,,39.1423949,,-76.7304759,11.609,,39.1423949,,-76.7304759,-3.293129206,7.519155025,-21.3480072,3,POSCTL,,,,1013,,ACTIVE,1733609196.0,-0.1,-0.4,-0.68,12,1,15,2,17760768,0,13
1733609203,0,True,benign,-0.003950265,-0.009408719,3.080599546,23.51,45,14.778,0,0,56.9,7.8,6.6,False,,,,70,109,4,18,0.42158249,176,81.217,,39.1423942,,-76.7304809,False,0.358496129,92.851,,39.1423949,,-76.7304759,11.633,,39.1423949,,-76.7304759,-3.334745646,7.526375294,-21.34976006,3,POSCTL,,,,1013,,ACTIVE,7.216883898,-0.09,-0.4,-0.68,12,1,15,2,17760768,0,13
1733609203,0,True,benign,-0.008021119,-0.00941301,3.079806805,23.51,45,14.778,0,0,56.4,6.3,6.6,False,,,,70,109,4,18,0.42158249,176,81.217,,39.1423942,,-76.7304809,False,0.457636611,92.879,,39.142395,,-76.7304758,11.662,,39.142395,,-76.7304758,-3.380505085,7.532054901,-21.34835243,3,POSCTL,,,,1026,,ACTIVE,1733609196.0,-0.09,-0.4,-0.67,12,1,15,2,17760768,0,13
1733609203,0,True,benign,-0.008423588,-0.004299133,3.07936573,23.51,45,14.778,0,0,56.0,6.1,6.6,False,,,,70,109,4,18,0.411048383,176,81.217,,39.1423942,,-76.7304809,False,0.538892444,92.929,,39.142395,,-76.7304758,11.712,,39.142395,,-76.7304758,-3.422738075,7.53076458,-21.34750748,3,POSCTL,,,,1026,,ACTIVE,7.316994429,-0.09,-0.4,-0.7,12,1,15,2,17760768,0,13
1733609203,0,True,benign,-0.006377738,-0.006167299,3.078912973,23.51,45,14.778,0,0,56.9,4.2,6.6,False,,,,70,109,4,18,0.411048383,176,81.217,,39.1423942,,-76.7304809,False,0.65986774,92.974,,39.142395,,-76.7304758,11.757,,39.142395,,-76.7304758,-3.463168383,7.535041332,-21.34380531,3,POSCTL,,,,1026,,ACTIVE,1733609196.0,-0.08,-0.41,-0.7,12,1,15,2,17760768,0,13
1733609203,0,True,benign,-0.006437553,-0.008340817,3.07894206,23.51,45,14.778,0,0,56.0,8.0,6.6,False,,,,70,109,4,18,0.411048383,176,81.217,,39.1423942,,-76.7304809,False,0.754520444,93.006,,39.142395,,-76.7304758,11.789,,39.142395,,-76.7304758,-3.503662825,7.53303051,-21.3391037,3,POSCTL,,,,1026,,ACTIVE,7.416301489,-0.08,-0.41,-0.71,12,1,15,2,17760768,0,13
1733609203,0,True,benign,-0.008264638,-0.00897875,3.078691244,23.88,45,14.762,0,0,56.9,6.1,6.6,False,,,,70,109,4,18,0.429561913,176,81.217,,39.1423942,,-76.7304809,False,0.860326481,93.026,,39.1423951,,-76.7304758,11.809,,39.1423951,,-76.7304758,-3.503662825,7.53303051,-21.3391037,3,POSCTL,,,,1037,,ACTIVE,1733609196.0,-0.08,-0.42,-0.71,12,1,15,2,17760768,0,13
1733609203,0,True,benign,-0.011836136,-0.00838724,3.078308582,23.88,45,14.762,0,0,55.5,6.1,6.6,False,,,,70,109,4,18,0.429561913,176,81.217,,39.1423942,,-76.7304809,False,0.949851425,93.068,,39.1423951,,-76.7304758,11.851,,39.1423951,,-76.7304758,-3.54126811,7.529239655,-21.33342934,3,POSCTL,,,,1037,,ACTIVE,7.515445709,-0.07,-0.42,-0.72,12,1,15,2,17760768,0,13
1733609203,0,True,benign,-0.011284208,-0.010519843,3.077993631,23.88,45,14.762,0,0,56.4,8.0,6.6,False,,,,70,109,4,18,0.429561913,176,81.217,,39.1423942,,-76.7304809,False,0.050236648,93.087,,39.1423952,,-76.7304758,11.87,,39.1423952,,-76.7304758,-3.570901394,7.533492088,-21.32461166,3,POSCTL,,,,1037,,ACTIVE,1733609196.0,-0.07,-0.42,-0.72,12,1,15,2,17760768,0,13
1733609204,0,True,benign,-0.011438026,-0.010351348,3.078526258,23.88,45,14.762,0,0,56.4,6.1,6.6,False,,,,70,109,4,18,0.42796585,176,81.217,,39.1423942,,-76.7304809,False,0.150222259,93.122,,39.1423953,,-76.7304757,11.905,,39.1423953,,-76.7304757,-3.604500532,7.536296844,-21.31551361,3,POSCTL,,,,1046,,ACTIVE,7.615439415,-0.08,-0.41,-0.75,12,1,15,2,17760768,0,13
1733609204,0,True,benign,-0.010334893,-0.008871567,3.078579903,23.88,45,14.762,0,0,56.0,6.1,6.6,False,,,,70,109,4,18,0.42796585,176,81.217,,39.1423942,,-76.7304809,False,0.249846463,93.141,,39.1423953,,-76.7304757,11.923,,39.1423953,,-76.7304757,-3.633754015,7.54366684,-21.30542946,3,POSCTL,,,,1046,,ACTIVE,1733609196.0,-0.08,-0.41,-0.76,12,1,15,2,17760768,0,13
1733609204,0,True,benign,-0.010269384,-0.00552721,3.078373194,23.88,45,14.762,0,0,56.4,6.1,6.6,False,,,,70,109,4,18,0.42796585,176,81.217,,39.1423942,,-76.7304809,False,0.347329574,93.183,,39.1423954,,-76.7304756,11.965,,39.1423954,,-76.7304756,-3.669424057,7.546069622,-21.29762268,3,POSCTL,,,,1046,,ACTIVE,7.715696573,-0.09,-0.41,-0.78,12,1,15,2,17760768,0,13
1733609204,0,True,benign,-0.011524735,-0.001509572,3.078334808,24.24,44,14.74,0,0,56.4,6.3,6.6,False,,,,70,109,4,18,0.42796585,176,81.217,,39.1423942,,-76.7304809,False,0.451845722,93.2,,39.1423955,,-76.7304756,11.982,,39.1423955,,-76.7304756,-3.702373743,7.551229954,-21.28790855,3,POSCTL,,,,1046,,ACTIVE,1733609196.0,-0.09,-0.41,-0.79,12,1,15,2,17760768,0,13
1733609204,0,True,benign,-0.013497951,-0.0034869,3.077922583,24.24,44,14.74,0,0,55.5,4.3,6.6,False,,,,70,109,4,18,0.420294493,176,81.217,,39.1423942,,-76.7304809,False,0.546956,93.242,,39.1423956,,-76.7304755,12.025,,39.1423956,,-76.7304755,-3.73564291,7.55589962,-21.28128624,3,POSCTL,,,,1061,,ACTIVE,7.815128803,-0.09,-0.41,-0.8,12,1,15,2,17760768,0,13
1733609204,0,True,benign,-0.013115263,-0.002825601,3.078112841,24.24,44,14.74,0,0,56.0,7.8,6.6,False,,,,70,109,4,18,0.420294493,176,81.217,,39.1423942,,-76.7304809,False,0.629495907,93.26,,39.1423956,,-76.7304755,12.043,,39.1423956,,-76.7304755,-3.73564291,7.55589962,-21.28128624,3,POSCTL,,,,1061,,ACTIVE,1733609196.0,-0.1,-0.41,-0.8,12,1,15,2,17760768,0,13
1733609204,0,True,benign,-0.013552685,-0.004205373,3.077998161,24.24,44,14.74,0,0,56.0,6.3,6.6,False,,,,70,109,4,18,0.420294493,176,81.217,,39.1423942,,-76.7304809,False,0.750281944,93.304,,39.1423957,,-76.7304755,12.086,,39.1423957,,-76.7304755,-3.770036697,7.557545185,-21.27164841,3,POSCTL,,,,1061,,ACTIVE,7.915241957,-0.1,-0.42,-0.81,12,1,15,2,17760768,0,13
1733609204,0,True,benign,-0.016140709,-0.005908506,3.078034639,24.24,44,14.74,0,0,56.4,6.2,6.6,False,,,,70,109,4,18,0.44624114,176,81.217,,39.1423942,,-76.7304809,False,0.848413518,93.329,,39.1423957,,-76.7304755,12.111,,39.1423957,,-76.7304755,-3.801063299,7.557784557,-21.26602554,3,POSCTL,,,,1080,,ACTIVE,1733609196.0,-0.11,-0.43,-0.82,12,1,15,2,17760768,0,13
1733609204,0,True,benign,-0.015576127,-0.007848975,3.07810998,24.24,44,14.74,0,0,56.4,6.1,6.6,False,,,,70,109,4,18,0.44624114,176,81.217,,39.1423942,,-76.7304809,False,0.951589629,93.381,,39.1423957,,-76.7304757,12.164,,39.1423957,,-76.7304757,-3.849770069,7.548895836,-21.26309967,3,POSCTL,,,,1080,,ACTIVE,8.015310764,-0.12,-0.43,-0.82,12,1,15,2,17760768,0,13
1733609204,0,True,benign,-0.015313419,-0.00785047,3.077935696,24.24,44,14.74,0,0,56.4,4.2,6.6,False,,,,70,109,4,18,0.44624114,176,81.217,,39.1423942,,-76.7304809,False,0.049680759,93.4,,39.1423958,,-76.7304756,12.183,,39.1423958,,-76.7304756,-3.884107113,7.547146797,-21.25752449,3,POSCTL,,,,1080,,ACTIVE,1733609196.0,-0.12,-0.43,-0.84,12,1,15,2,17760768,0,13
1733609205,0,True,benign,-0.014679295,-0.008738184,3.077639103,24.51,43,14.712,0,0,57.4,10.0,6.6,False,,,,70,109,4,18,0.44624114,176,81.217,,39.1423942,,-76.7304809,False,0.162731148,93.426,,39.1423958,,-76.7304757,12.209,,39.1423958,,-76.7304757,-3.920406818,7.54792738,-21.25149727,3,POSCTL,,,,1095,,ACTIVE,8.116264582,-0.12,-0.44,-0.84,12,1,15,2,17760768,0,13
