timestamp,airspeed,armed,attitude.pitch,attitude.roll,attitude.yaw,battery.current,battery.level,battery.voltage,commands.count,commands.next,ekf_ok,gimbal.pitch,gimbal.roll,gimbal.yaw,gps_0.eph,gps_0.epv,gps_0.fix_type,gps_0.satellites_visible,groundspeed,heading,home_location.alt,home_location.global_frame,home_location.lat,home_location.local_frame,home_location.lon,is_armable,last_heartbeat,location.global_frame.alt,location.global_frame.global_frame,location.global_frame.lat,location.global_frame.local_frame,location.global_frame.lon,location.global_relative_frame.alt,location.global_relative_frame.global_frame,location.global_relative_frame.lat,location.global_relative_frame.local_frame,location.global_relative_frame.lon,location.local_frame.down,location.local_frame.east,location.local_frame.north,ml_verdict,mode.name,mount_status[0],mount_status[1],mount_status[2],rangefinder.distance,rangefinder.voltage,system_status.state,timedelta,velocity[0],velocity[1],velocity[2],version.autopilot_type,version.major,version.minor,version.patch,version.raw_version,version.release,version.vehicle_type
1733397470.24754,0.0,True,-0.03707557171583176,0.0045343912206590176,1.0609968900680542,-1.0,51,15.3,0,2,False,,,,0,0,3,10,5.009953022003174,60,28.501,,39.9526379,,-113.4759758,False,0.46730256199953146,78.482,,39.9531812,,-113.4762756,49.98,,39.9531812,,-113.4762756,-49.9825553894043,-25.54059410095215,60.402748107910156,unknown,MISSION,,,,,,ACTIVE,0,2.44,4.37,0.0,12,1,15,0,17760384,128,2
1733397471.2575905,0.0,True,-0.03716891631484032,0.005520006641745567,1.062184453010559,-1.0,51,15.3,0,2,False,,,,0,0,3,10,5.000340938568115,60,28.501,,39.9526379,,-113.4759758,False,0.3417942169980961,78.481,,39.9532011,,-113.4762297,49.979,,39.9532011,,-113.4762297,-49.98162841796875,-21.59086036682129,62.64209747314453,unknown,MISSION,,,,,,ACTIVE,1733397471.2575905,2.41,4.37,0.0,12,1,15,0,17760384,128,2
1733397471.3593504,0.0,True,-0.03598920628428459,0.0047417301684618,1.0623174905776978,-1.0,51,15.3,0,2,False,,,,0,0,3,10,5.003543376922607,60,28.501,,39.9526379,,-113.4759758,False,0.44666912599495845,78.481,,39.9532034,,-113.4762243,49.98,,39.9532034,,-113.4762243,-49.982398986816406,-21.169771194458008,62.87799835205078,unknown,MISSION,,,,,,ACTIVE,0.1017599105834961,2.41,4.38,0.0,12,1,15,0,17760384,128,2
1733397471.4601436,0.0,True,-0.035071320831775665,0.004290435928851366,1.0625303983688354,-1.0,51,15.3,0,2,False,,,,0,0,3,10,5.004053592681885,60,28.501,,39.9526379,,-113.4759758,False,0.5475736250009504,78.482,,39.9532052,,-113.4762202,49.981,,39.9532052,,-113.4762202,-49.98312759399414,-20.818471908569336,63.07405090332031,unknown,MISSION,,,,,,ACTIVE,1733397471.3583837,2.41,4.38,0.0,12,1,15,0,17760384,128,2
1733397471.5629733,0.0,True,-0.033732783049345016,0.004131680354475975,1.0620665550231934,-1.0,51,15.3,0,2,False,,,,0,0,3,10,5.008927822113037,60,28.501,,39.9526379,,-113.4759758,False,0.649196206999477,78.483,,39.9532073,,-113.4762152,49.982,,39.9532073,,-113.4762152,-49.98397445678711,-20.396617889404297,63.3090705871582,unknown,MISSION,,,,,,ACTIVE,0.2045896053314209,2.41,4.38,0.0,12,1,15,0,17760384,128,2
1733397471.6625285,0.0,True,-0.032923828810453415,0.003988052252680063,1.0622875690460205,-1.0,51,15.3,0,2,False,,,,0,0,3,10,5.014550685882568,60,28.501,,39.9526379,,-113.4759758,False,0.7475795229984215,78.484,,39.9532091,,-113.4762111,49.983,,39.9532091,,-113.4762111,-49.98488998413086,-19.974456787109375,63.54387664794922,unknown,MISSION,,,,,,ACTIVE,1733397471.457939,2.41,4.39,0.0,12,1,15,0,17760384,128,2
1733397471.762536,0.0,True,-0.031524863094091415,0.003751264652237296,1.0620899200439453,-1.0,51,15.3,0,2,False,,,,0,0,3,10,5.0154290199279785,60,28.501,,39.9526379,,-113.4759758,False,0.8486814339994453,78.485,,39.9532113,,-113.4762057,49.983,,39.9532113,,-113.4762057,-49.985626220703125,-19.58707046508789,63.7586784362793,unknown,MISSION,,,,,,ACTIVE,0.3045971393585205,2.41,4.39,0.0,12,1,15,0,17760384,128,2
1733397471.864238,0.0,True,-0.031561147421598434,0.0030102250166237354,1.0618972778320312,-1.0,51,15.3,0,2,False,,,,0,0,3,10,5.0140275955200195,60,28.501,,39.9526379,,-113.4759758,False,0.951210049999645,78.485,,39.9532134,,-113.4762008,49.984,,39.9532134,,-113.4762008,-49.98622131347656,-19.164165496826172,63.99214172363281,unknown,MISSION,,,,,,ACTIVE,1733397471.559641,2.41,4.39,0.0,12,1,15,0,17760384,128,2
1733397471.967783,0.0,True,-0.031614743173122406,0.0018181974301114678,1.0619288682937622,-1.0,51,15.3,0,2,False,,,,0,0,3,10,5.011021137237549,60,28.501,,39.9526379,,-113.4759758,False,0.034371912995993625,78.486,,39.9532152,,-113.4761966,49.985,,39.9532152,,-113.4761966,-49.986759185791016,-18.811725616455078,64.18605041503906,unknown,MISSION,,,,,,ACTIVE,0.40814208984375,2.4,4.39,0.0,12,1,15,0,17760384,128,2
1733397472.0716333,0.0,True,-0.03110920637845993,0.0010761574376374483,1.06206214427948,-1.0,51,15.3,0,2,False,,,,0,0,3,10,5.010862827301025,60,28.501,,39.9526379,,-113.4759758,False,0.04113275200506905,78.486,,39.9532175,,-113.4761913,49.985,,39.9532175,,-113.4761913,-49.98748016357422,-18.35358428955078,64.43807220458984,unknown,MISSION,,,,,,ACTIVE,1733397471.6634912,2.4,4.39,0.0,12,1,15,0,17760384,128,2
1733397472.166818,0.0,True,-0.03056928515434265,0.0006475987611338496,1.0617692470550537,-1.0,51,15.3,0,2,False,,,,0,0,3,10,5.0123701095581055,60,28.501,,39.9526379,,-113.4759758,False,0.13466218100074911,78.487,,39.9532192,,-113.4761871,49.986,,39.9532192,,-113.4761871,-49.98788070678711,-18.001169204711914,64.63192749023438,unknown,MISSION,,,,,,ACTIVE,0.5033266544342041,2.4,4.39,0.0,12,1,15,0,17760384,128,2
1733397472.2683315,0.0,True,-0.030156834051012993,0.00011390131840016693,1.0617085695266724,-1.0,51,15.3,0,2,False,,,,0,0,3,10,5.009477138519287,60,28.501,,39.9526379,,-113.4759758,False,0.23792108300403925,78.487,,39.9532213,,-113.4761822,49.986,,39.9532213,,-113.4761822,-49.988365173339844,-17.57839012145996,64.86407470703125,unknown,MISSION,,,,,,ACTIVE,1733397471.7650049,2.4,4.39,0.0,12,1,15,0,17760384,128,2
1733397472.370503,0.0,True,-0.03021201305091381,-0.0005999943823553622,1.061340093612671,-1.0,51,15.3,0,2,False,,,,0,0,3,10,5.003907680511475,60,28.501,,39.9526379,,-113.4759758,False,0.3389049800025532,78.488,,39.953223,,-113.476178,49.987,,39.953223,,-113.476178,-49.98888397216797,-17.19110107421875,65.07628631591797,unknown,MISSION,,,,,,ACTIVE,0.6054980754852295,2.4,4.38,0.0,12,1,15,0,17760384,128,2
1733397472.4706428,0.0,True,-0.030777063220739365,-0.0013070424320176244,1.061152458190918,-1.0,51,15.3,0,2,False,,,,0,0,3,10,5.003907680511475,60,28.501,,39.9526379,,-113.4759758,False,0.4384070980013348,78.488,,39.9532253,,-113.4761727,49.987,,39.9532253,,-113.4761727,-49.98916244506836,-16.768972396850586,65.30725860595703,unknown,MISSION,,,,,,ACTIVE,1733397471.8651447,2.4,4.38,0.0,12,1,15,0,17760384,128,2
1733397472.5708194,0.0,True,-0.03121272101998329,-0.002238414017483592,1.060804843902588,-1.0,51,15.3,0,2,False,,,,0,0,3,10,5.0001444816589355,60,28.501,,39.9526379,,-113.4759758,False,0.539217074001499,78.488,,39.953227,,-113.4761686,49.987,,39.953227,,-113.4761686,-49.98931884765625,-16.417266845703125,65.49945831298828,unknown,MISSION,,,,,,ACTIVE,0.7056746482849121,2.4,4.38,0.0,12,1,15,0,17760384,128,2
1733397472.6727157,0.0,True,-0.0306913610547781,-0.0030321183148771524,1.0606999397277832,-1.0,51,15.3,0,2,False,,,,0,0,3,10,5.001463413238525,60,28.501,,39.9526379,,-113.4759758,False,0.6411985540034948,78.488,,39.9532291,,-113.4761636,49.987,,39.9532291,,-113.4761636,-49.989471435546875,-15.994792938232422,65.73021697998047,unknown,MISSION,,,,,,ACTIVE,1733397471.967041,2.4,4.38,0.0,12,1,15,0,17760384,128,2
1733397472.7711334,0.0,True,-0.029607387259602547,-0.003528621280565858,1.0605453252792358,-1.0,51,15.3,0,2,False,,,,0,0,3,10,5.008749961853027,60,28.501,,39.9526379,,-113.4759758,False,0.7396135439994396,78.489,,39.9532308,,-113.4761595,49.987,,39.9532308,,-113.4761595,-49.989532470703125,-15.572236061096191,65.9615478515625,unknown,MISSION,,,,,,ACTIVE,0.8040924072265625,2.4,4.39,0.0,12,1,15,0,17760384,128,2
1733397472.8727155,0.0,True,-0.028403203934431076,-0.004027393646538258,1.0604487657546997,-1.0,51,15.3,0,2,False,,,,0,0,3,10,5.009565353393555,60,28.501,,39.9526379,,-113.4759758,False,0.8413688340006047,78.489,,39.9532331,,-113.4761541,49.987,,39.9532331,,-113.4761541,-49.98958206176758,-15.18489933013916,66.17401123046875,unknown,MISSION,,,,,,ACTIVE,1733397472.068623,2.41,4.38,0.0,12,1,15,0,17760384,128,2
1733397472.974115,0.0,True,-0.02798481658101082,-0.004350850358605385,1.060593605041504,-1.0,51,15.3,0,2,False,,,,0,0,3,10,5.009957790374756,60,28.501,,39.9526379,,-113.4759758,False,0.944133682998654,78.489,,39.9532348,,-113.47615,49.988,,39.9532348,,-113.47615,-49.98968505859375,-14.832793235778809,66.36732482910156,unknown,MISSION,,,,,,ACTIVE,0.905491828918457,2.41,4.39,0.0,12,1,15,0,17760384,128,2
1733397473.0731847,0.0,True,-0.026994075626134872,-0.004682511556893587,1.0604435205459595,-1.0,51,15.3,0,2,False,,,,0,0,3,10,5.012265205383301,60,28.501,,39.9526379,,-113.4759758,False,0.026603195998177398,78.489,,39.9532369,,-113.476145,49.988,,39.9532369,,-113.476145,-49.989864349365234,-14.410279273986816,66.59915924072266,unknown,MISSION,,,,,,ACTIVE,1733397472.167693,2.41,4.39,0.0,12,1,15,0,17760384,128,2
1733397473.1751108,0.0,True,-0.026397094130516052,-0.00482317665591836,1.0602338314056396,-1.0,51,15.3,0,2,False,,,,0,0,3,10,5.012319087982178,60,28.501,,39.9526379,,-113.4759758,False,0.03588015700370306,78.489,,39.9532386,,-113.4761409,49.988,,39.9532386,,-113.4761409,-49.990074157714844,-13.988066673278809,66.83106994628906,unknown,MISSION,,,,,,ACTIVE,1.007417917251587,2.42,4.38,0.0,12,1,15,0,17760384,128,2
1733397473.2780654,0.0,True,-0.025992250069975853,-0.0049165054224431515,1.0601725578308105,-1.0,51,15.3,0,2,False,,,,0,0,3,10,5.010340690612793,60,28.501,,39.9526379,,-113.4759758,False,0.13238462300068932,78.489,,39.9532409,,-113.4761355,49.988,,39.9532409,,-113.4761355,-49.99021911621094,-13.601539611816406,67.04383087158203,unknown,MISSION,,,,,,ACTIVE,1733397472.2706475,2.42,4.38,0.0,12,1,15,0,17760384,128,2
1733397473.3794267,0.0,True,-0.026419539004564285,-0.0048680915497243404,1.0600340366363525,-1.0,51,15.3,0,2,False,,,,0,0,3,10,5.005409240722656,60,28.501,,39.9526379,,-113.4759758,False,0.23986519400204998,78.489,,39.953243,,-113.4761306,49.988,,39.953243,,-113.4761306,-49.99016189575195,-13.180575370788574,67.27574920654297,unknown,MISSION,,,,,,ACTIVE,1.1087791919708252,2.42,4.37,0.0,12,1,15,0,17760384,128,2
1733397473.4803958,0.0,True,-0.026994073763489723,-0.004909538198262453,1.0598708391189575,-1.0,51,15.3,0,2,False,,,,0,0,3,10,5.002422332763672,60,28.501,,39.9526379,,-113.4759758,False,0.3412255520015606,78.489,,39.9532447,,-113.4761265,49.988,,39.9532447,,-113.4761265,-49.99003982543945,-12.795186996459961,67.48820495605469,unknown,MISSION,,,,,,ACTIVE,1733397472.3716166,2.42,4.37,0.0,12,1,15,0,17760384,128,2
1733397473.5803254,0.0,True,-0.027270426973700523,-0.005216736346483231,1.0597566366195679,-1.0,51,15.3,0,2,False,,,,0,0,3,10,5.002422332763672,60,28.501,,39.9526379,,-113.4759758,False,0.4396822679991601,78.489,,39.953247,,-113.4761211,49.988,,39.953247,,-113.4761211,-49.98987579345703,-12.374855041503906,67.71994018554688,unknown,MISSION,,,,,,ACTIVE,1.2087087631225586,2.42,4.37,0.0,12,1,15,0,17760384,128,2
1733397473.6809027,0.0,True,-0.02680826187133789,-0.005199474282562733,1.0595170259475708,-1.0,51,15.3,0,2,False,,,,0,0,3,10,5.0041422843933105,60,28.501,,39.9526379,,-113.4759758,False,0.5414956620006706,78.489,,39.9532487,,-113.476117,49.988,,39.9532487,,-113.476117,-49.98980712890625,-12.0247163772583,67.9131851196289,unknown,MISSION,,,,,,ACTIVE,1733397472.472194,2.43,4.37,0.0,12,1,15,0,17760384,128,2
1733397473.7809896,0.0,True,-0.026968641206622124,-0.005090021528303623,1.0594197511672974,-1.0,51,15.3,0,2,False,,,,0,0,3,10,5.002593517303467,60,28.501,,39.9526379,,-113.4759758,False,0.6395032159998664,78.489,,39.9532508,,-113.4761121,49.988,,39.9532508,,-113.4761121,-49.98976516723633,-11.604873657226562,68.14533233642578,unknown,MISSION,,,,,,ACTIVE,1.308795690536499,2.43,4.36,0.0,12,1,15,0,17760384,128,2
1733397473.8833005,0.0,True,-0.027050038799643517,-0.0047715771943330765,1.0592947006225586,-1.0,51,15.3,0,2,False,,,,0,0,3,10,5.004260540008545,60,28.501,,39.9526379,,-113.4759758,False,0.7417929430012009,78.488,,39.9532525,,-113.476108,49.987,,39.9532525,,-113.476108,-49.989341735839844,-11.185090065002441,68.37775421142578,unknown,MISSION,,,,,,ACTIVE,1733397472.5745049,2.43,4.36,0.0,12,1,15,0,17760384,128,2
1733397473.9833739,0.0,True,-0.026143517345190048,-0.004423235077410936,1.0589205026626587,-1.0,51,15.3,0,2,False,,,,0,0,3,10,5.006718158721924,60,28.501,,39.9526379,,-113.4759758,False,0.8398607690032804,78.488,,39.9532548,,-113.4761027,49.987,,39.9532548,,-113.4761027,-49.98868179321289,-10.799930572509766,68.5909423828125,unknown,MISSION,,,,,,ACTIVE,1.4088690280914307,2.44,4.37,0.0,12,1,15,0,17760384,128,2
1733397474.0836399,0.0,True,-0.024849366396665573,-0.004641782958060503,1.0586566925048828,-1.0,51,15.3,0,2,False,,,,0,0,3,10,5.012807846069336,60,28.501,,39.9526379,,-113.4759758,False,0.9413879550047568,78.487,,39.9532565,,-113.4760985,49.986,,39.9532565,,-113.4760985,-49.98804473876953,-10.449456214904785,68.7851791381836,unknown,MISSION,,,,,,ACTIVE,1733397472.6747708,2.44,4.37,0.0,12,1,15,0,17760384,128,2
1733397474.183485,0.0,True,-0.02352025732398033,-0.004784725606441498,1.0588488578796387,-1.0,51,15.3,0,2,False,,,,0,0,3,10,5.019099235534668,60,28.501,,39.9526379,,-113.4759758,False,0.026246505993185565,78.486,,39.9532587,,-113.4760936,49.985,,39.9532587,,-113.4760936,-49.98720932006836,-10.028524398803711,69.01892852783203,unknown,MISSION,,,,,,ACTIVE,1.508714199066162,2.45,4.37,0.0,12,1,15,0,17760384,128,2
1733397474.286187,0.0,True,-0.022053277119994164,-0.00459212576970458,1.0585557222366333,-1.0,51,15.3,0,2,False,,,,0,0,3,10,5.02517557144165,60,28.501,,39.9526379,,-113.4759758,False,0.03586874699976761,78.486,,39.9532604,,-113.4760895,49.984,,39.9532604,,-113.4760895,-49.98646545410156,-9.607382774353027,69.25330352783203,unknown,MISSION,,,,,,ACTIVE,1733397472.7774727,2.46,4.38,0.0,12,1,15,0,17760384,128,2
1733397474.384905,0.0,True,-0.020476415753364563,-0.004559953231364489,1.0588645935058594,-1.0,51,15.3,0,2,False,,,,0,0,3,10,5.033397197723389,60,28.501,,39.9526379,,-113.4759758,False,0.1287365280004451,78.485,,39.9532627,,-113.4760841,49.984,,39.9532627,,-113.4760841,-49.986019134521484,-9.221054077148438,69.46874237060547,unknown,MISSION,,,,,,ACTIVE,1.6074323654174805,2.46,4.38,0.0,12,1,15,0,17760384,128,2
1733397474.486568,0.0,True,-0.018602518364787102,-0.0038698443677276373,1.058457851409912,-1.0,51,15.3,0,2,False,,,,0,0,3,10,5.037632942199707,60,28.501,,39.9526379,,-113.4759758,False,0.23551640500227222,78.485,,39.9532645,,-113.47608,49.984,,39.9532645,,-113.47608,-49.985816955566406,-8.869729995727539,69.66511535644531,unknown,MISSION,,,,,,ACTIVE,1733397472.8791356,2.47,4.38,0.0,12,1,15,0,17760384,128,2
1733397474.5859842,0.0,True,-0.017552779987454414,-0.0036730566062033176,1.0582001209259033,-1.0,51,15.3,0,2,False,,,,0,0,3,10,5.0358195304870605,60,28.501,,39.9526379,,-113.4759758,False,0.333824679000827,78.485,,39.9532666,,-113.4760751,49.983,,39.9532666,,-113.4760751,-49.98563003540039,-8.413040161132812,69.92048645019531,unknown,MISSION,,,,,,ACTIVE,1.7068486213684082,2.47,4.38,0.0,12,1,15,0,17760384,128,2
1733397474.6898143,0.0,True,-0.017467865720391273,-0.003469556337222457,1.0581912994384766,-1.0,51,15.3,0,2,False,,,,0,0,3,10,5.0358195304870605,60,28.501,,39.9526379,,-113.4759758,False,0.4398695019990555,78.485,,39.9532689,,-113.4760697,49.983,,39.9532689,,-113.4760697,-49.985618591308594,-7.991707801818848,70.15625762939453,unknown,MISSION,,,,,,ACTIVE,1733397472.9829657,2.47,4.38,0.0,12,1,15,0,17760384,128,2
1733397474.7861257,0.0,True,-0.017573855817317963,-0.003266890300437808,1.0580682754516602,-1.0,51,15.3,0,2,False,,,,0,0,3,10,5.030790328979492,60,28.501,,39.9526379,,-113.4759758,False,0.5351514569993014,78.485,,39.9532706,,-113.4760656,49.984,,39.9532706,,-113.4760656,-49.98572540283203,-7.640995979309082,70.35279846191406,unknown,MISSION,,,,,,ACTIVE,1.8031599521636963,2.47,4.37,0.0,12,1,15,0,17760384,128,2
1733397474.8872504,0.0,True,-0.018056722357869148,-0.0027814789209514856,1.0581645965576172,-1.0,51,15.3,0,2,False,,,,0,0,3,10,5.025253772735596,60,28.501,,39.9526379,,-113.4759758,False,0.6335569479997503,78.485,,39.9532724,,-113.4760615,49.984,,39.9532724,,-113.4760615,-49.98579025268555,-7.2908806800842285,70.54966735839844,unknown,MISSION,,,,,,ACTIVE,1733397473.0840905,2.47,4.37,0.0,12,1,15,0,17760384,128,2
1733397474.986445,0.0,True,-0.01874062791466713,-0.00221848301589489,1.0581845045089722,-1.0,51,15.3,0,2,False,,,,0,0,3,10,5.017954349517822,60,28.501,,39.9526379,,-113.4759758,False,0.7328817710003932,78.485,,39.9532742,,-113.4760574,49.984,,39.9532742,,-113.4760574,-49.98600387573242,-6.941417217254639,70.7467269897461,unknown,MISSION,,,,,,ACTIVE,1.9023544788360596,2.47,4.36,0.0,12,1,15,0,17760384,128,2
1733397475.0897117,0.0,True,-0.019405003637075424,-0.0019150906009599566,1.0581649541854858,-1.0,51,15.3,0,2,False,,,,0,0,3,10,5.014098167419434,60,28.501,,39.9526379,,-113.4759758,False,0.8392084940060158,78.485,,39.9532763,,-113.4760525,49.984,,39.9532763,,-113.4760525,-49.98637008666992,-6.522632598876953,70.98362731933594,unknown,MISSION,,,,,,ACTIVE,1733397473.1873572,2.47,4.36,0.0,12,1,15,0,17760384,128,2
1733397475.186672,0.0,True,-0.019380396232008934,-0.001355607295408845,1.0583468675613403,-1.0,51,15.3,0,2,False,,,,0,0,3,10,5.0101189613342285,60,28.501,,39.9526379,,-113.4759758,False,0.9334595840045949,78.486,,39.9532781,,-113.4760484,49.985,,39.9532781,,-113.4760484,-49.98683166503906,-6.1044602394104,71.22100830078125,unknown,MISSION,,,,,,ACTIVE,1.999314785003662,2.47,4.35,0.0,12,1,15,0,17760384,128,2
1733397475.2868726,0.0,True,-0.019336843863129616,-0.0006218532798811793,1.0583664178848267,-1.0,51,15.3,0,2,False,,,,0,0,3,10,5.008012771606445,60,28.501,,39.9526379,,-113.4759758,False,0.008491495995258447,78.486,,39.9532804,,-113.4760431,49.985,,39.9532804,,-113.4760431,-49.987361907958984,-5.721415042877197,71.4386978149414,unknown,MISSION,,,,,,ACTIVE,1733397473.2875578,2.47,4.35,0.0,12,1,15,0,17760384,128,2
1733397475.3880978,0.0,True,-0.019187847152352333,-5.402013266575523e-05,1.0588363409042358,-1.0,51,15.3,0,2,False,,,,0,0,3,10,5.006832599639893,60,28.501,,39.9526379,,-113.4759758,False,0.018162278000090737,78.487,,39.9532825,,-113.4760382,49.986,,39.9532825,,-113.4760382,-49.98774337768555,-5.304047107696533,71.67609405517578,unknown,MISSION,,,,,,ACTIVE,2.1005399227142334,2.46,4.35,0.0,12,1,15,0,17760384,128,2
1733397475.4912207,0.0,True,-0.018910573795437813,0.0003818155382759869,1.0590170621871948,-1.0,51,15.3,0,2,False,,,,0,0,3,10,5.008366584777832,60,28.501,,39.9526379,,-113.4759758,False,0.11999407500115922,78.487,,39.9532843,,-113.4760341,49.986,,39.9532843,,-113.4760341,-49.987831115722656,-4.9215850830078125,71.89366149902344,unknown,MISSION,,,,,,ACTIVE,1733397473.3906808,2.47,4.35,0.0,12,1,15,0,17760384,128,2
1733397475.5932767,0.0,True,-0.0181591659784317,0.0008967438479885459,1.0591384172439575,-1.0,51,15.3,0,2,False,,,,0,0,3,10,5.0109710693359375,60,28.501,,39.9526379,,-113.4759758,False,0.22409184600110166,78.487,,39.9532866,,-113.4760288,49.986,,39.9532866,,-113.4760288,-49.987918853759766,-4.504274368286133,72.13127136230469,unknown,MISSION,,,,,,ACTIVE,2.2025959491729736,2.47,4.35,0.0,12,1,15,0,17760384,128,2
1733397475.6915185,0.0,True,-0.017344322055578232,0.0016564649995416403,1.0591844320297241,-1.0,51,15.3,0,2,False,,,,0,0,3,10,5.0109710693359375,60,28.501,,39.9526379,,-113.4759758,False,0.320343747996958,78.487,,39.9532884,,-113.4760247,49.986,,39.9532884,,-113.4760247,-49.98798370361328,-4.15645694732666,72.3294906616211,unknown,MISSION,,,,,,ACTIVE,1733397473.4889226,2.47,4.35,0.0,12,1,15,0,17760384,128,2
1733397475.795073,0.0,True,-0.01673394814133644,0.0025865775533020496,1.0593419075012207,-1.0,51,15.3,0,2,False,,,,0,0,3,10,5.012723445892334,60,28.501,,39.9526379,,-113.4759758,False,0.4220962649997091,78.487,,39.9532906,,-113.4760198,49.986,,39.9532906,,-113.4760198,-49.98807907104492,-3.739182233810425,72.56742095947266,unknown,MISSION,,,,,,ACTIVE,2.306150436401367,2.47,4.36,0.0,12,1,15,0,17760384,128,2
1733397475.8952065,0.0,True,-0.015774792060256004,0.0030756774358451366,1.0595260858535767,-1.0,51,15.3,0,2,False,,,,0,0,3,10,5.016912460327148,60,28.501,,39.9526379,,-113.4759758,False,0.5249474559968803,78.487,,39.9532923,,-113.4760157,49.986,,39.9532923,,-113.4760157,-49.98826217651367,-3.321722984313965,72.80524444580078,unknown,MISSION,,,,,,ACTIVE,1733397473.589056,2.47,4.36,0.0,12,1,15,0,17760384,128,2
1733397475.9959972,0.0,True,-0.01530903298407793,0.0031743342988193035,1.0599353313446045,-1.0,51,15.3,0,2,False,,,,0,0,3,10,5.017912864685059,60,28.501,,39.9526379,,-113.4759758,False,0.6268131329998141,78.487,,39.9532947,,-113.4760104,49.986,,39.9532947,,-113.4760104,-49.98846435546875,-2.9390745162963867,73.02300262451172,unknown,MISSION,,,,,,ACTIVE,2.4069411754608154,2.47,4.36,0.0,12,1,15,0,17760384,128,2
1733397476.0962012,0.0,True,-0.015790045261383057,0.0035940511152148247,1.0601156949996948,-1.0,51,15.3,0,2,False,,,,0,0,3,10,5.013777732849121,60,28.501,,39.9526379,,-113.4759758,False,0.7251259019976715,78.488,,39.9532964,,-113.4760064,49.986,,39.9532964,,-113.4760064,-49.98849868774414,-2.591435432434082,73.22069549560547,unknown,MISSION,,,,,,ACTIVE,1733397473.68926,2.47,4.36,0.0,12,1,15,0,17760384,128,2
1733397476.1956303,0.0,True,-0.016373544931411743,0.003911980893462896,1.0603721141815186,-1.0,51,15.3,0,2,False,,,,0,0,3,10,5.0080389976501465,60,28.501,,39.9526379,,-113.4759758,False,0.8223614239977906,78.488,,39.9532986,,-113.4760015,49.986,,39.9532986,,-113.4760015,-49.988555908203125,-2.1745166778564453,73.45748138427734,unknown,MISSION,,,,,,ACTIVE,2.5063703060150146,2.46,4.35,0.0,12,1,15,0,17760384,128,2
1733397476.2997215,0.0,True,-0.017459679394960403,0.004048832226544619,1.060675859451294,-1.0,51,15.3,0,2,False,,,,0,0,3,10,5.000778675079346,60,28.501,,39.9526379,,-113.4759758,False,0.9251109370015911,78.488,,39.9533003,,-113.4759974,49.986,,39.9533003,,-113.4759974,-49.9886474609375,-1.7580405473709106,73.69379425048828,unknown,MISSION,,,,,,ACTIVE,1733397473.7933512,2.45,4.35,0.0,12,1,15,0,17760384,128,2
1733397476.3963397,0.0,True,-0.019257260486483574,0.003927500918507576,1.0607212781906128,-1.0,51,15.3,0,2,False,,,,0,0,3,10,4.98783540725708,60,28.501,,39.9526379,,-113.4759758,False,0.006951333998586051,78.488,,39.9533026,,-113.4759921,49.987,,39.9533026,,-113.4759921,-49.98890686035156,-1.3767924308776855,73.9098892211914,unknown,MISSION,,,,,,ACTIVE,2.6029884815216064,2.45,4.34,0.0,12,1,15,0,17760384,128,2
1733397476.496524,0.0,True,-0.02113775722682476,0.004104358144104481,1.0607444047927856,-1.0,51,15.3,0,2,False,,,,0,0,3,10,4.984385967254639,60,28.501,,39.9526379,,-113.4759758,False,0.013614169998618308,78.488,,39.9533044,,-113.475988,49.987,,39.9533044,,-113.475988,-49.98935317993164,-1.0303709506988525,74.1059341430664,unknown,MISSION,,,,,,ACTIVE,1733397473.8935356,2.44,4.34,0.0,12,1,15,0,17760384,128,2
1733397476.6006887,0.0,True,-0.022100236266851425,0.00409894110634923,1.0614093542099,-1.0,51,15.3,0,2,False,,,,0,0,3,10,4.977938652038574,60,28.501,,39.9526379,,-113.4759758,False,0.11994572800176684,78.489,,39.9533065,,-113.4759832,49.988,,39.9533065,,-113.4759832,-49.98993682861328,-0.5800527930259705,74.36028289794922,unknown,MISSION,,,,,,ACTIVE,2.707153081893921,2.44,4.33,0.0,12,1,15,0,17760384,128,2
1733397476.6966364,0.0,True,-0.02307741716504097,0.0038211368955671787,1.0617146492004395,-1.0,51,15.3,0,2,False,,,,0,0,3,10,4.973438739776611,60,28.501,,39.9526379,,-113.4759758,False,0.21361429800163023,78.489,,39.9533083,,-113.4759791,49.988,,39.9533083,,-113.4759791,-49.99030303955078,-0.2684626579284668,74.53587341308594,unknown,MISSION,,,,,,ACTIVE,1733397473.9894834,2.43,4.33,0.0,12,1,15,0,17760384,128,2
1733397476.7968276,0.0,True,-0.02469218336045742,0.003746098605915904,1.0621105432510376,-1.0,51,15.3,0,2,False,,,,0,0,3,10,4.971802234649658,60,28.501,,39.9526379,,-113.4759758,False,0.3162190970033407,78.49,,39.9533105,,-113.4759738,49.989,,39.9533105,,-113.4759738,-49.990745544433594,0.18117882311344147,74.78872680664062,unknown,MISSION,,,,,,ACTIVE,2.8073441982269287,2.43,4.33,0.0,12,1,15,0,17760384,128,2
1733397476.8971395,0.0,True,-0.026034489274024963,0.0033858101814985275,1.0624734163284302,-1.0,51,15.3,0,2,False,,,,0,0,3,10,4.966032981872559,60,28.501,,39.9526379,,-113.4759758,False,0.4137441960046999,78.49,,39.9533123,,-113.4759698,49.989,,39.9533123,,-113.4759698,-49.99113082885742,0.5615213513374329,75.00176239013672,unknown,MISSION,,,,,,ACTIVE,1733397474.0897954,2.42,4.32,0.0,12,1,15,0,17760384,128,2
1733397477.0005107,0.0,True,-0.026495670899748802,0.00318535091355443,1.0627447366714478,-1.0,51,15.3,0,2,False,,,,0,0,3,10,4.960971355438232,60,28.501,,39.9526379,,-113.4759758,False,0.5204053109991946,78.491,,39.9533144,,-113.4759649,49.99,,39.9533144,,-113.4759649,-49.991783142089844,1.010705828666687,75.25285339355469,unknown,MISSION,,,,,,ACTIVE,2.910715341567993,2.42,4.32,0.0,12,1,15,0,17760384,128,2
1733397477.09751,0.0,True,-0.010663625784218311,0.0047382391057908535,1.0629652738571167,-1.0,51,15.3,0,2,False,,,,0,0,3,10,4.957324981689453,60,28.501,,39.9526379,,-113.4759758,False,0.6164066600031219,78.491,,39.9533161,,-113.4759609,49.99,,39.9533161,,-113.4759609,-49.992095947265625,1.286871075630188,75.40709686279297,unknown,MISSION,,,,,,ACTIVE,1733397474.1867948,2.41,4.32,0.0,12,1,15,0,17760384,128,2
1733397477.1975334,0.0,True,0.021697230637073517,0.003129384247586131,1.06298828125,-1.0,51,15.3,0,2,False,,,,0,0,3,10,4.94218635559082,60,28.501,,39.9526379,,-113.4759758,False,0.7155884700041497,78.491,,39.9533183,,-113.4759556,49.99,,39.9533183,,-113.4759556,-49.99231719970703,1.734362006187439,75.65672302246094,unknown,MISSION,,,,,,ACTIVE,3.0107386112213135,2.39,4.3,0.0,12,1,15,0,17760384,128,2
1733397477.2974725,0.0,True,0.05934745818376541,-0.002818967215716839,1.0631043910980225,-1.0,51,15.3,0,2,False,,,,0,0,3,10,4.889497756958008,60,28.501,,39.9526379,,-113.4759758,False,0.813881690002745,78.492,,39.9533201,,-113.4759516,49.99,,39.9533201,,-113.4759516,-49.992679595947266,2.143752098083496,75.88463592529297,unknown,MISSION,,,,,,ACTIVE,1733397474.2867339,2.37,4.25,0.0,12,1,15,0,17760384,128,2
1733397477.3977668,0.0,True,0.09920995682477951,-0.011379118077456951,1.0625953674316406,-1.0,51,15.3,0,2,False,,,,0,0,3,10,4.8013715744018555,60,28.501,,39.9526379,,-113.4759758,False,0.9154320739980903,78.492,,39.9533221,,-113.4759469,49.991,,39.9533221,,-113.4759469,-49.993282318115234,2.480025291442871,76.07234954833984,unknown,MISSION,,,,,,ACTIVE,3.1110329627990723,2.33,4.17,0.0,12,1,15,0,17760384,128,2
1733397477.5004575,0.0,True,0.12436623871326447,-0.015004104003310204,1.0620096921920776,-1.0,51,15.3,0,2,False,,,,0,0,3,10,4.6457390785217285,60,28.501,,39.9526379,,-113.4759758,False,0.002188427999499254,78.493,,39.9533242,,-113.4759418,49.992,,39.9533242,,-113.4759418,-49.994266510009766,2.9077186584472656,76.3122787475586,unknown,MISSION,,,,,,ACTIVE,1733397474.3894246,2.27,4.04,0.0,12,1,15,0,17760384,128,2
1733397477.5980327,0.0,True,0.13802747428417206,-0.012006883509457111,1.0617161989212036,-1.0,51,15.3,0,2,False,,,,0,0,3,10,4.514538288116455,60,28.501,,39.9526379,,-113.4759758,False,0.00405934700393118,78.494,,39.9533259,,-113.4759381,49.993,,39.9533259,,-113.4759381,-49.994834899902344,3.228358030319214,76.49317932128906,unknown,MISSION,,,,,,ACTIVE,3.2086081504821777,2.23,3.93,0.0,12,1,15,0,17760384,128,2
1733397477.6990108,0.0,True,0.1445174217224121,-0.006869450677186251,1.0615644454956055,-1.0,51,15.3,0,2,False,,,,0,0,3,10,4.514538288116455,60,28.501,,39.9526379,,-113.4759758,False,0.10689244500099448,78.494,,39.9533278,,-113.4759337,49.993,,39.9533278,,-113.4759337,-49.99510955810547,3.6034793853759766,76.70552062988281,unknown,MISSION,,,,,,ACTIVE,1733397474.4904027,2.16,3.8,0.0,12,1,15,0,17760384,128,2
1733397477.8013413,0.0,True,0.1486842930316925,-0.0018833510112017393,1.0617130994796753,-1.0,51,15.3,0,2,False,,,,0,0,3,10,4.263927936553955,60,28.501,,39.9526379,,-113.4759758,False,0.20849441199970897,78.494,,39.9533293,,-113.4759301,49.993,,39.9533293,,-113.4759301,-49.9950065612793,3.907776355743408,76.87800598144531,unknown,MISSION,,,,,,ACTIVE,3.310938596725464,2.1,3.69,0.0,12,1,15,0,17760384,128,2
1733397477.9014049,0.0,True,0.15144658088684082,0.0011634784750640392,1.062096118927002,-1.0,51,15.3,0,2,False,,,,0,0,3,10,4.211671352386475,60,28.501,,39.9526379,,-113.4759758,False,0.30694266500358935,78.494,,39.9533313,,-113.4759256,49.993,,39.9533313,,-113.4759256,-49.99480438232422,4.291494369506836,77.0951919555664,unknown,MISSION,,,,,,ACTIVE,1733397474.5904663,2.02,3.54,0.0,12,1,15,0,17760384,128,2
1733397478.0021212,0.0,True,0.15319658815860748,0.002718264702707529,1.0624843835830688,-1.0,51,15.3,0,2,False,,,,0,0,3,10,4.040511131286621,60,28.501,,39.9526379,,-113.4759758,False,0.40933202800079016,78.494,,39.9533327,,-113.4759223,49.993,,39.9533327,,-113.4759223,-49.99467849731445,4.605477809906006,77.27249908447266,unknown,MISSION,,,,,,ACTIVE,3.4116549491882324,1.95,3.43,0.0,12,1,15,0,17760384,128,2
1733397478.1016898,0.0,True,0.15495620667934418,0.003032319713383913,1.063491940498352,-1.0,51,15.3,0,2,False,,,,0,0,3,10,3.856060743331909,60,28.501,,39.9526379,,-113.4759758,False,0.5072293550038012,78.494,,39.9533344,,-113.4759183,49.992,,39.9533344,,-113.4759183,-49.99462890625,4.909822463989258,77.44361877441406,unknown,MISSION,,,,,,ACTIVE,1733397474.6900349,1.87,3.29,0.0,12,1,15,0,17760384,128,2
1733397478.2024055,0.0,True,0.15650472044944763,0.0031884389463812113,1.0642813444137573,-1.0,51,15.3,0,2,False,,,,0,0,3,10,3.7150888442993164,60,28.501,,39.9526379,,-113.4759758,False,0.608525098003156,78.493,,39.9533358,,-113.4759152,49.992,,39.9533358,,-113.4759152,-49.99446487426758,5.177982807159424,77.59368133544922,unknown,MISSION,,,,,,ACTIVE,3.5123705863952637,1.8,3.18,0.0,12,1,15,0,17760384,128,2
1733397478.303137,0.0,True,0.15839967131614685,0.0036884676665067673,1.0648962259292603,-1.0,51,15.3,0,2,False,,,,0,0,3,10,3.5607173442840576,60,28.501,,39.9526379,,-113.4759758,False,0.7108433399989735,78.493,,39.9533375,,-113.4759113,49.992,,39.9533375,,-113.4759113,-49.99420166015625,5.513790607452393,77.78107452392578,unknown,MISSION,,,,,,ACTIVE,1733397474.7907665,1.72,3.04,0.0,12,1,15,0,17760384,128,2
1733397478.4042428,0.0,True,0.15965576469898224,0.004488073289394379,1.0653355121612549,-1.0,51,15.3,0,2,False,,,,0,0,3,10,3.394334554672241,61,28.501,,39.9526379,,-113.4759758,False,0.8086096970000654,78.493,,39.9533387,,-113.4759084,49.992,,39.9533387,,-113.4759084,-49.993778228759766,5.761904239654541,77.91936492919922,unknown,MISSION,,,,,,ACTIVE,3.613476276397705,1.65,2.93,0.0,12,1,15,0,17760384,128,2
1733397478.5043738,0.0,True,0.1606258600950241,0.00550833810120821,1.0654300451278687,-1.0,51,15.3,0,2,False,,,,0,0,3,10,3.2406084537506104,61,28.501,,39.9526379,,-113.4759758,False,0.910703582005226,78.492,,39.9533401,,-113.475905,49.991,,39.9533401,,-113.475905,-49.9932746887207,6.048141002655029,78.07816314697266,unknown,MISSION,,,,,,ACTIVE,1733397474.8908975,1.57,2.8,0.0,12,1,15,0,17760384,128,2
1733397478.6044865,0.0,True,0.1596708595752716,0.0070451716892421246,1.0657844543457031,-1.0,51,15.3,0,2,False,,,,0,0,3,10,3.074995994567871,61,28.501,,39.9526379,,-113.4759758,False,1.008794866000244,78.492,,39.9533413,,-113.4759023,49.991,,39.9533413,,-113.4759023,-49.992916107177734,6.299288749694824,78.21685791015625,unknown,MISSION,,,,,,ACTIVE,3.7135889530181885,1.5,2.69,0.0,12,1,15,0,17760384,128,2
1733397478.7053142,0.0,True,0.1468018740415573,0.013403247110545635,1.0661123991012573,-1.0,51,15.3,0,2,False,,,,0,0,3,10,2.93145751953125,61,28.501,,39.9526379,,-113.4759758,False,0.002524112001992762,78.491,,39.9533427,,-113.475899,49.99,,39.9533427,,-113.475899,-49.99248504638672,6.561328887939453,78.360595703125,unknown,MISSION,,,,,,ACTIVE,1733397474.9917252,1.42,2.56,0.0,12,1,15,0,17760384,128,2
1733397478.806131,0.0,True,0.10985741019248962,0.015621300786733627,1.0655306577682495,-1.0,51,15.3,0,2,False,,,,0,0,3,10,2.93145751953125,61,28.501,,39.9526379,,-113.4759758,False,0.10247772900038399,78.491,,39.9533437,,-113.4758965,49.99,,39.9533437,,-113.4758965,-49.99203109741211,6.771039962768555,78.4745101928711,unknown,MISSION,,,,,,ACTIVE,3.814405679702759,1.36,2.48,0.0,12,1,15,0,17760384,128,2
1733397478.9055266,0.0,True,0.06862341612577438,0.008281819522380829,1.0652539730072021,-1.0,51,15.3,0,2,False,,,,0,0,3,10,2.747007369995117,61,28.501,,39.9526379,,-113.4759758,False,0.200000707001891,78.49,,39.9533449,,-113.4758937,49.989,,39.9533449,,-113.4758937,-49.99140548706055,7.0147600173950195,78.6053237915039,unknown,MISSION,,,,,,ACTIVE,1733397475.091121,1.3,2.41,0.01,12,1,15,0,17760384,128,2
1733397479.0097198,0.0,True,0.024835797026753426,-0.008447789587080479,1.0644168853759766,-1.0,51,15.3,0,2,False,,,,0,0,3,10,2.7275538444519043,61,28.501,,39.9526379,,-113.4759758,False,0.30273815499822376,78.49,,39.9533458,,-113.4758913,49.989,,39.9533458,,-113.4758913,-49.99085235595703,7.252490043640137,78.73220825195312,unknown,MISSION,,,,,,ACTIVE,3.9185988903045654,1.28,2.38,0.0,12,1,15,0,17760384,128,2
1733397479.1067262,0.0,True,0.01141531951725483,-0.01226399838924408,1.0637890100479126,-1.0,51,15.3,0,2,False,,,,0,0,3,10,2.693600654602051,60,28.501,,39.9526379,,-113.4759758,False,0.40025153000169666,78.489,,39.953347,,-113.4758883,49.988,,39.953347,,-113.4758883,-49.99040222167969,7.466896057128906,78.84733581542969,unknown,MISSION,,,,,,ACTIVE,1733397475.1881273,1.28,2.35,0.0,12,1,15,0,17760384,128,2
1733397479.2096515,0.0,True,0.007559547200798988,-0.009387602098286152,1.0624929666519165,-1.0,51,15.3,0,2,False,,,,0,0,3,10,2.68206524848938,60,28.501,,39.9526379,,-113.4759758,False,0.5072543040005257,78.489,,39.9533482,,-113.4758856,49.988,,39.9533482,,-113.4758856,-49.99004364013672,7.697882652282715,78.9722900390625,unknown,MISSION,,,,,,ACTIVE,4.02152419090271,1.28,2.34,0.0,12,1,15,0,17760384,128,2
1733397479.3060615,0.0,True,0.006703012622892857,-0.006578256841748953,1.0607211589813232,-1.0,51,15.3,0,2,False,,,,0,0,3,10,2.673583984375,60,28.501,,39.9526379,,-113.4759758,False,0.6002976149975439,78.489,,39.9533491,,-113.4758834,49.988,,39.9533491,,-113.4758834,-49.989925384521484,7.887918472290039,79.07527923583984,unknown,MISSION,,,,,,ACTIVE,1733397475.2845373,1.28,2.34,0.0,12,1,15,0,17760384,128,2
1733397479.406501,0.0,True,0.0013433807762339711,0.0075982180424034595,1.062976598739624,-1.0,51,15.3,0,3,False,,,,0,0,3,10,2.664188861846924,60,28.501,,39.9526379,,-113.4759758,False,0.703109260997735,78.489,,39.95335,,-113.4758812,49.988,,39.95335,,-113.4758812,-49.98980712890625,8.113058090209961,79.19742584228516,unknown,MISSION,,,,,,ACTIVE,4.121963739395142,1.28,2.33,0.0,12,1,15,0,17760384,128,2
1733397479.5064557,0.0,True,-0.005804108455777168,0.040094926953315735,1.0772589445114136,-1.0,51,15.3,0,3,False,,,,0,0,3,10,2.656367063522339,61,28.501,,39.9526379,,-113.4759758,False,0.8002267839983688,78.489,,39.9533512,,-113.4758784,49.987,,39.9533512,,-113.4758784,-49.989501953125,8.317597389221191,79.30713653564453,unknown,MISSION,,,,,,ACTIVE,1733397475.384492,1.25,2.33,0.0,12,1,15,0,17760384,128,2
1733397479.6075246,0.0,True,-0.0055021923035383224,0.08658715337514877,1.1176939010620117,-1.0,51,15.3,0,3,False,,,,0,0,3,10,2.6501846313476562,63,28.501,,39.9526379,,-113.4759758,False,0.9045876129966928,78.488,,39.953352,,-113.4758762,49.987,,39.953352,,-113.4758762,-49.989013671875,8.50329875946045,79.40341186523438,unknown,MISSION,,,,,,ACTIVE,4.223032712936401,1.21,2.35,0.0,12,1,15,0,17760384,128,2
1733397479.7090502,0.0,True,-0.0002479627728462219,0.12304847687482834,1.1779497861862183,-1.0,51,15.3,0,3,False,,,,0,0,3,10,2.637896776199341,67,28.501,,39.9526379,,-113.4759758,False,1.0044186070008436,78.487,,39.953353,,-113.4758736,49.986,,39.953353,,-113.4758736,-49.98821258544922,8.746274948120117,79.5207748413086,unknown,MISSION,,,,,,ACTIVE,1733397475.4860175,1.12,2.38,0.0,12,1,15,0,17760384,128,2
1733397479.810368,0.0,True,0.0023725428618490696,0.15150757133960724,1.253363847732544,-1.0,51,15.3,0,3,False,,,,0,0,3,10,2.6347761154174805,68,28.501,,39.9526379,,-113.4759758,False,0.08972614300000714,78.487,,39.953354,,-113.4758707,49.986,,39.953354,,-113.4758707,-49.987674713134766,8.972758293151855,79.61827850341797,unknown,MISSION,,,,,,ACTIVE,4.324350595474243,0.98,2.42,0.0,12,1,15,0,17760384,128,2
1733397479.9093165,0.0,True,-0.0018985879141837358,0.17858992516994476,1.3451570272445679,-1.0,51,15.3,0,3,False,,,,0,0,3,10,2.6161956787109375,72,28.501,,39.9526379,,-113.4759758,False,0.09275675900425995,78.486,,39.9533546,,-113.4758685,49.985,,39.9533546,,-113.4758685,-49.98740768432617,9.162917137145996,79.68978881835938,unknown,MISSION,,,,,,ACTIVE,1733397475.584966,0.85,2.44,0.0,12,1,15,0,17760384,128,2
1733397480.0103579,0.0,True,-0.013901927508413792,0.20545542240142822,1.441697120666504,-1.0,51,15.3,0,3,False,,,,0,0,3,10,2.5680646896362305,82,28.501,,39.9526379,,-113.4759758,False,0.19591769500402734,78.486,,39.9533553,,-113.4758658,49.985,,39.9533553,,-113.4758658,-49.98738479614258,9.392706871032715,79.76216125488281,unknown,MISSION,,,,,,ACTIVE,4.425391912460327,0.67,2.47,-0.01,12,1,15,0,17760384,128,2
1733397480.1107023,0.0,True,-0.035503141582012177,0.23040661215782166,1.5461020469665527,-1.0,51,15.3,0,3,False,,,,0,0,3,10,2.5583910942077637,84,28.501,,39.9526379,,-113.4759758,False,0.2927974100020947,78.487,,39.9533557,,-113.4758635,49.986,,39.9533557,,-113.4758635,-49.987998962402344,9.585684776306152,79.81002807617188,unknown,MISSION,,,,,,ACTIVE,1733397475.6853104,0.5,2.49,-0.01,12,1,15,0,17760384,128,2
1733397480.210677,0.0,True,-0.06219053640961647,0.23079365491867065,1.6461117267608643,-1.0,51,15.3,0,3,False,,,,0,0,3,10,2.542311906814575,90,28.501,,39.9526379,,-113.4759758,False,0.3954263940031524,78.488,,39.9533561,,-113.4758605,49.987,,39.9533561,,-113.4758605,-49.98887252807617,9.839012145996094,79.85293579101562,unknown,MISSION,,,,,,ACTIVE,4.525366544723511,0.25,2.52,-0.01,12,1,15,0,17760384,128,2
1733397480.3112926,0.0,True,-0.0899098664522171,0.20569920539855957,1.7490242719650269,-1.0,51,15.3,0,3,False,,,,0,0,3,10,2.552149534225464,98,28.501,,39.9526379,,-113.4759758,False,0.4972695920005208,78.488,,39.9533562,,-113.4758582,49.987,,39.9533562,,-113.4758582,-49.98890686035156,10.03611946105957,79.8707504272461,unknown,MISSION,,,,,,ACTIVE,1733397475.785926,0.08,2.55,0.0,12,1,15,0,17760384,128,2
1733397480.41105,0.0,True,-0.11969418078660965,0.16850771009922028,1.8394815921783447,-1.0,51,15.3,0,3,False,,,,0,0,3,10,2.585792064666748,103,28.501,,39.9526379,,-113.4759758,False,0.5954104100019322,78.488,,39.9533563,,-113.4758554,49.986,,39.9533563,,-113.4758554,-49.988555908203125,10.276167869567871,79.8765640258789,unknown,MISSION,,,,,,ACTIVE,4.625123977661133,-0.1,2.6,0.0,12,1,15,0,17760384,128,2
1733397480.511627,0.0,True,-0.1557251214981079,0.13494524359703064,1.9054839611053467,-1.0,51,15.3,0,3,False,,,,0,0,3,10,2.655428647994995,108,28.501,,39.9526379,,-113.4759758,False,0.6974791239990736,78.488,,39.9533562,,-113.475853,49.986,,39.9533562,,-113.475853,-49.98854446411133,10.480228424072266,79.86937713623047,unknown,MISSION,,,,,,ACTIVE,1733397475.886503,-0.25,2.65,0.0,12,1,15,0,17760384,128,2
1733397480.6111255,0.0,True,-0.19731943309307098,0.10525041073560715,1.9587520360946655,-1.0,51,15.3,0,3,False,,,,0,0,3,10,2.785247802734375,112,28.501,,39.9526379,,-113.4759758,False,0.7962725620018318,78.488,,39.9533561,,-113.4758505,49.987,,39.9533561,,-113.4758505,-49.98918914794922,10.711771011352539,79.84953308105469,unknown,MISSION,,,,,,ACTIVE,4.724622488021851,-0.38,2.74,-0.01,12,1,15,0,17760384,128,2
1733397480.713814,0.0,True,-0.23156553506851196,0.08803510665893555,1.9863896369934082,-1.0,51,15.3,0,3,False,,,,0,0,3,10,2.947817325592041,113,28.501,,39.9526379,,-113.4759758,False,0.8988951670035021,78.49,,39.9533557,,-113.4758472,49.988,,39.9533557,,-113.4758472,-49.990501403808594,10.9756498336792,79.81424713134766,unknown,MISSION,,,,,,ACTIVE,1733397475.9891915,-0.55,2.89,-0.01,12,1,15,0,17760384,128,2
1733397480.815021,0.0,True,-0.25896525382995605,0.06762976944446564,1.9921728372573853,-1.0,51,15.3,0,3,False,,,,0,0,3,10,2.947817325592041,113,28.501,,39.9526379,,-113.4759758,False,1.000996260001557,78.491,,39.9533554,,-113.4758445,49.989,,39.9533554,,-113.4758445,-49.991634368896484,11.206283569335938,79.77326202392578,unknown,MISSION,,,,,,ACTIVE,4.82582950592041,-0.68,3.03,-0.01,12,1,15,0,17760384,128,2
1733397480.9135854,0.0,True,-0.2734836935997009,0.04669756069779396,1.981425404548645,-1.0,51,15.3,0,3,False,,,,0,0,3,10,3.1997687816619873,114,28.501,,39.9526379,,-113.4759758,False,0.07088362699869322,78.492,,39.9533548,,-113.4758411,49.99,,39.9533548,,-113.4758411,-49.992610931396484,11.497905731201172,79.71022033691406,unknown,MISSION,,,,,,ACTIVE,1733397476.087756,-0.83,3.22,-0.01,12,1,15,0,17760384,128,2
1733397481.0155423,0.0,True,-0.28804486989974976,0.017941337078809738,1.9538480043411255,-1.0,51,15.3,0,3,False,,,,0,0,3,10,3.40824556350708,113,28.501,,39.9526379,,-113.4759758,False,0.08032931100024143,78.492,,39.9533542,,-113.475838,49.991,,39.9533542,,-113.475838,-49.99300765991211,11.807596206665039,79.6334457397461,unknown,MISSION,,,,,,ACTIVE,4.927786350250244,-0.94,3.4,0.0,12,1,15,0,17760384,128,2
1733397481.1186512,0.0,True,-0.3009719252586365,-0.008707232773303986,1.9194459915161133,-1.0,51,15.3,0,3,False,,,,0,0,3,10,3.6531407833099365,111,28.501,,39.9526379,,-113.4759758,False,0.18370791399502195,78.492,,39.9533534,,-113.4758339,49.991,,39.9533534,,-113.4758339,-49.99296951293945,12.10916519165039,79.55294036865234,unknown,MISSION,,,,,,ACTIVE,1733397476.1908648,-1.05,3.65,0.0,12,1,15,0,17760384,128,2
1733397481.2160308,0.0,True,-0.29990851879119873,-0.029259558767080307,1.8830633163452148,-1.0,51,15.3,0,3,False,,,,0,0,3,10,3.914078950881958,109,28.501,,39.9526379,,-113.4759758,False,0.2803324229971622,78.492,,39.9533527,,-113.4758305,49.991,,39.9533527,,-113.4758305,-49.99271011352539,12.399553298950195,79.47306823730469,unknown,MISSION,,,,,,ACTIVE,5.025166034698486,-1.11,3.86,0.0,12,1,15,0,17760384,128,2
1733397481.3169122,0.0,True,-0.27699118852615356,-0.041590239852666855,1.8442250490188599,-1.0,51,15.3,0,3,False,,,,0,0,3,10,4.19361686706543,106,28.501,,39.9526379,,-113.4759758,False,0.3821233909984585,78.49,,39.9533517,,-113.4758261,49.989,,39.9533517,,-113.4758261,-49.99140930175781,12.769137382507324,79.37091064453125,unknown,MISSION,,,,,,ACTIVE,1733397476.2917461,-1.15,4.11,0.01,12,1,15,0,17760384,128,2
1733397481.4158592,0.0,True,-0.24676170945167542,-0.03999339044094086,1.8108131885528564,-1.0,51,15.3,0,3,False,,,,0,0,3,10,4.462057590484619,104,28.501,,39.9526379,,-113.4759758,False,0.48059998199460097,78.489,,39.953351,,-113.4758223,49.987,,39.953351,,-113.4758223,-49.989097595214844,13.160208702087402,79.26411437988281,unknown,MISSION,,,,,,ACTIVE,5.124113082885742,-1.17,4.3,0.02,12,1,15,0,17760384,128,2
1733397481.5161638,0.0,True,-0.21283692121505737,-0.03208822011947632,1.7814745903015137,-1.0,51,15.3,0,3,False,,,,0,0,3,10,4.639619827270508,102,28.501,,39.9526379,,-113.4759758,False,0.5823852109970176,78.486,,39.9533499,,-113.4758172,49.984,,39.9533499,,-113.4758172,-49.986568450927734,13.534996032714844,79.16324615478516,unknown,MISSION,,,,,,ACTIVE,1733397476.3920507,-1.18,4.51,0.02,12,1,15,0,17760384,128,2
1733397481.6159327,0.0,True,-0.18048059940338135,-0.024658191949129105,1.7600985765457153,-1.0,51,15.3,0,3,False,,,,0,0,3,10,4.798701763153076,101,28.501,,39.9526379,,-113.4759758,False,0.680364636995364,78.483,,39.953349,,-113.475813,49.982,,39.953349,,-113.475813,-49.98446273803711,13.888158798217773,79.06962585449219,unknown,MISSION,,,,,,ACTIVE,5.223881959915161,-1.18,4.64,0.02,12,1,15,0,17760384,128,2
1733397481.7172132,0.0,True,-0.14675037562847137,-0.020632149651646614,1.7437243461608887,-1.0,51,15.3,0,3,False,,,,0,0,3,10,4.932887554168701,99,28.501,,39.9526379,,-113.4759758,False,0.7824954109964892,78.481,,39.953348,,-113.4758079,49.98,,39.953348,,-113.4758079,-49.98196029663086,14.362340927124023,78.9455795288086,unknown,MISSION,,,,,,ACTIVE,1733397476.4933312,-1.19,4.77,0.02,12,1,15,0,17760384,128,2
1733397481.8160965,0.0,True,-0.11390221863985062,-0.020151453092694283,1.7340704202651978,-1.0,51,15.3,0,3,False,,,,0,0,3,10,4.932887554168701,99,28.501,,39.9526379,,-113.4759758,False,0.8806304209938389,78.479,,39.9533471,,-113.4758035,49.978,,39.9533471,,-113.4758035,-49.98038864135742,14.699372291564941,78.85836791992188,unknown,MISSION,,,,,,ACTIVE,5.322765350341797,-1.19,4.86,0.01,12,1,15,0,17760384,128,2
1733397481.9163756,0.0,True,-0.07877498865127563,-0.020573804154992104,1.728830337524414,-1.0,51,15.3,0,3,False,,,,0,0,3,10,5.024759769439697,99,28.501,,39.9526379,,-113.4759758,False,0.9822882899970864,78.478,,39.953346,,-113.4757977,49.976,,39.953346,,-113.4757977,-49.97853469848633,15.196955680847168,78.73171997070312,unknown,MISSION,,,,,,ACTIVE,1733397476.5936103,-1.18,4.93,0.01,12,1,15,0,17760384,128,2
1733397482.0169413,0.0,True,-0.04643998667597771,-0.020751353353261948,1.7273461818695068,-1.0,51,15.3,0,3,False,,,,0,0,3,10,5.096535682678223,98,28.501,,39.9526379,,-113.4759758,False,0.062494943995261565,78.476,,39.9533451,,-113.4757931,49.975,,39.9533451,,-113.4757931,-49.97724533081055,15.625850677490234,78.62478637695312,unknown,MISSION,,,,,,ACTIVE,5.423331022262573,-1.17,4.97,0.0,12,1,15,0,17760384,128,2
1733397482.1167338,0.0,True,-0.02669242024421692,-0.020950661972165108,1.7292616367340088,-1.0,51,15.3,0,3,False,,,,0,0,3,10,5.11462926864624,98,28.501,,39.9526379,,-113.4759758,False,0.0698849269974744,78.475,,39.9533441,,-113.4757875,49.974,,39.9533441,,-113.4757875,-49.97638702392578,16.059537887573242,78.5191879272461,unknown,MISSION,,,,,,ACTIVE,1733397476.6934028,-1.15,4.98,0.0,12,1,15,0,17760384,128,2
1733397482.2210727,0.0,True,-0.01997649110853672,-0.022609753534197807,1.7331585884094238,-1.0,51,15.3,0,3,False,,,,0,0,3,10,5.118243217468262,99,28.501,,39.9526379,,-113.4759758,False,0.17245573500258615,78.475,,39.953343,,-113.4757815,49.974,,39.953343,,-113.4757815,-49.97595977783203,16.576370239257812,78.39602661132812,unknown,MISSION,,,,,,ACTIVE,5.527669906616211,-1.12,4.99,0.0,12,1,15,0,17760384,128,2
1733397482.3212833,0.0,True,-0.017369793727993965,-0.024486789479851723,1.738180160522461,-1.0,51,15.3,0,3,False,,,,0,0,3,10,5.116820335388184,99,28.501,,39.9526379,,-113.4759758,False,0.2743215200025588,78.475,,39.9533421,,-113.4757768,49.974,,39.9533421,,-113.4757768,-49.97592544555664,16.97706413269043,78.30265808105469,unknown,MISSION,,,,,,ACTIVE,1733397476.7936134,-1.1,4.99,0.0,12,1,15,0,17760384,128,2
1733397482.421394,0.0,True,-0.015586696565151215,-0.025423608720302582,1.7436165809631348,-1.0,51,15.3,0,3,False,,,,0,0,3,10,5.116957664489746,99,28.501,,39.9526379,,-113.4759758,False,0.37254860500252107,78.475,,39.9533412,,-113.4757711,49.974,,39.9533412,,-113.4757711,-49.97603225708008,17.461225509643555,78.19290924072266,unknown,MISSION,,,,,,ACTIVE,5.6277806758880615,-1.07,5.0,0.0,12,1,15,0,17760384,128,2
1733397482.5215182,0.0,True,-0.012560629285871983,-0.024732232093811035,1.7491040229797363,-1.0,51,15.3,0,3,False,,,,0,0,3,10,5.117705821990967,100,28.501,,39.9526379,,-113.4759758,False,0.47416541800339473,78.475,,39.9533404,,-113.4757663,49.974,,39.9533404,,-113.4757663,-49.97613525390625,17.86727523803711,78.10343933105469,unknown,MISSION,,,,,,ACTIVE,1733397476.8937376,-1.05,5.0,0.0,12,1,15,0,17760384,128,2
1733397482.6231663,0.0,True,-0.008780981414020061,-0.023465052247047424,1.754037857055664,-1.0,51,15.3,0,3,False,,,,0,0,3,10,5.115751266479492,100,28.501,,39.9526379,,-113.4759758,False,0.5764061549998587,78.475,,39.9533393,,-113.4757601,49.974,,39.9533393,,-113.4757601,-49.976112365722656,18.398160934448242,77.989501953125,unknown,MISSION,,,,,,ACTIVE,5.729428768157959,-1.03,5.0,0.0,12,1,15,0,17760384,128,2
1733397482.7232356,0.0,True,-0.005833187140524387,-0.021854078397154808,1.7585028409957886,-1.0,51,15.3,0,3,False,,,,0,0,3,10,5.111392021179199,100,28.501,,39.9526379,,-113.4759758,False,0.6743553300038911,78.475,,39.9533386,,-113.4757553,49.974,,39.9533386,,-113.4757553,-49.9759407043457,18.807886123657227,77.90371704101562,unknown,MISSION,,,,,,ACTIVE,1733397476.9938068,-1.01,5.01,0.0,12,1,15,0,17760384,128,2
1733397482.8242617,0.0,True,-0.003027535043656826,-0.019768672063946724,1.7618892192840576,-1.0,51,15.3,0,3,False,,,,0,0,3,10,5.101817607879639,100,28.501,,39.9526379,,-113.4759758,False,0.7777939840016188,78.475,,39.9533376,,-113.4757495,49.974,,39.9533376,,-113.4757495,-49.9757080078125,19.34134292602539,77.794677734375,unknown,MISSION,,,,,,ACTIVE,5.8304548263549805,-0.98,5.0,-0.01,12,1,15,0,17760384,128,2
1733397482.927664,0.0,True,0.00022259261459112167,-0.016552066430449486,1.7647491693496704,-1.0,51,15.3,0,3,False,,,,0,0,3,10,5.101817607879639,100,28.501,,39.9526379,,-113.4759758,False,0.8792793109969352,78.475,,39.9533369,,-113.4757447,49.973,,39.9533369,,-113.4757447,-49.97557067871094,19.710859298706055,77.72083282470703,unknown,MISSION,,,,,,ACTIVE,1733397477.0972092,-0.96,5.0,0.0,12,1,15,0,17760384,128,2
1733397483.024545,0.0,True,0.002466923324391246,-0.014331179670989513,1.766287088394165,-1.0,51,15.3,0,3,False,,,,0,0,3,10,5.09242582321167,101,28.501,,39.9526379,,-113.4759758,False,0.977083104000485,78.474,,39.953336,,-113.4757384,49.973,,39.953336,,-113.4757384,-49.97544479370117,20.24441146850586,77.61640167236328,unknown,MISSION,,,,,,ACTIVE,5.927335739135742,-0.94,4.99,-0.01,12,1,15,0,17760384,128,2
1733397483.1261148,0.0,True,0.003915488254278898,-0.011611697264015675,1.7673561573028564,-1.0,51,15.3,0,3,False,,,,0,0,3,10,5.073526859283447,101,28.501,,39.9526379,,-113.4759758,False,0.06294923699897481,78.474,,39.9533353,,-113.4757336,49.973,,39.9533353,,-113.4757336,-49.97542190551758,20.695234298706055,77.53047180175781,unknown,MISSION,,,,,,ACTIVE,1733397477.198779,-0.93,4.98,-0.01,12,1,15,0,17760384,128,2
1733397483.2269733,0.0,True,0.00523332180455327,-0.009161507710814476,1.7677007913589478,-1.0,51,15.3,0,3,False,,,,0,0,3,10,5.060101509094238,101,28.501,,39.9526379,,-113.4759758,False,0.07110740499774693,78.474,,39.9533344,,-113.4757279,49.973,,39.9533344,,-113.4757279,-49.97531509399414,21.144922256469727,77.44624328613281,unknown,MISSION,,,,,,ACTIVE,6.028194189071655,-0.91,4.96,-0.01,12,1,15,0,17760384,128,2
1733397483.328664,0.0,True,0.005527222994714975,-0.006811435334384441,1.7674503326416016,-1.0,51,15.3,0,3,False,,,,0,0,3,10,5.038300037384033,101,28.501,,39.9526379,,-113.4759758,False,0.16921357499813894,78.474,,39.9533338,,-113.4757231,49.973,,39.9533338,,-113.4757231,-49.97529220581055,21.55245018005371,77.37096405029297,unknown,MISSION,,,,,,ACTIVE,1733397477.3004699,-0.9,4.94,-0.01,12,1,15,0,17760384,128,2
1733397483.4261212,0.0,True,0.005776118487119675,-0.004510554019361734,1.7672384977340698,-1.0,51,15.3,0,3,False,,,,0,0,3,10,5.019186019897461,101,28.501,,39.9526379,,-113.4759758,False,0.2667758999959915,78.474,,39.9533329,,-113.4757169,49.973,,39.9533329,,-113.4757169,-49.975425720214844,22.080440521240234,77.27461242675781,unknown,MISSION,,,,,,ACTIVE,6.1256513595581055,-0.89,4.93,-0.01,12,1,15,0,17760384,128,2
1733397483.5264485,0.0,True,0.0057646422646939754,-0.002669262234121561,1.7664768695831299,-1.0,51,15.3,0,3,False,,,,0,0,3,10,4.998426914215088,101,28.501,,39.9526379,,-113.4759758,False,0.3694990090007195,78.475,,39.9533322,,-113.4757122,49.974,,39.9533322,,-113.4757122,-49.975807189941406,22.56568717956543,77.18706512451172,unknown,MISSION,,,,,,ACTIVE,1733397477.4007971,-0.88,4.91,-0.01,12,1,15,0,17760384,128,2
1733397483.6297162,0.0,True,0.005630786065012217,-0.00040399108547717333,1.7654470205307007,-1.0,51,15.3,0,3,False,,,,0,0,3,10,4.97743034362793,101,28.501,,39.9526379,,-113.4759758,False,0.4709166219981853,78.475,,39.9533315,,-113.4757065,49.974,,39.9533315,,-113.4757065,-49.976295471191406,22.96847152709961,77.1152114868164,unknown,MISSION,,,,,,ACTIVE,6.22891902923584,-0.88,4.89,-0.01,12,1,15,0,17760384,128,2
1733397483.7262933,0.0,True,0.00520726665854454,0.001708903699181974,1.7647236585617065,-1.0,51,15.3,0,3,False,,,,0,0,3,10,4.959739685058594,101,28.501,,39.9526379,,-113.4759758,False,0.5691963509962079,78.476,,39.9533308,,-113.4757018,49.975,,39.9533308,,-113.4757018,-49.97694778442383,23.409944534301758,77.03728485107422,unknown,MISSION,,,,,,ACTIVE,1733397477.4973743,-0.87,4.88,-0.01,12,1,15,0,17760384,128,2
1733397483.826464,0.0,True,0.004204375669360161,0.0035144316498190165,1.763769507408142,-1.0,51,15.3,0,3,False,,,,0,0,3,10,4.959739685058594,101,28.501,,39.9526379,,-113.4759758,False,0.6673006679993705,78.476,,39.9533302,,-113.4756971,49.975,,39.9533302,,-113.4756971,-49.97743606567383,23.769737243652344,76.97425079345703,unknown,MISSION,,,,,,ACTIVE,6.329089641571045,-0.87,4.86,-0.01,12,1,15,0,17760384,128,2
1733397483.9274645,0.0,True,0.002560136839747429,0.0054662758484482765,1.7631880044937134,-1.0,51,15.3,0,3,False,,,,0,0,3,10,4.925058841705322,101,28.501,,39.9526379,,-113.4759758,False,0.768961087000207,78.477,,39.9533294,,-113.475691,49.976,,39.9533294,,-113.475691,-49.978355407714844,24.28676414489746,76.88367462158203,unknown,MISSION,,,,,,ACTIVE,1733397477.5983748,-0.86,4.84,-0.01,12,1,15,0,17760384,128,2
1733397484.0277913,0.0,True,0.0004986068233847618,0.006457910872995853,1.762480616569519,-1.0,51,15.3,0,3,False,,,,0,0,3,10,4.917848110198975,101,28.501,,39.9526379,,-113.4759758,False,0.8715870569940307,78.478,,39.9533288,,-113.4756864,49.977,,39.9533288,,-113.4756864,-49.9794807434082,24.72160530090332,76.8074722290039,unknown,MISSION,,,,,,ACTIVE,6.4294164180755615,-0.86,4.82,-0.01,12,1,15,0,17760384,128,2
1733397484.1291118,0.0,True,-0.0016985913971439004,0.007454332895576954,1.762474775314331,-1.0,51,15.3,0,3,False,,,,0,0,3,10,4.8979411125183105,100,28.501,,39.9526379,,-113.4759758,False,0.9720418090000749,78.48,,39.953328,,-113.4756808,49.978,,39.953328,,-113.4756808,-49.980628967285156,25.154157638549805,76.73143005371094,unknown,MISSION,,,,,,ACTIVE,1733397477.6996953,-0.86,4.8,-0.01,12,1,15,0,17760384,128,2
1733397484.2291873,0.0,True,-0.004586885217577219,0.008191972970962524,1.762569546699524,-1.0,51,15.3,0,3,False,,,,0,0,3,10,4.87391996383667,100,28.501,,39.9526379,,-113.4759758,False,0.03639054000086617,78.481,,39.9533274,,-113.4756763,49.979,,39.9533274,,-113.4756763,-49.98151779174805,25.545320510864258,76.66246032714844,unknown,MISSION,,,,,,ACTIVE,6.529491901397705,-0.87,4.79,-0.01,12,1,15,0,17760384,128,2
1733397484.3297365,0.0,True,-0.007614218629896641,0.008825033903121948,1.7627652883529663,-1.0,51,15.3,0,3,False,,,,0,0,3,10,4.861403942108154,100,28.501,,39.9526379,,-113.4759758,False,0.04732407299889019,78.481,,39.9533266,,-113.4756703,49.98,,39.9533266,,-113.4756703,-49.98241424560547,26.05122947692871,76.57279968261719,unknown,MISSION,,,,,,ACTIVE,1733397477.8002446,-0.87,4.77,-0.01,12,1,15,0,17760384,128,2
1733397484.4298372,0.0,True,-0.00995421502739191,0.009531072340905666,1.7626878023147583,-1.0,51,15.3,0,3,False,,,,0,0,3,10,4.847471237182617,100,28.501,,39.9526379,,-113.4759758,False,0.14663703800033545,78.482,,39.953326,,-113.4756658,49.981,,39.953326,,-113.4756658,-49.983211517333984,26.516071319580078,76.489990234375,unknown,MISSION,,,,,,ACTIVE,6.629592657089233,-0.87,4.76,0.0,12,1,15,0,17760384,128,2
1733397484.53046,0.0,True,-0.013199910521507263,0.010316664353013039,1.7629948854446411,-1.0,51,15.3,0,3,False,,,,0,0,3,10,4.835257053375244,101,28.501,,39.9526379,,-113.4759758,False,0.24715805199957686,78.483,,39.9533252,,-113.4756603,49.982,,39.9533252,,-113.4756603,-49.983909606933594,26.902210235595703,76.42086029052734,unknown,MISSION,,,,,,ACTIVE,1733397477.9008672,-0.88,4.75,0.0,12,1,15,0,17760384,128,2
1733397484.6327167,0.0,True,-0.01562761329114437,0.010581842623651028,1.7631222009658813,-1.0,51,15.3,0,3,False,,,,0,0,3,10,4.827633380889893,101,28.501,,39.9526379,,-113.4759758,False,0.34973683999851346,78.484,,39.9533246,,-113.4756558,49.982,,39.9533246,,-113.4756558,-49.9846305847168,27.32568359375,76.3445053100586,unknown,MISSION,,,,,,ACTIVE,6.731849431991577,-0.88,4.74,0.0,12,1,15,0,17760384,128,2
1733397484.731133,0.0,True,-0.017972324043512344,0.010519335977733135,1.763393759727478,-1.0,51,15.3,0,3,False,,,,0,0,3,10,4.820024013519287,101,28.501,,39.9526379,,-113.4759758,False,0.4485859199994593,78.484,,39.9533238,,-113.47565,49.983,,39.9533238,,-113.47565,-49.98543167114258,27.786012649536133,76.26078796386719,unknown,MISSION,,,,,,ACTIVE,1733397477.9992836,-0.89,4.73,0.0,12,1,15,0,17760384,128,2
1733397484.8340929,0.0,True,-0.021103912964463234,0.010752737522125244,1.7635804414749146,-1.0,51,15.3,0,3,False,,,,0,0,3,10,4.81997537612915,101,28.501,,39.9526379,,-113.4759758,False,0.5499040799986687,78.485,,39.9533231,,-113.4756455,49.984,,39.9533231,,-113.4756455,-49.9861946105957,28.168319702148438,76.1905288696289,unknown,MISSION,,,,,,ACTIVE,6.834809303283691,-0.89,4.73,0.0,12,1,15,0,17760384,128,2
1733397484.934226,0.0,True,-0.02354794554412365,0.010925743728876114,1.763612151145935,-1.0,51,15.3,0,3,False,,,,0,0,3,10,4.816814422607422,101,28.501,,39.9526379,,-113.4759758,False,0.6518330729959416,78.486,,39.9533224,,-113.4756401,49.985,,39.9533224,,-113.4756401,-49.987003326416016,28.625957489013672,76.10552978515625,unknown,MISSION,,,,,,ACTIVE,1733397478.0994167,-0.9,4.72,0.0,12,1,15,0,17760384,128,2
1733397485.0348835,0.0,True,-0.025809461250901222,0.010704994201660156,1.764007329940796,-1.0,51,15.3,0,3,False,,,,0,0,3,10,4.817699432373047,101,28.501,,39.9526379,,-113.4759758,False,0.7498315429984359,78.487,,39.9533217,,-113.4756357,49.986,,39.9533217,,-113.4756357,-49.98779296875,29.08265495300293,76.01966857910156,unknown,MISSION,,,,,,ACTIVE,6.935466766357422,-0.91,4.72,0.0,12,1,15,0,17760384,128,2
1733397485.1344998,0.0,True,-0.027883514761924744,0.010024797171354294,1.7641186714172363,-1.0,51,15.3,0,3,False,,,,0,0,3,10,4.819223403930664,101,28.501,,39.9526379,,-113.4759758,False,0.8516950749981334,78.487,,39.9533209,,-113.4756299,49.986,,39.9533209,,-113.4756299,-49.988460540771484,29.500743865966797,75.94015502929688,unknown,MISSION,,,,,,ACTIVE,1733397478.199033,-0.92,4.73,0.0,12,1,15,0,17760384,128,2
1733397485.2398722,0.0,True,-0.030106196179986,0.009842394851148129,1.7642921209335327,-1.0,51,15.3,0,3,False,,,,0,0,3,10,4.821340084075928,101,28.501,,39.9526379,,-113.4759758,False,0.9578716079995502,78.488,,39.9533201,,-113.4756245,49.987,,39.9533201,,-113.4756245,-49.98894119262695,29.956403732299805,75.85296630859375,unknown,MISSION,,,,,,ACTIVE,7.040839195251465,-0.92,4.73,0.0,12,1,15,0,17760384,128,2
1733397485.339338,0.0,True,-0.03196563571691513,0.009719337336719036,1.764399528503418,-1.0,51,15.3,0,3,False,,,,0,0,3,10,4.829102039337158,101,28.501,,39.9526379,,-113.4759758,False,0.03548457400029292,78.488,,39.9533195,,-113.4756201,49.987,,39.9533195,,-113.4756201,-49.98912811279297,30.33594512939453,75.77970123291016,unknown,MISSION,,,,,,ACTIVE,1733397478.2984989,-0.93,4.73,0.0,12,1,15,0,17760384,128,2
