timestamp,airspeed,armed,attitude.pitch,attitude.roll,attitude.yaw,battery.current,battery.level,battery.voltage,commands.count,commands.next,ekf_ok,gimbal.pitch,gimbal.roll,gimbal.yaw,gps_0.eph,gps_0.epv,gps_0.fix_type,gps_0.satellites_visible,groundspeed,heading,home_location.alt,home_location.global_frame,home_location.lat,home_location.local_frame,home_location.lon,is_armable,last_heartbeat,location.global_frame.alt,location.global_frame.global_frame,location.global_frame.lat,location.global_frame.local_frame,location.global_frame.lon,location.global_relative_frame.alt,location.global_relative_frame.global_frame,location.global_relative_frame.lat,location.global_relative_frame.local_frame,location.global_relative_frame.lon,location.local_frame.down,location.local_frame.east,location.local_frame.north,ml_verdict,mode.name,mount_status[0],mount_status[1],mount_status[2],rangefinder.distance,rangefinder.voltage,system_status.state,timedelta,velocity[0],velocity[1],velocity[2],version.autopilot_type,version.major,version.minor,version.patch,version.raw_version,version.release,version.vehicle_type
1733102572.9875698,0.0,False,-0.001176975667476654,-0.002585048321634531,0.15624186396598816,-1.0,100,16.2,0,0,False,,,,0,0,3,10,0.028674498200416565,8,28.512,,39.9526378,,-113.475976,False,0.5619999999762513,28.494,,39.952638,,-113.475976,-0.017,,39.952638,,-113.475976,0.014433874748647213,-0.025216439738869667,0.01453668624162674,unknown,LOITER,,,,,,STANDBY,0,0.01,-0.02,0.0,12,1,15,2,17760768,0,2
1733102574.0018651,0.0,False,-0.0005127076292410493,-0.0023832046426832676,0.15671661496162415,-1.0,100,16.2,0,0,False,,,,0,0,3,10,0.027052689343690872,8,28.512,,39.9526378,,-113.475976,False,0.4529999999795109,28.496,,39.952638,,-113.4759761,-0.015,,39.952638,,-113.4759761,0.012381375767290592,-0.029441053047776222,0.013891445472836494,unknown,LOITER,,,,,,STANDBY,1733102574.0018651,0.0,-0.02,0.0,12,1,15,2,17760768,0,2
1733102574.105866,0.0,False,-0.00046027053031139076,-0.0022499596234411,0.1567803919315338,-1.0,100,16.2,0,0,False,,,,0,0,3,10,0.026976728811860085,8,28.512,,39.9526378,,-113.475976,False,0.5459999999729916,28.497,,39.952638,,-113.4759761,-0.014,,39.952638,,-113.4759761,0.012204269878566265,-0.029934847727417946,0.013727848418056965,unknown,LOITER,,,,,,STANDBY,0.10400080680847168,0.0,-0.02,0.0,12,1,15,2,17760768,0,2
1733102574.214867,0.0,False,-0.0006573137943632901,-0.002182196592912078,0.15679626166820526,-1.0,100,16.2,0,0,False,,,,0,0,3,10,0.02637302502989769,8,28.512,,39.9526378,,-113.475976,False,0.6709999999729916,28.497,,39.952638,,-113.4759761,-0.014,,39.952638,,-113.4759761,0.011947843246161938,-0.030513884499669075,0.013106509111821651,unknown,LOITER,,,,,,STANDBY,1733102574.1108663,0.0,-0.02,0.0,12,1,15,2,17760768,0,2
1733102574.323865,0.0,False,-0.000748295511584729,-0.0019579625222831964,0.1569192111492157,-1.0,100,16.2,0,0,False,,,,0,0,3,10,0.025678524747490883,8,28.512,,39.9526378,,-113.475976,False,0.7650000000139698,28.497,,39.952638,,-113.4759761,-0.014,,39.952638,,-113.4759761,0.011836934834718704,-0.031239556148648262,0.012519407086074352,unknown,LOITER,,,,,,STANDBY,0.212998628616333,0.0,-0.02,0.0,12,1,15,2,17760768,0,2
1733102574.4298654,0.0,False,-0.0006891367956995964,-0.0019467800157144666,0.156841441988945,-1.0,100,16.2,0,0,False,,,,0,0,3,10,0.025678524747490883,8,28.512,,39.9526378,,-113.475976,False,0.875,28.497,,39.952638,,-113.4759761,-0.014,,39.952638,,-113.4759761,0.01166881900280714,-0.03199875354766846,0.011790746822953224,unknown,LOITER,,,,,,STANDBY,1733102574.2168667,0.0,-0.02,0.0,12,1,15,2,17760768,0,2
1733102574.5388787,0.0,False,-0.0007194493664428592,-0.0019874735735356808,0.15707789361476898,-1.0,100,16.2,0,0,False,,,,0,0,3,10,0.02597499080002308,8,28.512,,39.9526378,,-113.475976,False,0.9839999999967404,28.497,,39.952638,,-113.4759761,-0.014,,39.952638,,-113.4759761,0.011380250565707684,-0.032693348824977875,0.011162202805280685,unknown,LOITER,,,,,,STANDBY,0.32201194763183594,0.0,-0.02,0.0,12,1,15,2,17760768,0,2
1733102574.6472363,0.0,False,-0.0009298299555666745,-0.0018547414802014828,0.15674452483654022,-1.0,100,16.2,0,0,False,,,,0,0,3,10,0.028958477079868317,8,28.512,,39.9526378,,-113.475976,False,0.09299999999348074,28.498,,39.9526379,,-113.4759761,-0.013,,39.9526379,,-113.4759761,0.011023287661373615,-0.0333881750702858,0.010462515987455845,unknown,LOITER,,,,,,STANDBY,1733102574.3252244,0.0,-0.02,0.0,12,1,15,2,17760768,0,2
1733102574.7579098,0.0,False,-0.0010074623860418797,-0.0018864902667701244,0.15652601420879364,-1.0,100,16.2,0,0,False,,,,0,0,3,10,0.02864609658718109,8,28.512,,39.9526378,,-113.475976,False,0.09399999998277053,28.498,,39.9526379,,-113.4759761,-0.013,,39.9526379,,-113.4759761,0.010863407514989376,-0.03366930037736893,0.010149973444640636,unknown,LOITER,,,,,,STANDBY,0.43268537521362305,0.0,-0.02,0.0,12,1,15,2,17760768,0,2
1733102574.867909,0.0,False,-0.0012749783927574754,-0.001831881352700293,0.15638504922389984,-1.0,100,16.2,0,0,False,,,,0,0,3,10,0.026516783982515335,8,28.512,,39.9526378,,-113.475976,False,0.2029999999795109,28.498,,39.9526379,,-113.4759761,-0.013,,39.9526379,,-113.4759761,0.010826362296938896,-0.03366991877555847,0.010135996155440807,unknown,LOITER,,,,,,STANDBY,1733102574.4352236,0.0,-0.02,0.0,12,1,15,2,17760768,0,2
1733102574.9729083,0.0,False,-0.0015928148059174418,-0.001661306363530457,0.15638230741024017,-1.0,100,16.2,0,0,False,,,,0,0,3,10,0.026258887723088264,8,28.512,,39.9526378,,-113.475976,False,0.3119999999762513,28.498,,39.9526379,,-113.4759761,-0.013,,39.9526379,,-113.4759761,0.010754345916211605,-0.033618733286857605,0.010219011455774307,unknown,LOITER,,,,,,STANDBY,0.5376846790313721,0.0,-0.02,0.0,12,1,15,2,17760768,0,2
1733102575.0819104,0.0,False,-0.0014602264855057001,-0.0017017965437844396,0.15617357194423676,-1.0,100,16.2,0,0,False,,,,0,0,3,10,0.024838654324412346,8,28.512,,39.9526378,,-113.475976,False,0.4220000000204891,28.498,,39.9526379,,-113.4759761,-0.013,,39.9526379,,-113.4759761,0.010741361416876316,-0.033607546240091324,0.010404684580862522,unknown,LOITER,,,,,,STANDBY,1733102574.5442257,0.0,-0.02,0.0,12,1,15,2,17760768,0,2
1733102575.190911,0.0,False,-0.0014490110334008932,-0.001778961275704205,0.15649566054344177,-1.0,100,16.2,0,0,False,,,,0,0,3,10,0.02395675517618656,8,28.512,,39.9526378,,-113.475976,False,0.5310000000172295,28.498,,39.9526379,,-113.4759761,-0.013,,39.9526379,,-113.4759761,0.010773268528282642,-0.033526286482810974,0.010604926384985447,unknown,LOITER,,,,,,STANDBY,0.6466853618621826,0.0,-0.02,0.0,12,1,15,2,17760768,0,2
1733102575.3014207,0.0,False,-0.0018586179940029979,-0.0021302462555468082,0.15636368095874786,-1.0,100,16.2,0,0,False,,,,0,0,3,10,0.023356609046459198,8,28.512,,39.9526378,,-113.475976,False,0.6410000000032596,28.498,,39.9526379,,-113.4759761,-0.013,,39.9526379,,-113.4759761,0.010738191194832325,-0.03335947543382645,0.010745733045041561,unknown,LOITER,,,,,,STANDBY,1733102574.6547353,0.0,-0.02,0.0,12,1,15,2,17760768,0,2
1733102575.4104226,0.0,False,-0.0021222217474132776,-0.002050108974799514,0.1565682291984558,-1.0,100,16.2,0,0,False,,,,0,0,3,10,0.022120922803878784,8,28.512,,39.9526378,,-113.475976,False,0.75,28.498,,39.952638,,-113.4759761,-0.013,,39.952638,,-113.4759761,0.010626370087265968,-0.03327047452330589,0.011219194158911705,unknown,LOITER,,,,,,STANDBY,0.7556872367858887,0.0,-0.02,0.0,12,1,15,2,17760768,0,2
1733102575.5184197,0.0,False,-0.002241394715383649,-0.0020873239263892174,0.15627485513687134,-1.0,100,16.2,0,0,False,,,,0,0,3,10,0.021709371358156204,8,28.512,,39.9526378,,-113.475976,False,0.8589999999967404,28.498,,39.952638,,-113.4759761,-0.013,,39.952638,,-113.4759761,0.010669509880244732,-0.033233389258384705,0.011586594395339489,unknown,LOITER,,,,,,STANDBY,1733102574.7627325,0.0,-0.02,0.0,12,1,15,2,17760768,0,2
1733102575.6264217,0.0,False,-0.0020571695640683174,-0.001625951612368226,0.1559864729642868,-1.0,100,16.2,0,0,False,,,,0,0,3,10,0.020622016862034798,8,28.512,,39.9526378,,-113.475976,False,0.9689999999827705,28.498,,39.952638,,-113.4759761,-0.013,,39.952638,,-113.4759761,0.010819613933563232,-0.032956819981336594,0.012340964749455452,unknown,LOITER,,,,,,STANDBY,0.8636891841888428,0.0,-0.01,0.0,12,1,15,2,17760768,0,2
1733102575.7361412,0.0,False,-0.0019547659903764725,-0.0016907932003960013,0.15606576204299927,-1.0,100,16.2,0,0,False,,,,0,0,3,10,0.01890011690557003,8,28.512,,39.9526378,,-113.475976,False,0.0779999999795109,28.498,,39.952638,,-113.4759761,-0.013,,39.952638,,-113.4759761,0.011062351055443287,-0.03228464722633362,0.012859464623034,unknown,LOITER,,,,,,STANDBY,1733102574.872452,0.0,-0.01,0.0,12,1,15,2,17760768,0,2
1733102575.843685,0.0,False,-0.002056938363239169,-0.0015638831537216902,0.1561197191476822,-1.0,100,16.2,0,0,False,,,,0,0,3,10,0.018465152010321617,8,28.512,,39.9526378,,-113.475976,False,0.0779999999795109,28.497,,39.952638,,-113.4759761,-0.014,,39.952638,,-113.4759761,0.011422710493206978,-0.03145508095622063,0.01314691361039877,unknown,LOITER,,,,,,STANDBY,0.9712328910827637,0.0,-0.01,0.0,12,1,15,2,17760768,0,2
1733102575.953687,0.0,False,-0.0020832500886172056,-0.001400626264512539,0.15631157159805298,-1.0,100,16.2,0,0,False,,,,0,0,3,10,0.015747273340821266,8,28.512,,39.9526378,,-113.475976,False,0.18800000002374873,28.497,,39.952638,,-113.4759761,-0.014,,39.952638,,-113.4759761,0.01205495186150074,-0.030339689925312996,0.013501209206879139,unknown,LOITER,,,,,,STANDBY,1733102574.982454,0.01,-0.01,0.0,12,1,15,2,17760768,0,2
1733102576.0626855,0.0,False,-0.0016686614835634828,-0.001350535312667489,0.1563648283481598,-1.0,100,16.2,0,0,False,,,,0,0,3,10,0.015037366189062595,8,28.512,,39.9526378,,-113.475976,False,0.28200000000651926,28.496,,39.952638,,-113.4759761,-0.015,,39.952638,,-113.4759761,0.012711827643215656,-0.028911830857396126,0.013932525180280209,unknown,LOITER,,,,,,STANDBY,1.0802314281463623,0.01,-0.01,0.0,12,1,15,2,17760768,0,2
1733102576.171686,0.0,False,-0.0014436155324801803,-0.0014283065684139729,0.1565675139427185,-1.0,100,16.2,0,0,False,,,,0,0,3,10,0.015282808803021908,8,28.512,,39.9526378,,-113.475976,False,0.40700000000651926,28.496,,39.952638,,-113.4759761,-0.015,,39.952638,,-113.4759761,0.013162304647266865,-0.027599461376667023,0.014469748362898827,unknown,LOITER,,,,,,STANDBY,1733102575.0914545,0.01,-0.01,0.0,12,1,15,2,17760768,0,2
1733102576.2816854,0.0,False,-0.0014718080637976527,-0.0015364440623670816,0.15617169439792633,-1.0,100,16.2,0,0,False,,,,0,0,3,10,0.01342597883194685,8,28.512,,39.9526378,,-113.475976,False,0.5160000000032596,28.495,,39.952638,,-113.4759761,-0.016,,39.952638,,-113.4759761,0.013604314997792244,-0.02633809670805931,0.014674254693090916,unknown,LOITER,,,,,,STANDBY,1.1902308464050293,0.0,0.0,0.0,12,1,15,2,17760768,0,2
1733102576.3916848,0.0,False,-0.0012154001742601395,-0.0011869581649079919,0.15613073110580444,-1.0,100,16.2,0,0,False,,,,0,0,3,10,0.01169611606746912,8,28.512,,39.9526378,,-113.475976,False,0.625,28.495,,39.952638,,-113.475976,-0.016,,39.952638,,-113.475976,0.013930612243711948,-0.025269674137234688,0.014658937230706215,unknown,LOITER,,,,,,STANDBY,1733102575.201454,0.0,0.0,0.0,12,1,15,2,17760768,0,2
1733102576.5006855,0.0,False,-0.0011020081583410501,-0.0010134454350918531,0.1560458391904831,-1.0,100,16.2,0,0,False,,,,0,0,3,10,0.009853140451014042,8,28.512,,39.9526378,,-113.475976,False,0.7349999999860302,28.494,,39.952638,,-113.475976,-0.017,,39.952638,,-113.475976,0.014445574022829533,-0.024202890694141388,0.014434443786740303,unknown,LOITER,,,,,,STANDBY,1.2992315292358398,0.0,0.0,0.0,12,1,15,2,17760768,0,2
1733102576.6066864,0.0,False,-0.00126731360796839,-0.0009255677578039467,0.15592177212238312,-1.0,100,16.2,0,0,False,,,,0,0,3,10,0.010519993491470814,8,28.512,,39.9526378,,-113.475976,False,0.8279999999795109,28.494,,39.952638,,-113.475976,-0.017,,39.952638,,-113.475976,0.015097628347575665,-0.0233584214001894,0.014364054426550865,unknown,LOITER,,,,,,STANDBY,1733102575.3074548,0.0,0.0,0.0,12,1,15,2,17760768,0,2
1733102576.715685,0.0,False,-0.0012137360172346234,-0.0009363265126012266,0.1554761677980423,-1.0,100,16.2,0,0,False,,,,0,0,3,10,0.009039205498993397,8,28.512,,39.9526378,,-113.475976,False,0.9529999999795109,28.493,,39.952638,,-113.475976,-0.018,,39.952638,,-113.475976,0.01590716280043125,-0.022593922913074493,0.014344176277518272,unknown,LOITER,,,,,,STANDBY,1.4082300662994385,0.0,0.0,0.0,12,1,15,2,17760768,0,2
1733102576.8236127,0.0,False,-0.0012664672685787082,-0.0008566209580749273,0.15529388189315796,-1.0,100,16.2,0,0,False,,,,0,0,3,10,0.008914006873965263,8,28.512,,39.9526378,,-113.475976,False,0.031000000017229468,28.492,,39.952638,,-113.475976,-0.019,,39.952638,,-113.475976,0.0167876984924078,-0.021947255358099937,0.014110132120549679,unknown,LOITER,,,,,,STANDBY,1733102575.4153826,0.0,0.0,0.0,12,1,15,2,17760768,0,2
1733102576.9316163,0.0,False,-0.0011298522586002946,-0.0007457245956175029,0.15543615818023682,-1.0,100,16.2,0,0,False,,,,0,0,3,10,0.008964757435023785,8,28.512,,39.9526378,,-113.475976,False,0.0470000000204891,28.491,,39.952638,,-113.475976,-0.02,,39.952638,,-113.475976,0.017482805997133255,-0.021662209182977676,0.013786561787128448,unknown,LOITER,,,,,,STANDBY,1.5162336826324463,0.0,0.0,0.0,12,1,15,2,17760768,0,2
1733102577.042621,0.0,False,-0.0007945849210955203,-0.000548427167814225,0.15538541972637177,-1.0,100,16.2,0,0,False,,,,0,0,3,10,0.00746070547029376,8,28.512,,39.9526378,,-113.475976,False,0.15600000001722947,28.491,,39.952638,,-113.475976,-0.021,,39.952638,,-113.475976,0.01822786219418049,-0.021509254351258278,0.013132440857589245,unknown,LOITER,,,,,,STANDBY,1733102575.5263872,0.0,0.0,0.0,12,1,15,2,17760768,0,2
1733102577.152615,0.0,False,-0.0010258308611810207,-0.0005668142111971974,0.15509973466396332,-1.0,100,16.2,0,0,False,,,,0,0,3,10,0.006965054199099541,8,28.512,,39.9526378,,-113.475976,False,0.26500000001396984,28.49,,39.952638,,-113.475976,-0.021,,39.952638,,-113.475976,0.018730519339442253,-0.021459978073835373,0.012540744617581367,unknown,LOITER,,,,,,STANDBY,1.626227855682373,0.0,0.0,0.0,12,1,15,2,17760768,0,2
1733102577.2606487,0.0,False,-0.0010623119305819273,-0.0005468878662213683,0.15491841733455658,-1.0,100,16.2,0,0,False,,,,0,0,3,10,0.006446790881454945,8,28.512,,39.9526378,,-113.475976,False,0.375,28.49,,39.952638,,-113.475976,-0.021,,39.952638,,-113.475976,0.01917308010160923,-0.02122768759727478,0.012126421555876732,unknown,LOITER,,,,,,STANDBY,1733102575.6344209,0.0,0.0,0.0,12,1,15,2,17760768,0,2
1733102577.3676143,0.0,False,-0.00124363845679909,-0.0006876213592477143,0.15465916693210602,-1.0,100,16.2,0,0,False,,,,0,0,3,10,0.0059689730405807495,8,28.512,,39.9526378,,-113.475976,False,0.48399999999674037,28.489,,39.952638,,-113.475976,-0.022,,39.952638,,-113.475976,0.019545387476682663,-0.02071378380060196,0.011844096705317497,unknown,LOITER,,,,,,STANDBY,1.7331933975219727,0.0,0.0,0.0,12,1,15,2,17760768,0,2
1733102577.475615,0.0,False,-0.0012747225118800998,-0.0005091514904052019,0.15474042296409607,-1.0,100,16.2,0,0,False,,,,0,0,3,10,0.007974037900567055,8,28.512,,39.9526378,,-113.475976,False,0.5929999999934807,28.489,,39.952638,,-113.475976,-0.022,,39.952638,,-113.475976,0.020082395523786545,-0.02008134499192238,0.011790554970502853,unknown,LOITER,,,,,,STANDBY,1733102575.7424216,0.0,0.0,0.0,12,1,15,2,17760768,0,2
1733102577.5846155,0.0,False,-0.0015241374494507909,-0.00028727998142130673,0.15472030639648438,-1.0,100,16.2,0,0,False,,,,0,0,3,10,0.009023915976285934,8,28.512,,39.9526378,,-113.475976,False,0.7030000000377186,28.488,,39.952638,,-113.475976,-0.023,,39.952638,,-113.475976,0.02073001302778721,-0.019203899428248405,0.01214411947876215,unknown,LOITER,,,,,,STANDBY,1.842193841934204,0.0,0.0,0.0,12,1,15,2,17760768,0,2
1733102577.6916127,0.0,False,-0.0010482576908543706,-0.00033364788396283984,0.15448756515979767,-1.0,100,16.2,0,0,False,,,,0,0,3,10,0.009232308715581894,8,28.512,,39.9526378,,-113.475976,False,0.8120000000344589,28.488,,39.952638,,-113.475976,-0.023,,39.952638,,-113.475976,0.02118363045156002,-0.018340369686484337,0.0126249510794878,unknown,LOITER,,,,,,STANDBY,1733102575.8494189,0.0,0.0,0.0,12,1,15,2,17760768,0,2
1733102577.8015594,0.0,False,-0.0010665609734132886,-0.00022723998699802905,0.1546737551689148,-1.0,100,16.2,0,0,False,,,,0,0,3,10,0.008758887648582458,8,28.512,,39.9526378,,-113.475976,False,0.9220000000204891,28.487,,39.952638,,-113.475976,-0.024,,39.952638,,-113.475976,0.021390356123447418,-0.017510313540697098,0.01278485357761383,unknown,LOITER,,,,,,STANDBY,1.9521405696868896,0.0,0.0,0.0,12,1,15,2,17760768,0,2
1733102577.908562,0.0,False,-0.0012877858243882656,0.000124710364616476,0.15428492426872253,-1.0,100,16.2,0,0,False,,,,0,0,3,10,0.00988729763776064,8,28.512,,39.9526378,,-113.475976,False,0.01600000000325963,28.488,,39.952638,,-113.4759759,-0.024,,39.952638,,-113.4759759,0.021250372752547264,-0.016917500644922256,0.012704422697424889,unknown,LOITER,,,,,,STANDBY,1733102575.9564214,0.0,0.0,0.0,12,1,15,2,17760768,0,2
1733102578.0175586,0.0,False,-0.0011330567067489028,0.00010971318260999396,0.15433944761753082,-1.0,100,16.2,0,0,False,,,,0,0,3,10,0.010998222976922989,8,28.512,,39.9526378,,-113.475976,False,0.031000000017229468,28.488,,39.952638,,-113.4759759,-0.023,,39.952638,,-113.4759759,0.020905788987874985,-0.016062317416071892,0.01244133710861206,unknown,LOITER,,,,,,STANDBY,2.0611371994018555,0.0,0.0,0.0,12,1,15,2,17760768,0,2
1733102578.1265595,0.0,False,-0.0010015215957537293,0.00023181036522146314,0.15467555820941925,-1.0,100,16.2,0,0,False,,,,0,0,3,10,0.01074238307774067,8,28.512,,39.9526378,,-113.475976,False,0.14100000000325963,28.488,,39.952638,,-113.4759759,-0.023,,39.952638,,-113.4759759,0.020792163908481598,-0.015535051003098488,0.011908361688256264,unknown,LOITER,,,,,,STANDBY,1733102576.0654223,0.0,0.0,0.0,12,1,15,2,17760768,0,2
1733102578.2355888,0.0,False,-0.0008612231467850506,0.00039705977542325854,0.15483300387859344,-1.0,100,16.2,0,0,False,,,,0,0,3,10,0.011727101169526577,8,28.512,,39.9526378,,-113.475976,False,0.25,28.488,,39.952638,,-113.4759759,-0.023,,39.952638,,-113.4759759,0.0208960622549057,-0.015084760263562202,0.011351216584444046,unknown,LOITER,,,,,,STANDBY,2.170166492462158,0.0,0.01,0.0,12,1,15,2,17760768,0,2
1733102578.3445597,0.0,False,-0.0008922923589125276,0.0005670060054399073,0.15515296161174774,-1.0,100,16.2,0,0,False,,,,0,0,3,10,0.012766738422214985,8,28.512,,39.9526378,,-113.475976,False,0.35899999999674037,28.488,,39.9526379,,-113.4759759,-0.023,,39.9526379,,-113.4759759,0.02096509002149105,-0.014735930599272251,0.010882536880671978,unknown,LOITER,,,,,,STANDBY,1733102576.1743932,0.0,0.01,0.0,12,1,15,2,17760768,0,2
1733102578.4535615,0.0,False,-0.0010697059333324432,0.0005883132689632475,0.15530750155448914,-1.0,100,16.2,0,0,False,,,,0,0,3,10,0.01403797511011362,8,28.512,,39.9526378,,-113.475976,False,0.4690000000409782,28.488,,39.9526379,,-113.4759759,-0.023,,39.9526379,,-113.4759759,0.02107248641550541,-0.01436689868569374,0.01029484998434782,unknown,LOITER,,,,,,STANDBY,2.2791683673858643,0.0,0.01,0.0,12,1,15,2,17760768,0,2
1733102578.5625596,0.0,False,-0.001042708521708846,0.0007904917583800852,0.1553962230682373,-1.0,100,16.2,0,0,False,,,,0,0,3,10,0.015337157063186169,8,28.512,,39.9526378,,-113.475976,False,0.5780000000377186,28.488,,39.9526379,,-113.4759759,-0.023,,39.9526379,,-113.4759759,0.02118689939379692,-0.01371043175458908,0.009360029362142086,unknown,LOITER,,,,,,STANDBY,1733102576.2833912,0.0,0.01,0.0,12,1,15,2,17760768,0,2
1733102578.6715586,0.0,False,-0.000733904424123466,0.0005210621166042984,0.15533313155174255,-1.0,100,16.2,0,0,False,,,,0,0,3,10,0.01529259979724884,8,28.512,,39.9526378,,-113.475976,False,0.6720000000204891,28.488,,39.9526379,,-113.4759759,-0.023,,39.9526379,,-113.4759759,0.02115422487258911,-0.01297831628471613,0.0084623908624053,unknown,LOITER,,,,,,STANDBY,2.388167381286621,0.0,0.01,0.0,12,1,15,2,17760768,0,2
1733102578.7797725,0.0,False,-0.0006406568572856486,0.0004078336642123759,0.155511274933815,-1.0,100,16.2,0,0,False,,,,0,0,3,10,0.015916302800178528,8,28.512,,39.9526378,,-113.475976,False,0.7970000000204891,28.488,,39.9526379,,-113.4759759,-0.023,,39.9526379,,-113.4759759,0.021038014441728592,-0.012244236655533314,0.007518698461353779,unknown,LOITER,,,,,,STANDBY,1733102576.3916051,0.0,0.01,0.0,12,1,15,2,17760768,0,2
1733102578.8887727,0.0,False,-0.0006450041546486318,0.0005645191413350403,0.15537503361701965,-1.0,100,16.2,0,0,False,,,,0,0,3,10,0.017615314573049545,8,28.512,,39.9526378,,-113.475976,False,0.9060000000172295,28.488,,39.9526379,,-113.4759759,-0.023,,39.9526379,,-113.4759759,0.02089327946305275,-0.011415895074605942,0.006729886867105961,unknown,LOITER,,,,,,STANDBY,2.4971675872802734,0.0,0.01,0.0,12,1,15,2,17760768,0,2
1733102578.9957716,0.0,False,-0.0005243641790002584,0.0003211342846043408,0.15525713562965393,-1.0,100,16.2,0,0,False,,,,0,0,3,10,0.01825646124780178,8,28.512,,39.9526378,,-113.475976,False,1.0,28.488,,39.9526379,,-113.4759759,-0.023,,39.9526379,,-113.4759759,0.020723266527056694,-0.010625145398080349,0.006110798567533493,unknown,LOITER,,,,,,STANDBY,1733102576.498604,0.0,0.01,0.0,12,1,15,2,17760768,0,2
1733102579.105772,0.0,False,-0.0006201550713740289,0.00017343481886200607,0.15527544915676117,-1.0,100,16.2,0,0,False,,,,0,0,3,10,0.01768164150416851,8,28.512,,39.9526378,,-113.475976,False,0.0,28.488,,39.9526379,,-113.4759759,-0.023,,39.9526379,,-113.4759759,0.020540935918688774,-0.009868909604847431,0.0050265793688595295,unknown,LOITER,,,,,,STANDBY,2.607167959213257,0.0,0.01,0.0,12,1,15,2,17760768,0,2
1733102579.2137723,0.0,False,-0.0009173242142423987,-7.899451156845316e-05,0.15537820756435394,-1.0,100,16.2,0,0,False,,,,0,0,3,10,0.018228961154818535,8,28.512,,39.9526378,,-113.475976,False,0.11000000004423782,28.488,,39.9526379,,-113.4759759,-0.023,,39.9526379,,-113.4759759,0.02044624648988247,-0.009302577935159206,0.003876053262501955,unknown,LOITER,,,,,,STANDBY,1733102576.6066043,0.0,0.01,0.0,12,1,15,2,17760768,0,2
1733102579.3237724,0.0,False,-0.0008447233121842146,-4.783427357324399e-05,0.15515871345996857,-1.0,100,16.2,0,0,False,,,,0,0,3,10,0.017540911212563515,8,28.512,,39.9526378,,-113.475976,False,0.2190000000409782,28.488,,39.9526379,,-113.4759759,-0.023,,39.9526379,,-113.4759759,0.020326899364590645,-0.008871921338140965,0.0028537099715322256,unknown,LOITER,,,,,,STANDBY,2.717168092727661,0.0,0.01,0.0,12,1,15,2,17760768,0,2
1733102579.4347749,0.0,False,-0.0008803065284155309,6.474929978139699e-05,0.15504157543182373,-1.0,100,16.2,0,0,False,,,,0,0,3,10,0.01650521159172058,8,28.512,,39.9526378,,-113.475976,False,0.3440000000409782,28.489,,39.9526379,,-113.4759759,-0.022,,39.9526379,,-113.4759759,0.02005418948829174,-0.008631395176053047,0.0022657860536128283,unknown,LOITER,,,,,,STANDBY,1733102576.7176068,0.0,0.01,0.0,12,1,15,2,17760768,0,2
1733102579.542772,0.0,False,-0.0008320424240082502,3.1878702429821715e-05,0.15533806383609772,-1.0,100,16.2,0,0,False,,,,0,0,3,10,0.017755333334207535,8,28.512,,39.9526378,,-113.475976,False,0.4380000000237487,28.489,,39.9526379,,-113.4759759,-0.022,,39.9526379,,-113.4759759,0.019648561254143715,-0.008554667234420776,0.0018235290190204978,unknown,LOITER,,,,,,STANDBY,2.825165271759033,0.0,0.01,0.0,12,1,15,2,17760768,0,2
1733102579.649772,0.0,False,-0.0009851250797510147,6.292528996709734e-05,0.15525753796100616,-1.0,100,16.2,0,0,False,,,,0,0,3,10,0.017756298184394836,8,28.512,,39.9526378,,-113.475976,False,0.5470000000204891,28.489,,39.9526379,,-113.4759759,-0.022,,39.9526379,,-113.4759759,0.01941000670194626,-0.008586198091506958,0.0015153239946812391,unknown,LOITER,,,,,,STANDBY,1733102576.8246067,0.0,0.01,0.0,12,1,15,2,17760768,0,2
1733102579.7590241,0.0,False,-0.0006706786225549877,-1.897599304356845e-06,0.15499545633792877,-1.0,100,16.2,0,0,False,,,,0,0,3,10,0.01621738076210022,8,28.512,,39.9526378,,-113.475976,False,0.6570000000065193,28.49,,39.9526379,,-113.4759759,-0.022,,39.9526379,,-113.4759759,0.01922643557190895,-0.008531656116247177,0.0011234835255891085,unknown,LOITER,,,,,,STANDBY,2.934417486190796,0.0,0.01,0.0,12,1,15,2,17760768,0,2
1733102579.867024,0.0,False,-0.0004208802420180291,-0.00018011601059697568,0.15526077151298523,-1.0,100,16.2,0,0,False,,,,0,0,3,10,0.016369709745049477,8,28.512,,39.9526378,,-113.475976,False,0.7660000000032596,28.49,,39.9526379,,-113.4759759,-0.021,,39.9526379,,-113.4759759,0.01899595744907856,-0.008531439118087292,0.0008032139739952981,unknown,LOITER,,,,,,STANDBY,1733102576.9326065,0.0,0.01,0.0,12,1,15,2,17760768,0,2
1733102579.9770226,0.0,False,-0.0005731371929869056,-8.975306991487741e-05,0.15549226105213165,-1.0,100,16.2,0,0,False,,,,0,0,3,10,0.016902316361665726,8,28.512,,39.9526378,,-113.475976,False,0.875,28.49,,39.9526379,,-113.4759758,-0.021,,39.9526379,,-113.4759758,0.01862780563533306,-0.00850559864193201,0.0003317789814900607,unknown,LOITER,,,,,,STANDBY,3.0444161891937256,-0.01,0.01,0.0,12,1,15,2,17760768,0,2
1733102580.085021,0.0,False,-0.0006557066808454692,-0.0003351501072756946,0.15536616742610931,-1.0,100,16.2,0,0,False,,,,0,0,3,10,0.016419699415564537,8,28.512,,39.9526378,,-113.475976,False,0.9850000000442378,28.491,,39.9526378,,-113.4759758,-0.02,,39.9526378,,-113.4759758,0.018090983852744102,-0.008281943388283253,-3.239236684748903e-05,unknown,LOITER,,,,,,STANDBY,1733102577.0406048,-0.01,0.01,0.0,12,1,15,2,17760768,0,2
1733102580.1940193,0.0,False,-0.000541890156455338,-0.0005039628013037145,0.15517917275428772,-1.0,100,16.2,0,0,False,,,,0,0,3,10,0.017800480127334595,8,28.512,,39.9526378,,-113.475976,False,0.07800000003771856,28.491,,39.9526378,,-113.4759758,-0.02,,39.9526378,,-113.4759758,0.017557872459292412,-0.007907304912805557,-0.00014564285811502486,unknown,LOITER,,,,,,STANDBY,3.153414487838745,-0.01,0.01,0.0,12,1,15,2,17760768,0,2
1733102580.3010204,0.0,False,-0.0004509405407588929,-0.00040789024205878377,0.1550140231847763,-1.0,100,16.2,0,0,False,,,,0,0,3,10,0.016725150868296623,8,28.512,,39.9526378,,-113.475976,False,0.09399999998277053,28.492,,39.9526378,,-113.4759758,-0.02,,39.9526378,,-113.4759758,0.017173608765006065,-0.007493705954402685,-0.00024358862719964236,unknown,LOITER,,,,,,STANDBY,1733102577.147606,-0.01,0.01,0.0,12,1,15,2,17760768,0,2
1733102580.4095955,0.0,False,-0.00029639506828971207,-0.0003756581572815776,0.15492776036262512,-1.0,100,16.2,0,0,False,,,,0,0,3,10,0.015551618300378323,8,28.512,,39.9526378,,-113.475976,False,0.2029999999795109,28.492,,39.9526378,,-113.4759758,-0.019,,39.9526378,,-113.4759758,0.0166640542447567,-0.007206358015537262,-0.0003244061954319477,unknown,LOITER,,,,,,STANDBY,3.2619895935058594,0.0,0.01,0.0,12,1,15,2,17760768,0,2
1733102580.518632,0.0,False,-0.0005986280157230794,-0.00028215706697665155,0.15481746196746826,-1.0,100,16.2,0,0,False,,,,0,0,3,10,0.015308685600757599,8,28.512,,39.9526378,,-113.475976,False,0.3119999999762513,28.493,,39.9526378,,-113.4759758,-0.018,,39.9526378,,-113.4759758,0.01600809022784233,-0.007160098757594824,-0.00025347521295771003,unknown,LOITER,,,,,,STANDBY,1733102577.2566423,0.0,0.01,0.0,12,1,15,2,17760768,0,2
1733102580.6266901,0.0,False,-0.0007487618713639677,-0.0005064097349531949,0.15522530674934387,-1.0,100,16.2,0,0,False,,,,0,0,3,10,0.014132071286439896,8,28.512,,39.9526378,,-113.475976,False,0.42199999996228144,28.493,,39.9526378,,-113.4759758,-0.018,,39.9526378,,-113.4759758,0.015428313054144382,-0.007194553967565298,-0.00040148734115064144,unknown,LOITER,,,,,,STANDBY,3.3700478076934814,0.0,0.0,0.0,12,1,15,2,17760768,0,2
1733102580.7354121,0.0,False,-0.0005850063753314316,-0.0004626570735126734,0.1549825668334961,-1.0,100,16.2,0,0,False,,,,0,0,3,10,0.013730065897107124,8,28.512,,39.9526378,,-113.475976,False,0.5309999999590218,28.494,,39.9526378,,-113.4759758,-0.017,,39.9526378,,-113.4759758,0.014977602288126945,-0.007337148301303387,-0.000860363885294646,unknown,LOITER,,,,,,STANDBY,1733102577.3653643,-0.01,0.0,0.0,12,1,15,2,17760768,0,2
1733102580.8417723,0.0,False,-0.000710164662450552,-0.0003696083149407059,0.1548732966184616,-1.0,100,16.2,0,0,False,,,,0,0,3,10,0.0128642488270998,8,28.512,,39.9526378,,-113.475976,False,0.625,28.494,,39.9526378,,-113.4759758,-0.017,,39.9526378,,-113.4759758,0.014736841432750225,-0.007564366329461336,-0.0012629595585167408,unknown,LOITER,,,,,,STANDBY,3.476408004760742,-0.01,0.0,0.0,12,1,15,2,17760768,0,2
1733102580.9497907,0.0,False,-0.0007471995777450502,-0.0003133602731395513,0.15490756928920746,-1.0,100,16.2,0,0,False,,,,0,0,3,10,0.012307428754866123,8,28.512,,39.9526378,,-113.475976,False,0.7339999999967404,28.494,,39.9526378,,-113.4759758,-0.017,,39.9526378,,-113.4759758,0.014421019703149796,-0.007877117022871971,-0.0015082634054124355,unknown,LOITER,,,,,,STANDBY,1733102577.4733827,0.0,0.0,0.0,12,1,15,2,17760768,0,2
1733102581.0577595,0.0,False,-0.0004994700429961085,-0.00013595879136119038,0.15502694249153137,-1.0,100,16.2,0,0,False,,,,0,0,3,10,0.012182923965156078,8,28.512,,39.9526378,,-113.475976,False,0.8439999999827705,28.495,,39.9526378,,-113.4759758,-0.016,,39.9526378,,-113.4759758,0.013848715461790562,-0.007972383871674538,-0.0014646947383880615,unknown,LOITER,,,,,,STANDBY,3.584376811981201,0.0,0.0,0.0,12,1,15,2,17760768,0,2
1733102581.1667776,0.0,False,-0.0005339866620488465,-0.0003018064599018544,0.1549745798110962,-1.0,100,16.2,0,0,False,,,,0,0,3,10,0.011605839245021343,8,28.512,,39.9526378,,-113.475976,False,0.9529999999795109,28.496,,39.9526378,,-113.4759758,-0.016,,39.9526378,,-113.4759758,0.013192926533520222,-0.007975940592586994,-0.0012629770208150148,unknown,LOITER,,,,,,STANDBY,1733102577.5824008,0.0,0.0,0.0,12,1,15,2,17760768,0,2
1733102581.2757595,0.0,False,-0.0004229883779771626,-0.0006474633701145649,0.15523026883602142,-1.0,100,16.2,0,0,False,,,,0,0,3,10,0.011605268344283104,8,28.512,,39.9526378,,-113.475976,False,0.0470000000204891,28.496,,39.9526378,,-113.4759758,-0.015,,39.9526378,,-113.4759758,0.012522258795797825,-0.007999288849532604,-0.0011199078289791942,unknown,LOITER,,,,,,STANDBY,3.6933586597442627,0.0,0.0,0.0,12,1,15,2,17760768,0,2
1733102581.3847587,0.0,False,-0.00017682679754216224,-0.0004738072748295963,0.15544113516807556,-1.0,100,16.2,0,0,False,,,,0,0,3,10,0.011227263137698174,8,28.512,,39.9526378,,-113.475976,False,0.06299999996554106,28.497,,39.9526378,,-113.4759758,-0.014,,39.9526378,,-113.4759758,0.011778675951063633,-0.00816147867590189,-0.001277682138606906,unknown,LOITER,,,,,,STANDBY,1733102577.6914,-0.01,0.0,0.0,12,1,15,2,17760768,0,2
1733102581.4937608,0.0,False,-4.78186848340556e-05,-0.000915869721211493,0.15551073849201202,-1.0,100,16.2,0,0,False,,,,0,0,3,10,0.011402749456465244,8,28.512,,39.9526378,,-113.475976,False,0.17199999996228144,28.498,,39.9526378,,-113.4759758,-0.013,,39.9526378,,-113.4759758,0.011132354848086834,-0.008272708393633366,-0.0013586725108325481,unknown,LOITER,,,,,,STANDBY,3.802360773086548,0.0,0.0,0.0,12,1,15,2,17760768,0,2
1733102581.6037593,0.0,False,0.00036625267239287496,-0.001017486210912466,0.15554502606391907,-1.0,100,16.2,0,0,False,,,,0,0,3,10,0.0102041345089674,8,28.512,,39.9526378,,-113.475976,False,0.2809999999590218,28.498,,39.9526378,,-113.4759758,-0.013,,39.9526378,,-113.4759758,0.01074962131679058,-0.008259679190814495,-0.001166192232631147,unknown,LOITER,,,,,,STANDBY,1733102577.8013985,0.0,0.0,0.0,12,1,15,2,17760768,0,2
1733102581.7107606,0.0,False,4.4206542952451855e-05,-0.0010276096872985363,0.15541203320026398,-1.0,100,16.2,0,0,False,,,,0,0,3,10,0.011301975697278976,8,28.512,,39.9526378,,-113.475976,False,0.39100000000325963,28.498,,39.9526378,,-113.4759758,-0.013,,39.9526378,,-113.4759758,0.010682785883545876,-0.00815449096262455,-0.0010404298081994057,unknown,LOITER,,,,,,STANDBY,3.9093620777130127,-0.01,0.0,0.0,12,1,15,2,17760768,0,2
1733102581.8168483,0.0,False,-0.00033094550599344075,-0.0010055463062599301,0.1552780419588089,-1.0,100,16.2,0,0,False,,,,0,0,3,10,0.010507185012102127,8,28.512,,39.9526378,,-113.475976,False,0.5,28.498,,39.9526378,,-113.4759758,-0.013,,39.9526378,,-113.4759758,0.010691137053072453,-0.00814472883939743,-0.0009387620957568288,unknown,LOITER,,,,,,STANDBY,1733102577.9074862,0.0,0.0,0.0,12,1,15,2,17760768,0,2
1733102581.9268513,0.0,False,-0.00036073950468562543,-0.0010881968773901463,0.15539297461509705,-1.0,100,16.2,0,0,False,,,,0,0,3,10,0.009654991328716278,8,28.512,,39.9526378,,-113.475976,False,0.6099999999860302,28.498,,39.9526378,,-113.4759758,-0.013,,39.9526378,,-113.4759758,0.0107266865670681,-0.008263182826340199,-0.0007960859802551568,unknown,LOITER,,,,,,STANDBY,4.019365072250366,0.0,0.0,0.0,12,1,15,2,17760768,0,2
1733102582.034849,0.0,False,-0.000784649804700166,-0.001047046622261405,0.1554030030965805,-1.0,100,16.2,0,0,False,,,,0,0,3,10,0.007969276048243046,8,28.512,,39.9526378,,-113.475976,False,0.7189999999827705,28.498,,39.9526378,,-113.4759758,-0.013,,39.9526378,,-113.4759758,0.010861700400710106,-0.008442757651209831,-0.0006958174635656178,unknown,LOITER,,,,,,STANDBY,1733102578.0154839,0.0,0.0,0.0,12,1,15,2,17760768,0,2
1733102582.143849,0.0,False,-0.000792785722296685,-0.0010328617645427585,0.15561795234680176,-1.0,100,16.2,0,0,False,,,,0,0,3,10,0.007325524929910898,8,28.512,,39.9526378,,-113.475976,False,0.8279999999795109,28.498,,39.9526378,,-113.4759759,-0.013,,39.9526378,,-113.4759759,0.011099557392299175,-0.008631977252662182,-0.0007143666734918952,unknown,LOITER,,,,,,STANDBY,4.1283650398254395,0.0,0.0,0.0,12,1,15,2,17760768,0,2
1733102582.2548478,0.0,False,-0.000755062501411885,-0.0015493158716708422,0.15528874099254608,-1.0,100,16.2,0,0,False,,,,0,0,3,10,0.0071961646899580956,8,28.512,,39.9526378,,-113.475976,False,0.9379999999655411,28.497,,39.9526378,,-113.4759759,-0.014,,39.9526378,,-113.4759759,0.011588134802877903,-0.008790572173893452,-0.0006910766824148595,unknown,LOITER,,,,,,STANDBY,1733102578.1264827,0.0,0.0,0.0,12,1,15,2,17760768,0,2
1733102582.361851,0.0,False,-0.0009711013990454376,-0.0014781543286517262,0.15535868704319,-1.0,100,16.2,0,0,False,,,,0,0,3,10,0.00603295536711812,8,28.512,,39.9526378,,-113.475976,False,0.030999999959021807,28.497,,39.9526378,,-113.4759759,-0.014,,39.9526378,,-113.4759759,0.01179802231490612,-0.008823475800454617,-0.0006108877714723349,unknown,LOITER,,,,,,STANDBY,4.235368251800537,0.0,0.0,0.0,12,1,15,2,17760768,0,2
1733102582.469848,0.0,False,-0.0008357241749763489,-0.0013408353552222252,0.15539228916168213,-1.0,100,16.2,0,0,False,,,,0,0,3,10,0.004525192081928253,8,28.512,,39.9526378,,-113.475976,False,0.045999999972991645,28.497,,39.9526378,,-113.4759759,-0.014,,39.9526378,,-113.4759759,0.011804681271314621,-0.009079864248633385,-0.00023765856167301536,unknown,LOITER,,,,,,STANDBY,1733102578.2344797,0.0,0.0,0.0,12,1,15,2,17760768,0,2
1733102582.5798507,0.0,False,-0.0013241765554994345,-0.0012612456921488047,0.15522241592407227,-1.0,100,16.2,0,0,False,,,,0,0,3,10,0.003264984115958214,8,28.512,,39.9526378,,-113.475976,False,0.15600000001722947,28.497,,39.9526379,,-113.4759759,-0.014,,39.9526379,,-113.4759759,0.011577566154301167,-0.009393562562763691,0.0002316799946129322,unknown,LOITER,,,,,,STANDBY,4.3453710079193115,0.0,0.0,0.0,12,1,15,2,17760768,0,2
1733102582.6878493,0.0,False,-0.001262362115085125,-0.0013693291693925858,0.1553713083267212,-1.0,100,16.2,0,0,False,,,,0,0,3,10,0.002328456612303853,8,28.512,,39.9526378,,-113.475976,False,0.26500000001396984,28.497,,39.9526379,,-113.4759759,-0.014,,39.9526379,,-113.4759759,0.01143824402242899,-0.009713253937661648,0.0006566516240127385,unknown,LOITER,,,,,,STANDBY,1733102578.3424783,0.0,0.0,0.0,12,1,15,2,17760768,0,2
1733102582.7950094,0.0,False,-0.0012364893918856978,-0.0013314003590494394,0.15585580468177795,-1.0,100,16.2,0,0,False,,,,0,0,3,10,0.0026974298525601625,8,28.512,,39.9526378,,-113.475976,False,0.375,28.497,,39.9526379,,-113.4759759,-0.014,,39.9526379,,-113.4759759,0.011452313512563705,-0.009941509924829006,0.0009284800034947693,unknown,LOITER,,,,,,STANDBY,4.452531099319458,0.0,0.0,0.0,12,1,15,2,17760768,0,2
1733102582.904009,0.0,False,-0.001359662041068077,-0.001299483235925436,0.15601521730422974,-1.0,100,16.2,0,0,False,,,,0,0,3,10,0.001472529023885727,8,28.512,,39.9526378,,-113.475976,False,0.48399999999674037,28.497,,39.9526379,,-113.4759759,-0.014,,39.9526379,,-113.4759759,0.011769846081733704,-0.010280818678438663,0.0015328346053138375,unknown,LOITER,,,,,,STANDBY,1733102578.451478,0.0,0.0,0.0,12,1,15,2,17760768,0,2
1733102583.013026,0.0,False,-0.0013659413671121001,-0.0010797949507832527,0.15584103763103485,-1.0,100,16.2,0,0,False,,,,0,0,3,10,0.0002932341012638062,8,28.512,,39.9526378,,-113.475976,False,0.5779999999795109,28.497,,39.9526379,,-113.4759759,-0.014,,39.9526379,,-113.4759759,0.01207676064223051,-0.01050842460244894,0.0021660253405570984,unknown,LOITER,,,,,,STANDBY,4.5615479946136475,0.0,0.0,0.0,12,1,15,2,17760768,0,2
1733102583.1200092,0.0,False,-0.0017482142429798841,-0.0012688215356320143,0.1557975709438324,-1.0,100,16.2,0,0,False,,,,0,0,3,10,0.0017724258359521627,8,28.512,,39.9526378,,-113.475976,False,0.6869999999762513,28.497,,39.9526379,,-113.4759759,-0.014,,39.9526379,,-113.4759759,0.012085052207112312,-0.010732430964708328,0.002742764540016651,unknown,LOITER,,,,,,STANDBY,1733102578.5584612,0.0,0.0,0.0,12,1,15,2,17760768,0,2
1733102583.2300086,0.0,False,-0.001544156693853438,-0.0014038471272215247,0.15588712692260742,-1.0,100,16.2,0,0,False,,,,0,0,3,10,0.0029544138815253973,8,28.512,,39.9526378,,-113.475976,False,0.7959999999729916,28.497,,39.9526379,,-113.4759759,-0.014,,39.9526379,,-113.4759759,0.011680297553539276,-0.011224145069718361,0.003525887383148074,unknown,LOITER,,,,,,STANDBY,4.6715474128723145,0.0,0.0,0.0,12,1,15,2,17760768,0,2
1733102583.3390098,0.0,False,-0.001318340073339641,-0.0013971746666356921,0.15607725083827972,-1.0,100,16.2,0,0,False,,,,0,0,3,10,0.0032579684630036354,8,28.512,,39.9526378,,-113.475976,False,0.9060000000172295,28.498,,39.9526379,,-113.4759759,-0.013,,39.9526379,,-113.4759759,0.011083087883889675,-0.01165100745856762,0.004484632518142462,unknown,LOITER,,,,,,STANDBY,1733102578.6674623,0.0,0.0,0.0,12,1,15,2,17760768,0,2
1733102583.4470086,0.0,False,-0.0015080664306879044,-0.0016885331133380532,0.1561194658279419,-1.0,100,16.2,0,0,False,,,,0,0,3,10,0.003222941653802991,8,28.512,,39.9526378,,-113.475976,False,0.0,28.498,,39.9526379,,-113.4759759,-0.013,,39.9526379,,-113.4759759,0.010473443195223808,-0.011938612908124924,0.00535621540620923,unknown,LOITER,,,,,,STANDBY,4.77954626083374,0.0,0.0,0.0,12,1,15,2,17760768,0,2
1733102583.556009,0.0,False,-0.0014790103305131197,-0.0015361785190179944,0.15603052079677582,-1.0,100,16.2,0,0,False,,,,0,0,3,10,0.0036805837880820036,8,28.512,,39.9526378,,-113.475976,False,0.01600000000325963,28.499,,39.9526379,,-113.4759759,-0.012,,39.9526379,,-113.4759759,0.01001586951315403,-0.01219022087752819,0.005730916745960712,unknown,LOITER,,,,,,STANDBY,1733102578.7764628,0.0,0.0,0.0,12,1,15,2,17760768,0,2
1733102583.6653306,0.0,False,-0.0011112326756119728,-0.001478997408412397,0.15602955222129822,-1.0,100,16.2,0,0,False,,,,0,0,3,10,0.00510447658598423,8,28.512,,39.9526378,,-113.475976,False,0.125,28.499,,39.9526379,,-113.4759759,-0.012,,39.9526379,,-113.4759759,0.009492690674960613,-0.012624017894268036,0.00619133934378624,unknown,LOITER,,,,,,STANDBY,4.8888678550720215,0.0,0.0,0.0,12,1,15,2,17760768,0,2
1733102583.7733052,0.0,False,-0.0010645195143297315,-0.0014943479327484965,0.15591898560523987,-1.0,100,16.2,0,0,False,,,,0,0,3,10,0.005407443270087242,8,28.512,,39.9526378,,-113.475976,False,0.23399999999674037,28.5,,39.9526379,,-113.4759759,-0.011,,39.9526379,,-113.4759759,0.009129215963184834,-0.012868741527199745,0.006637866143137217,unknown,LOITER,,,,,,STANDBY,1733102578.8844373,0.0,0.0,0.0,12,1,15,2,17760768,0,2
1733102583.881992,0.0,False,-0.0011426998535171151,-0.0018436844693496823,0.15602582693099976,-1.0,100,16.2,0,0,False,,,,0,0,3,10,0.005794452037662268,8,28.512,,39.9526378,,-113.475976,False,0.34399999998277053,28.5,,39.9526379,,-113.4759759,-0.011,,39.9526379,,-113.4759759,0.00869812536984682,-0.012752455659210682,0.007267828099429607,unknown,LOITER,,,,,,STANDBY,4.997554779052734,0.0,0.0,0.0,12,1,15,2,17760768,0,2
1733102583.9910004,0.0,False,-0.0014087521703913808,-0.002111790468916297,0.15627911686897278,-1.0,100,16.2,0,0,False,,,,0,0,3,10,0.007974459789693356,8,28.512,,39.9526378,,-113.475976,False,0.4529999999795109,28.501,,39.9526379,,-113.4759759,-0.011,,39.9526379,,-113.4759759,0.008301730267703533,-0.012682527303695679,0.007964621298015118,unknown,LOITER,,,,,,STANDBY,1733102578.9934456,0.0,0.0,0.0,12,1,15,2,17760768,0,2
1733102584.0980275,0.0,False,-0.0014068286400288343,-0.0021398323588073254,0.15645825862884521,-1.0,100,16.2,0,0,False,,,,0,0,3,10,0.007343695964664221,8,28.512,,39.9526378,,-113.475976,False,0.5619999999762513,28.501,,39.9526379,,-113.4759759,-0.01,,39.9526379,,-113.4759759,0.008005372248589993,-0.012735644355416298,0.008557930588722229,unknown,LOITER,,,,,,STANDBY,5.104581832885742,0.0,0.0,0.0,12,1,15,2,17760768,0,2
1733102584.2052581,0.0,False,-0.0012994888238608837,-0.0019830958917737007,0.1561361700296402,-1.0,100,16.2,0,0,False,,,,0,0,3,10,0.007343695964664221,8,28.512,,39.9526378,,-113.475976,False,0.6560000000172295,28.501,,39.9526379,,-113.4759759,-0.01,,39.9526379,,-113.4759759,0.00774841895326972,-0.013063760474324226,0.008929441682994366,unknown,LOITER,,,,,,STANDBY,1733102579.1006763,0.0,0.0,0.0,12,1,15,2,17760768,0,2
1733102584.3142292,0.0,False,-0.001177825266495347,-0.0020362655632197857,0.1558760404586792,-1.0,100,16.2,0,0,False,,,,0,0,3,10,0.009831494651734829,8,28.512,,39.9526378,,-113.475976,False,0.7810000000172295,28.501,,39.9526379,,-113.4759759,-0.01,,39.9526379,,-113.4759759,0.007526753470301628,-0.013519024476408958,0.009043662808835506,unknown,LOITER,,,,,,STANDBY,5.213552951812744,0.0,0.0,0.0,12,1,15,2,17760768,0,2
1733102584.423231,0.0,False,-0.0011547066969797015,-0.001906961784698069,0.15569394826889038,-1.0,100,16.2,0,0,False,,,,0,0,3,10,0.011558370664715767,8,28.512,,39.9526378,,-113.475976,False,0.8910000000032596,28.502,,39.9526379,,-113.4759759,-0.009,,39.9526379,,-113.4759759,0.007152180653065443,-0.01438282709568739,0.008912570774555206,unknown,LOITER,,,,,,STANDBY,1733102579.209678,0.0,-0.01,0.0,12,1,15,2,17760768,0,2
1733102584.5322604,0.0,False,-0.0011422797106206417,-0.002153840847313404,0.1557726114988327,-1.0,100,16.2,0,0,False,,,,0,0,3,10,0.012992149218916893,8,28.512,,39.9526378,,-113.475976,False,1.0,28.502,,39.9526379,,-113.4759759,-0.009,,39.9526379,,-113.4759759,0.006866383831948042,-0.015133212320506573,0.008734134957194328,unknown,LOITER,,,,,,STANDBY,5.322582483291626,0.0,-0.01,0.0,12,1,15,2,17760768,0,2
1733102584.6432478,0.0,False,-0.001491975737735629,-0.002128627384081483,0.15575827658176422,-1.0,100,16.2,0,0,False,,,,0,0,3,10,0.015816839411854744,8,28.512,,39.9526378,,-113.475976,False,0.09299999999348074,28.502,,39.9526379,,-113.4759759,-0.009,,39.9526379,,-113.4759759,0.006592517253011465,-0.016008606180548668,0.008741729892790318,unknown,LOITER,,,,,,STANDBY,1733102579.3206654,0.0,-0.01,0.0,12,1,15,2,17760768,0,2
1733102584.7488747,0.0,False,-0.0014630493242293596,-0.0019393255934119225,0.15584558248519897,-1.0,100,16.2,0,0,False,,,,0,0,3,10,0.015764428302645683,8,28.512,,39.9526378,,-113.475976,False,0.10999999998603016,28.502,,39.9526379,,-113.4759759,-0.009,,39.9526379,,-113.4759759,0.0063886926509439945,-0.016926512122154236,0.008905037306249142,unknown,LOITER,,,,,,STANDBY,5.42820930480957,0.0,-0.01,0.0,12,1,15,2,17760768,0,2
1733102584.8590367,0.0,False,-0.0014358420157805085,-0.0015148407546803355,0.15614956617355347,-1.0,100,16.2,0,0,False,,,,0,0,3,10,0.016279486939311028,8,28.512,,39.9526378,,-113.475976,False,0.21899999998277053,28.503,,39.9526379,,-113.475976,-0.008,,39.9526379,,-113.475976,0.006204592064023018,-0.01793801039457321,0.009036547504365444,unknown,LOITER,,,,,,STANDBY,1733102579.4308274,0.0,-0.01,0.0,12,1,15,2,17760768,0,2
1733102584.965009,0.0,False,-0.0017193217063322663,-0.001593374297954142,0.15578977763652802,-1.0,100,16.2,0,0,False,,,,0,0,3,10,0.017093298956751823,8,28.512,,39.9526378,,-113.475976,False,0.3279999999795109,28.503,,39.9526379,,-113.475976,-0.009,,39.9526379,,-113.475976,0.006244435906410217,-0.018708236515522003,0.009247863665223122,unknown,LOITER,,,,,,STANDBY,5.534181594848633,0.01,-0.01,0.0,12,1,15,2,17760768,0,2
1733102585.073593,0.0,False,-0.0021581777837127447,-0.0014890470774844289,0.1557237207889557,-1.0,100,16.2,0,0,False,,,,0,0,3,10,0.017328808084130287,8,28.512,,39.9526378,,-113.475976,False,0.4220000000204891,28.502,,39.9526379,,-113.475976,-0.009,,39.9526379,,-113.475976,0.006406586617231369,-0.019350668415427208,0.009471716359257698,unknown,LOITER,,,,,,STANDBY,1733102579.5394113,0.0,-0.01,0.0,12,1,15,2,17760768,0,2
1733102585.1816082,0.0,False,-0.0021186175290495157,-0.0010914228623732924,0.15577983856201172,-1.0,100,16.2,0,0,False,,,,0,0,3,10,0.01628129743039608,8,28.512,,39.9526378,,-113.475976,False,0.5320000000065193,28.502,,39.9526379,,-113.475976,-0.009,,39.9526379,,-113.475976,0.006682554259896278,-0.019834179431200027,0.009659151546657085,unknown,LOITER,,,,,,STANDBY,5.642196893692017,0.0,-0.01,0.0,12,1,15,2,17760768,0,2
1733102585.2895942,0.0,False,-0.002136501483619213,-0.0007764307665638626,0.15566521883010864,-1.0,100,16.2,0,0,False,,,,0,0,3,10,0.015718627721071243,8,28.512,,39.9526378,,-113.475976,False,0.6410000000032596,28.502,,39.9526379,,-113.475976,-0.009,,39.9526379,,-113.475976,0.006747996900230646,-0.020095597952604294,0.009777076542377472,unknown,LOITER,,,,,,STANDBY,1733102579.6473973,0.0,-0.01,0.0,12,1,15,2,17760768,0,2
1733102585.3985944,0.0,False,-0.0023345863446593285,-0.0008624739130027592,0.15545378625392914,-1.0,100,16.2,0,0,False,,,,0,0,3,10,0.014233637601137161,8,28.512,,39.9526378,,-113.475976,False,0.75,28.502,,39.9526379,,-113.475976,-0.009,,39.9526379,,-113.475976,0.006781403440982103,-0.020375771448016167,0.009926698170602322,unknown,LOITER,,,,,,STANDBY,5.751197099685669,0.0,-0.01,0.0,12,1,15,2,17760768,0,2
1733102585.505593,0.0,False,-0.0024653235450387,-0.0008414014591835439,0.1556154042482376,-1.0,100,16.2,0,0,False,,,,0,0,3,10,0.014192966744303703,8,28.512,,39.9526378,,-113.475976,False,0.8599999999860302,28.502,,39.9526379,,-113.475976,-0.009,,39.9526379,,-113.475976,0.006848928518593311,-0.02049900032579899,0.010012634098529816,unknown,LOITER,,,,,,STANDBY,1733102579.754396,0.0,-0.01,0.0,12,1,15,2,17760768,0,2
1733102585.6155934,0.0,False,-0.0024086041375994682,-0.0010485927341505885,0.1558530330657959,-1.0,100,16.2,0,0,False,,,,0,0,3,10,0.01485169306397438,8,28.512,,39.9526378,,-113.475976,False,0.9689999999827705,28.502,,39.9526379,,-113.475976,-0.009,,39.9526379,,-113.475976,0.007101134397089481,-0.020597433671355247,0.010187320411205292,unknown,LOITER,,,,,,STANDBY,5.861197471618652,0.01,-0.01,0.0,12,1,15,2,17760768,0,2
1733102594.1939108,0.0,False,-0.0008351177093572915,0.0010373732075095177,0.15516148507595062,-1.0,100,16.2,0,0,False,,,,0,0,3,10,0.016824696213006973,8,28.512,,39.9526378,,-113.475976,False,0.6560000000172295,28.499,,39.9526379,,-113.4759758,-0.012,,39.9526379,,-113.4759758,0.010137124918401241,-0.007691505365073681,0.003192649455741048,unknown,LOITER,,,,,,STANDBY,1733102588.3327134,0.0,0.01,0.0,12,1,15,2,17760768,0,2
1733102594.3009093,0.0,False,-0.0010999867226928473,0.0011011353926733136,0.15522576868534088,-1.0,100,16.2,0,0,False,,,,0,0,3,10,0.01675575226545334,8,28.512,,39.9526378,,-113.475976,False,0.7660000000032596,28.499,,39.9526379,,-113.4759758,-0.012,,39.9526379,,-113.4759758,0.009672917425632477,-0.007360685616731644,0.003271393710747361,unknown,LOITER,,,,,,STANDBY,5.968195915222168,0.0,0.01,0.0,12,1,15,2,17760768,0,2
1733102594.4089088,0.0,False,-0.0008939800900407135,0.0010830756509676576,0.15494973957538605,-1.0,100,16.2,0,0,False,,,,0,0,3,10,0.016772950068116188,8,28.512,,39.9526378,,-113.475976,False,0.875,28.5,,39.9526379,,-113.4759758,-0.012,,39.9526379,,-113.4759758,0.009330990724265575,-0.006742095109075308,0.0034366699401289225,unknown,LOITER,,,,,,STANDBY,1733102588.440713,0.0,0.01,0.0,12,1,15,2,17760768,0,2
1733102594.5171356,0.0,False,-0.0007343619945459068,0.0010590386809781194,0.15494590997695923,-1.0,100,16.2,0,0,False,,,,0,0,3,10,0.018959002569317818,8,28.512,,39.9526378,,-113.475976,False,0.9839999999967404,28.5,,39.9526379,,-113.4759758,-0.011,,39.9526379,,-113.4759758,0.009176732040941715,-0.00568254804238677,0.00354325701482594,unknown,LOITER,,,,,,STANDBY,6.076422691345215,0.0,0.01,0.0,12,1,15,2,17760768,0,2
1733102594.6279147,0.0,False,-0.001002027653157711,0.0008287772652693093,0.15513522922992706,-1.0,100,16.2,0,0,False,,,,0,0,3,10,0.01902802474796772,8,28.512,,39.9526378,,-113.475976,False,0.0779999999795109,28.5,,39.9526379,,-113.4759758,-0.011,,39.9526379,,-113.4759758,0.009088865481317043,-0.00494319899007678,0.0034603551030158997,unknown,LOITER,,,,,,STANDBY,1733102588.551492,0.0,0.01,0.0,12,1,15,2,17760768,0,2
1733102594.7355065,0.0,False,-0.0012138579040765762,0.0010625210124999285,0.1553756147623062,-1.0,100,16.2,0,0,False,,,,0,0,3,10,0.018822776153683662,8,28.512,,39.9526378,,-113.475976,False,0.0779999999795109,28.5,,39.9526379,,-113.4759758,-0.011,,39.9526379,,-113.4759758,0.009066485799849033,-0.004532895050942898,0.0032634239178150892,unknown,LOITER,,,,,,STANDBY,6.184014558792114,0.0,0.01,0.0,12,1,15,2,17760768,0,2
1733102594.8451881,0.0,False,-0.0011565571185201406,0.001149931806139648,0.155557781457901,-1.0,100,16.2,0,0,False,,,,0,0,3,10,0.01743898168206215,8,28.512,,39.9526378,,-113.475976,False,0.2029999999795109,28.5,,39.9526379,,-113.4759758,-0.011,,39.9526379,,-113.4759758,0.008876272477209568,-0.004358981270343065,0.0029717860743403435,unknown,LOITER,,,,,,STANDBY,1733102588.6611736,0.0,0.01,0.0,12,1,15,2,17760768,0,2
1733102594.954186,0.0,False,-0.0012370927724987268,0.0010510365245863795,0.15525241196155548,-1.0,100,16.2,0,0,False,,,,0,0,3,10,0.017803896218538284,8,28.512,,39.9526378,,-113.475976,False,0.3130000000237487,28.5,,39.9526379,,-113.4759758,-0.011,,39.9526379,,-113.4759758,0.008297700434923172,-0.004048842471092939,0.0025572902522981167,unknown,LOITER,,,,,,STANDBY,6.293012380599976,0.0,0.01,0.0,12,1,15,2,17760768,0,2
1733102595.0631998,0.0,False,-0.0011763712391257286,0.001055743545293808,0.1552497297525406,-1.0,100,16.2,0,0,False,,,,0,0,3,10,0.018127089366316795,8,28.512,,39.9526378,,-113.475976,False,0.40700000000651926,28.501,,39.9526379,,-113.4759758,-0.01,,39.9526379,,-113.4759758,0.007799583021551371,-0.0035733694676309824,0.002391360467299819,unknown,LOITER,,,,,,STANDBY,1733102588.7701874,0.0,0.01,0.0,12,1,15,2,17760768,0,2
1733102595.1711864,0.0,False,-0.0014327671378850937,0.0011951663764193654,0.15521149337291718,-1.0,100,16.2,0,0,False,,,,0,0,3,10,0.020891496911644936,8,28.512,,39.9526378,,-113.475976,False,0.5320000000065193,28.502,,39.9526379,,-113.4759758,-0.009,,39.9526379,,-113.4759758,0.007199413143098354,-0.0026544895954430103,0.0024888564366847277,unknown,LOITER,,,,,,STANDBY,6.400999069213867,0.0,0.01,0.0,12,1,15,2,17760768,0,2
1733102595.2801857,0.0,False,-0.0015857277903705835,0.0011629522778093815,0.15544840693473816,-1.0,100,16.2,0,0,False,,,,0,0,3,10,0.019714655354619026,8,28.512,,39.9526378,,-113.475976,False,0.625,28.502,,39.9526379,,-113.4759758,-0.009,,39.9526379,,-113.4759758,0.0066686999052762985,-0.0019140510121360421,0.0025154389441013336,unknown,LOITER,,,,,,STANDBY,1733102588.8791866,0.0,0.02,0.0,12,1,15,2,17760768,0,2
1733102595.3892553,0.0,False,-0.0014941372210159898,0.0012657268671318889,0.15554992854595184,-1.0,100,16.2,0,0,False,,,,0,0,3,10,0.021070050075650215,8,28.512,,39.9526378,,-113.475976,False,0.7349999999860302,28.503,,39.9526379,,-113.4759758,-0.009,,39.9526379,,-113.4759758,0.006188839208334684,-0.0013941023498773575,0.002329820767045021,unknown,LOITER,,,,,,STANDBY,6.510068655014038,0.0,0.02,0.0,12,1,15,2,17760768,0,2
1733102595.4982557,0.0,False,-0.0015390217304229736,0.0014645742485299706,0.15549439191818237,-1.0,100,16.2,0,0,False,,,,0,0,3,10,0.021689653396606445,8,28.512,,39.9526378,,-113.475976,False,0.8599999999860302,28.503,,39.9526379,,-113.4759758,-0.008,,39.9526379,,-113.4759758,0.005783934611827135,-0.0009082840988412499,0.0023299474269151688,unknown,LOITER,,,,,,STANDBY,1733102588.988187,0.0,0.02,0.0,12,1,15,2,17760768,0,2
1733102595.606255,0.0,False,-0.0014297766610980034,0.0015737117500975728,0.15535904467105865,-1.0,100,16.2,0,0,False,,,,0,0,3,10,0.023607324808835983,8,28.512,,39.9526378,,-113.475976,False,0.9529999999795109,28.503,,39.9526379,,-113.4759758,-0.008,,39.9526379,,-113.4759758,0.005329061299562454,-8.774485468165949e-05,0.0023573357611894608,unknown,LOITER,,,,,,STANDBY,6.618067979812622,0.0,0.02,0.0,12,1,15,2,17760768,0,2
1733102595.7152557,0.0,False,-0.001160943997092545,0.0016477586468681693,0.1549593210220337,-1.0,100,16.2,0,0,False,,,,0,0,3,10,0.025630762800574303,8,28.512,,39.9526378,,-113.475976,False,0.0470000000204891,28.504,,39.9526379,,-113.4759757,-0.007,,39.9526379,,-113.4759757,0.004766913130879402,0.0007502383086830378,0.0024165785871446133,unknown,LOITER,,,,,,STANDBY,1733102589.0971878,0.0,0.02,0.0,12,1,15,2,17760768,0,2
1733102595.8233967,0.0,False,-0.0011539102997630835,0.0016831356333568692,0.15522252023220062,-1.0,100,16.2,0,0,False,,,,0,0,3,10,0.026540076360106468,8,28.512,,39.9526378,,-113.475976,False,0.062000000034458935,28.505,,39.9526379,,-113.4759757,-0.006,,39.9526379,,-113.4759757,0.004081395920366049,0.0016096526524052024,0.002531585982069373,unknown,LOITER,,,,,,STANDBY,6.726208925247192,0.0,0.02,0.0,12,1,15,2,17760768,0,2
1733102595.9333992,0.0,False,-0.0008572235819883645,0.0015705066034570336,0.1550920158624649,-1.0,100,16.2,0,0,False,,,,0,0,3,10,0.027103135362267494,8,28.512,,39.9526378,,-113.475976,False,0.1720000000204891,28.505,,39.9526379,,-113.4759757,-0.006,,39.9526379,,-113.4759757,0.0035143534187227488,0.00243482762016356,0.002817668253555894,unknown,LOITER,,,,,,STANDBY,1733102589.2071903,0.0,0.02,0.0,12,1,15,2,17760768,0,2
1733102596.0423975,0.0,False,-0.0009555933647789061,0.0015959120355546474,0.15517668426036835,-1.0,100,16.2,0,0,False,,,,0,0,3,10,0.02689543552696705,8,28.512,,39.9526378,,-113.475976,False,0.28100000001722947,28.506,,39.9526379,,-113.4759757,-0.005,,39.9526379,,-113.4759757,0.0031201625242829323,0.0031504747457802296,0.0028839835431426764,unknown,LOITER,,,,,,STANDBY,6.835207223892212,0.0,0.02,0.0,12,1,15,2,17760768,0,2
1733102596.153435,0.0,False,-0.0013186014257371426,0.0017963568679988384,0.15578316152095795,-1.0,100,16.2,0,0,False,,,,0,0,3,10,0.02831697277724743,8,28.512,,39.9526378,,-113.475976,False,0.40600000001722947,28.506,,39.9526379,,-113.4759757,-0.005,,39.9526379,,-113.4759757,0.002859978936612606,0.0037560295313596725,0.0029873100575059652,unknown,LOITER,,,,,,STANDBY,1733102589.3182278,0.0,0.02,0.0,12,1,15,2,17760768,0,2
1733102596.2593982,0.0,False,-0.001158824423328042,0.001451227581128478,0.1559133678674698,-1.0,100,16.2,0,0,False,,,,0,0,3,10,0.02875138632953167,8,28.512,,39.9526378,,-113.475976,False,0.5,28.506,,39.9526379,,-113.4759757,-0.005,,39.9526379,,-113.4759757,0.002630061935633421,0.004214285407215357,0.0029679664876312017,unknown,LOITER,,,,,,STANDBY,6.9411704540252686,0.0,0.02,0.0,12,1,15,2,17760768,0,2
1733102596.3694263,0.0,False,-0.0010243648430332541,0.0013006452936679125,0.155936136841774,-1.0,100,16.2,0,0,False,,,,0,0,3,10,0.028684137389063835,8,28.512,,39.9526378,,-113.475976,False,0.6089999999967404,28.507,,39.9526379,,-113.4759757,-0.005,,39.9526379,,-113.4759757,0.002329479204490781,0.004439218435436487,0.003023429773747921,unknown,LOITER,,,,,,STANDBY,1733102589.4282558,0.0,0.02,0.0,12,1,15,2,17760768,0,2
1733102596.4774377,0.0,False,-0.0011166331823915243,0.0010084985988214612,0.15577690303325653,-1.0,100,16.2,0,0,False,,,,0,0,3,10,0.028566677123308182,8,28.512,,39.9526378,,-113.475976,False,0.7179999999934807,28.507,,39.9526379,,-113.4759757,-0.004,,39.9526379,,-113.4759757,0.002101355930790305,0.004576107487082481,0.003127787262201309,unknown,LOITER,,,,,,STANDBY,7.049181938171387,0.0,0.02,0.0,12,1,15,2,17760768,0,2
1733102596.5843978,0.0,False,-0.0011651215609163046,0.0008072269847616553,0.15550516545772552,-1.0,100,16.2,0,0,False,,,,0,0,3,10,0.027650365605950356,8,28.512,,39.9526378,,-113.475976,False,0.8280000000377186,28.507,,39.9526379,,-113.4759757,-0.004,,39.9526379,,-113.4759757,0.0018295911140739918,0.004627951420843601,0.003176400437951088,unknown,LOITER,,,,,,STANDBY,1733102589.5352159,0.0,0.02,0.0,12,1,15,2,17760768,0,2
1733102596.6953979,0.0,False,-0.001142025925219059,0.0008263821364380419,0.15567414462566376,-1.0,100,16.2,0,0,False,,,,0,0,3,10,0.0269657950848341,8,28.512,,39.9526378,,-113.475976,False,0.9370000000344589,28.508,,39.9526379,,-113.4759757,-0.004,,39.9526379,,-113.4759757,0.0012666373513638973,0.004631382413208485,0.003258851822465658,unknown,LOITER,,,,,,STANDBY,7.160181999206543,0.0,0.02,0.0,12,1,15,2,17760768,0,2
1733102596.8033354,0.0,False,-0.0010548571590334177,0.001223231665790081,0.15606717765331268,-1.0,100,16.2,0,0,False,,,,0,0,3,10,0.026330135762691498,8,28.512,,39.9526378,,-113.475976,False,0.03200000000651926,28.508,,39.9526379,,-113.4759757,-0.003,,39.9526379,,-113.4759757,0.000588323047850281,0.004695044364780188,0.003445459296926856,unknown,LOITER,,,,,,STANDBY,1733102589.6431534,0.0,0.02,0.0,12,1,15,2,17760768,0,2
1733102596.911317,0.0,False,-0.0011253097327426076,0.0011613875394687057,0.15623895823955536,-1.0,100,16.2,0,0,False,,,,0,0,3,10,0.0265255905687809,8,28.512,,39.9526378,,-113.475976,False,0.0470000000204891,28.509,,39.9526379,,-113.4759757,-0.002,,39.9526379,,-113.4759757,-0.00021849782206118107,0.0046801259741187096,0.0037093283608555794,unknown,LOITER,,,,,,STANDBY,7.268163681030273,0.0,0.02,0.0,12,1,15,2,17760768,0,2
1733102597.0193186,0.0,False,-0.0010798141593113542,0.00092937215231359,0.15629743039608002,-1.0,100,16.2,0,0,False,,,,0,0,3,10,0.027484634891152382,8,28.512,,39.9526378,,-113.475976,False,0.15600000001722947,28.51,,39.9526379,,-113.4759757,-0.002,,39.9526379,,-113.4759757,-0.0007139979861676693,0.0047877077013254166,0.004015907645225525,unknown,LOITER,,,,,,STANDBY,1733102589.751155,0.0,0.02,0.0,12,1,15,2,17760768,0,2
1733102597.1293464,0.0,False,-0.0009714743355289102,0.0007892122957855463,0.15624946355819702,-1.0,100,16.2,0,0,False,,,,0,0,3,10,0.028214531019330025,8,28.512,,39.9526378,,-113.475976,False,0.26600000000325963,28.51,,39.9526379,,-113.4759757,-0.001,,39.9526379,,-113.4759757,-0.001090028090402484,0.004899059422314167,0.004358663689345121,unknown,LOITER,,,,,,STANDBY,7.3781914710998535,0.0,0.02,0.0,12,1,15,2,17760768,0,2
1733102597.2365694,0.0,False,-0.0007907590479589999,0.0007627371232956648,0.15610572695732117,-1.0,100,16.2,0,0,False,,,,0,0,3,10,0.027354592457413673,8,28.512,,39.9526378,,-113.475976,False,0.375,28.51,,39.9526379,,-113.4759757,-0.001,,39.9526379,,-113.4759757,-0.0012101391330361366,0.004907974973320961,0.004696669988334179,unknown,LOITER,,,,,,STANDBY,1733102589.858378,0.0,0.02,0.0,12,1,15,2,17760768,0,2
1733102597.346317,0.0,False,-0.0008884618291631341,0.0007420185720548034,0.1557457000017166,-1.0,100,16.2,0,0,False,,,,0,0,3,10,0.027608051896095276,8,28.512,,39.9526378,,-113.475976,False,0.48399999999674037,28.51,,39.9526379,,-113.4759757,-0.001,,39.9526379,,-113.4759757,-0.0010353884426876903,0.00481969490647316,0.005195710342377424,unknown,LOITER,,,,,,STANDBY,7.487939119338989,0.0,0.02,0.0,12,1,15,2,17760768,0,2
1733102597.4543176,0.0,False,-0.0010137931676581502,0.0011866597924381495,0.15563754737377167,-1.0,100,16.2,0,0,False,,,,0,0,3,10,0.02715485356748104,8,28.512,,39.9526378,,-113.475976,False,0.5940000000409782,28.51,,39.9526379,,-113.4759757,-0.001,,39.9526379,,-113.4759757,-0.0010528810089454055,0.004684073850512505,0.005634359084069729,unknown,LOITER,,,,,,STANDBY,1733102589.9663785,0.0,0.02,0.0,12,1,15,2,17760768,0,2
