timestamp,airspeed,armed,attitude.pitch,attitude.roll,attitude.yaw,battery.current,battery.level,battery.voltage,commands.count,commands.next,ekf_ok,gimbal.pitch,gimbal.roll,gimbal.yaw,gps_0.eph,gps_0.epv,gps_0.fix_type,gps_0.satellites_visible,groundspeed,heading,home_location.alt,home_location.global_frame,home_location.lat,home_location.local_frame,home_location.lon,is_armable,last_heartbeat,location.global_frame.alt,location.global_frame.global_frame,location.global_frame.lat,location.global_frame.local_frame,location.global_frame.lon,location.global_relative_frame.alt,location.global_relative_frame.global_frame,location.global_relative_frame.lat,location.global_relative_frame.local_frame,location.global_relative_frame.lon,location.local_frame.down,location.local_frame.east,location.local_frame.north,ml_verdict,mode.name,mount_status[0],mount_status[1],mount_status[2],rangefinder.distance,rangefinder.voltage,system_status.state,timedelta,velocity[0],velocity[1],velocity[2],version.autopilot_type,version.major,version.minor,version.patch,version.raw_version,version.release,version.vehicle_type
1733423931.8664463,0.0,True,0.0006060433806851506,-0.0032044188119471073,0.8375691175460815,-1.0,100,16.186,0,0,False,,,,0,0,3,10,0.004491013940423727,47,28.502,,39.9526383,,-113.4759752,False,0.012794892012607306,28.503,,39.9526382,,-113.4759752,0.001,,39.9526382,,-113.4759752,-0.004729253705590963,0.07347321510314941,0.03288218751549721,-1,MISSION,,,,,,ACTIVE,2056.8870141506195,0.0,0.0,0.0,12,1,15,0,17760384,128,2
1733423931.9614806,0.0,True,0.0005539781996048987,-0.0032596790697425604,0.837602972984314,-1.0,100,16.186,0,0,False,,,,0,0,3,10,0.004491013940423727,47,28.502,,39.9526383,,-113.4759752,False,0.10222218499984592,28.504,,39.9526382,,-113.4759752,0.001,,39.9526382,,-113.4759752,-0.0048859743401408195,0.07353708893060684,0.032559193670749664,-1,MISSION,,,,,,ACTIVE,1733421875.0744665,0.0,0.0,0.0,12,1,15,0,17760384,128,2
1733423932.0612257,0.0,True,0.0006932709948159754,-0.003262072568759322,0.8375473022460938,-1.0,100,16.183,0,0,False,,,,0,0,3,10,0.0037047178484499454,47,28.502,,39.9526383,,-113.4759752,False,0.10335414699511603,28.504,,39.9526382,,-113.4759752,0.001,,39.9526382,,-113.4759752,-0.005045778583735228,0.07363241910934448,0.032308172434568405,-1,MISSION,,,,,,ACTIVE,2056.986759185791,0.0,0.0,0.0,12,1,15,0,17760384,128,2
1733423932.1612692,0.0,True,0.0006702791433781385,-0.003183366497978568,0.8375868201255798,-1.0,100,16.183,0,0,False,,,,0,0,3,10,0.0033193808048963547,47,28.502,,39.9526383,,-113.4759752,False,0.20456795099016745,28.504,,39.9526382,,-113.4759752,0.001,,39.9526382,,-113.4759752,-0.005103478208184242,0.07371625304222107,0.03218752145767212,-1,MISSION,,,,,,ACTIVE,1733421875.17451,0.0,0.0,0.0,12,1,15,0,17760384,128,2
1733423932.264746,0.0,True,0.00037438678555190563,-0.003352354047819972,0.8374967575073242,-1.0,100,16.177,0,0,False,,,,0,0,3,10,0.002293806988745928,47,28.502,,39.9526383,,-113.4759752,False,0.30770369499805383,28.504,,39.9526382,,-113.4759752,0.001,,39.9526382,,-113.4759752,-0.005122133996337652,0.07355116307735443,0.03215758875012398,-1,MISSION,,,,,,ACTIVE,2057.0902359485626,0.0,0.0,0.0,12,1,15,0,17760384,128,2
1733423932.3740175,0.0,True,0.00028604292310774326,-0.0033037166576832533,0.8375581502914429,-1.0,100,16.177,0,0,False,,,,0,0,3,10,0.0028598748613148928,47,28.502,,39.9526383,,-113.4759752,False,0.4180901749932673,28.504,,39.9526382,,-113.4759752,0.001,,39.9526382,,-113.4759752,-0.005041277967393398,0.07332032173871994,0.03229665756225586,-1,MISSION,,,,,,ACTIVE,1733421875.2837815,0.0,0.0,0.0,12,1,15,0,17760384,128,2
1733423932.4757595,0.0,True,-7.242849096655846e-05,-0.0033562597818672657,0.8376809358596802,-1.0,100,16.172,0,0,False,,,,0,0,3,10,0.0027035970706492662,48,28.502,,39.9526383,,-113.4759752,False,0.5195347779954318,28.504,,39.9526382,,-113.4759752,0.001,,39.9526382,,-113.4759752,-0.00485248863697052,0.07310160994529724,0.03237451985478401,-1,MISSION,,,,,,ACTIVE,2057.1919779777527,0.0,0.0,0.0,12,1,15,0,17760384,128,2
1733423932.5740178,0.0,True,7.972470484673977e-05,-0.00331768486648798,0.8378065824508667,-1.0,100,16.172,0,0,False,,,,0,0,3,10,0.004345104098320007,48,28.502,,39.9526383,,-113.4759752,False,0.6124235460010823,28.503,,39.9526382,,-113.4759752,0.0,,39.9526382,,-113.4759752,-0.0044909026473760605,0.07290862500667572,0.032391589134931564,-1,MISSION,,,,,,ACTIVE,1733421875.3820398,0.0,0.0,0.0,12,1,15,0,17760384,128,2
1733423932.6734855,0.0,True,0.00020733906421810389,-0.003182619111612439,0.8378274440765381,-1.0,100,16.172,0,0,False,,,,0,0,3,10,0.004345104098320007,48,28.502,,39.9526383,,-113.4759752,False,0.7160618889902253,28.503,,39.9526382,,-113.4759752,0.0,,39.9526382,,-113.4759752,-0.003962364047765732,0.0728406086564064,0.0324791856110096,-1,MISSION,,,,,,ACTIVE,2057.2914457321167,0.0,0.0,0.0,12,1,15,0,17760384,128,2
1733423932.7744832,0.0,True,0.00046344471047632396,-0.0031451191753149033,0.8378445506095886,-1.0,100,16.166,0,0,False,,,,0,0,3,10,0.00599794602021575,48,28.502,,39.9526383,,-113.4759752,False,0.8186729779990856,28.502,,39.9526382,,-113.4759752,0.0,,39.9526382,,-113.4759752,-0.0032443387899547815,0.07304675877094269,0.03264019265770912,-1,MISSION,,,,,,ACTIVE,1733421875.4830375,0.0,0.0,0.0,12,1,15,0,17760384,128,2
1733423932.87891,0.0,True,0.0005197558784857392,-0.0030046708416193724,0.8379487991333008,-1.0,100,16.166,0,0,False,,,,0,0,3,10,0.006173889618366957,48,28.502,,39.9526383,,-113.4759752,False,0.9204984649986727,28.501,,39.9526382,,-113.4759752,0.0,,39.9526382,,-113.4759752,-0.002721112687140703,0.07322601974010468,0.032925549894571304,-1,MISSION,,,,,,ACTIVE,2057.395872592926,0.0,0.0,0.0,12,1,15,0,17760384,128,2
1733423932.9784665,0.0,True,0.0006089814123697579,-0.0031382294837385416,0.8379889130592346,-1.0,99,16.159,0,0,False,,,,0,0,3,10,0.005988332908600569,48,28.502,,39.9526383,,-113.4759752,False,1.019769003993133,28.501,,39.9526382,,-113.4759752,-0.001,,39.9526382,,-113.4759752,-0.00235180021263659,0.07347070425748825,0.03312116116285324,-1,MISSION,,,,,,ACTIVE,1733421875.582594,0.0,0.0,0.0,12,1,15,0,17760384,128,2
1733423933.078457,0.0,True,0.0007136991480365396,-0.003398883156478405,0.8381927013397217,-1.0,99,16.156,0,0,False,,,,0,0,3,10,0.0067354170605540276,48,28.502,,39.9526383,,-113.4759752,False,0.036518975990475155,28.501,,39.9526383,,-113.4759752,-0.001,,39.9526383,,-113.4759752,-0.002116743242368102,0.07394161075353622,0.03346410021185875,-1,MISSION,,,,,,ACTIVE,2057.495863199234,0.0,0.0,0.0,12,1,15,0,17760384,128,2
1733423933.178652,0.0,True,0.001022848067805171,-0.0035947845317423344,0.8383115530014038,-1.0,99,16.153,0,0,False,,,,0,0,3,10,0.008088074624538422,48,28.502,,39.9526383,,-113.4759752,False,0.02959356299834326,28.501,,39.9526383,,-113.4759752,-0.001,,39.9526383,,-113.4759752,-0.002179846167564392,0.0746329128742218,0.03361215814948082,-1,MISSION,,,,,,ACTIVE,1733421875.6827888,0.0,0.0,0.0,12,1,15,0,17760384,128,2
1733423933.2812874,0.0,True,0.0012656166218221188,-0.003183040302246809,0.8386321663856506,-1.0,99,16.153,0,0,False,,,,0,0,3,10,0.007916771806776524,48,28.502,,39.9526383,,-113.4759752,False,0.13349137600744143,28.501,,39.9526383,,-113.4759752,-0.001,,39.9526383,,-113.4759752,-0.002268100855872035,0.07526174932718277,0.03363015130162239,-1,MISSION,,,,,,ACTIVE,2057.59849858284,0.0,0.0,0.0,12,1,15,0,17760384,128,2
1733423933.378908,0.0,True,0.0012708604335784912,-0.003093608422204852,0.838918924331665,-1.0,99,16.148,0,0,False,,,,0,0,3,10,0.008198010735213757,48,28.502,,39.9526383,,-113.4759752,False,0.22977394200279377,28.501,,39.9526383,,-113.4759752,-0.001,,39.9526383,,-113.4759752,-0.002272968413308263,0.07602514326572418,0.03378607705235481,-1,MISSION,,,,,,ACTIVE,1733421875.7804093,0.0,0.0,0.0,12,1,15,0,17760384,128,2
1733423933.4848664,0.0,True,0.0013873509597033262,-0.003164112800732255,0.8388398289680481,-1.0,99,16.148,0,0,False,,,,0,0,3,10,0.008198010735213757,48,28.502,,39.9526383,,-113.4759752,False,0.3335428540012799,28.501,,39.9526383,,-113.4759751,0.0,,39.9526383,,-113.4759751,-0.002432909794151783,0.076783686876297,0.03392835333943367,-1,MISSION,,,,,,ACTIVE,2057.7044570446014,0.0,0.0,0.0,12,1,15,0,17760384,128,2
1733423933.5821033,0.0,True,0.0015482758171856403,-0.00316648930311203,0.83894282579422,-1.0,99,16.148,0,0,False,,,,0,0,3,10,0.008166533894836903,48,28.502,,39.9526383,,-113.4759752,False,0.4316644200007431,28.501,,39.9526383,,-113.4759751,0.0,,39.9526383,,-113.4759751,-0.0027282186783850193,0.07763845473527908,0.033952467143535614,-1,MISSION,,,,,,ACTIVE,1733421875.8776462,0.0,0.0,0.0,12,1,15,0,17760384,128,2
1733423933.682917,0.0,True,0.0014864973491057754,-0.0032809837721288204,0.8389192819595337,-1.0,99,16.141,0,0,False,,,,0,0,3,10,0.006716667674481869,48,28.502,,39.9526383,,-113.4759752,False,0.5341341629973613,28.502,,39.9526383,,-113.4759751,0.0,,39.9526383,,-113.4759751,-0.0029625387396663427,0.07826303690671921,0.03377893194556236,-1,MISSION,,,,,,ACTIVE,2057.805270910263,0.0,0.0,0.0,12,1,15,0,17760384,128,2
1733423933.7844777,0.0,True,0.0017157391412183642,-0.0031901125330477953,0.8389490246772766,-1.0,99,16.141,0,0,False,,,,0,0,3,10,0.005284837447106838,48,28.501,,39.9526383,,-113.4759752,False,0.6350970560015412,28.502,,39.9526382,,-113.4759751,0.0,,39.9526382,,-113.4759751,-0.003134627128019929,0.07848019152879715,0.03336126729846001,-1,MISSION,,,,,,ACTIVE,1733421875.9792068,0.0,0.0,0.0,12,1,15,0,17760384,128,2
1733423933.8865318,0.0,True,0.0017501474358141422,-0.003089300123974681,0.8389860391616821,-1.0,98,16.135,0,0,False,,,,0,0,3,10,0.0029791127890348434,48,28.501,,39.9526383,,-113.4759752,False,0.7372074890008662,28.502,,39.9526382,,-113.4759751,0.0,,39.9526382,,-113.4759751,-0.0033385304268449545,0.07839303463697433,0.03277871385216713,-1,MISSION,,,,,,ACTIVE,2057.907325029373,0.0,0.0,0.0,12,1,15,0,17760384,128,2
1733423933.9866662,0.0,True,0.0018344154814258218,-0.002969798631966114,0.8393101692199707,-1.0,98,16.135,0,0,False,,,,0,0,3,10,0.002208644524216652,48,28.501,,39.9526383,,-113.4759752,False,0.835780673995032,28.502,,39.9526382,,-113.4759751,0.001,,39.9526382,,-113.4759751,-0.003407534444704652,0.07828538119792938,0.032541144639253616,-1,MISSION,,,,,,ACTIVE,1733421876.0793412,0.0,0.0,0.0,12,1,15,0,17760384,128,2
1733423934.0866685,0.0,True,0.0019812490791082382,-0.0029325850773602724,0.839314877986908,-1.0,98,16.135,0,0,False,,,,0,0,3,10,0.002208644524216652,48,28.501,,39.9526383,,-113.4759752,False,0.9363828799978364,28.502,,39.9526382,,-113.4759751,0.0,,39.9526382,,-113.4759751,-0.003345278324559331,0.07823587954044342,0.032250337302684784,-1,MISSION,,,,,,ACTIVE,2058.0073273181915,0.0,0.0,0.0,12,1,15,0,17760384,128,2
1733423934.1872025,0.0,True,0.002319373656064272,-0.003078655106946826,0.8391810655593872,-1.0,98,16.13,0,0,False,,,,0,0,3,10,0.0027094476390630007,48,28.501,,39.9526383,,-113.4759752,False,1.0386894620023668,28.502,,39.9526382,,-113.4759751,0.0,,39.9526382,,-113.4759751,-0.0032072446774691343,0.07826131582260132,0.031859610229730606,-1,MISSION,,,,,,ACTIVE,1733421876.1798751,0.0,0.0,0.0,12,1,15,0,17760384,128,2
1733423934.2888653,0.0,True,0.0022723651491105556,-0.002933243988081813,0.8390834331512451,-1.0,98,16.126,0,0,False,,,,0,0,3,10,0.003302939236164093,48,28.501,,39.9526383,,-113.4759752,False,0.0759395719942404,28.502,,39.9526382,,-113.4759751,0.0,,39.9526382,,-113.4759751,-0.0029632344376295805,0.07814271003007889,0.031488437205553055,-1,MISSION,,,,,,ACTIVE,2058.1089901924133,0.0,0.0,0.0,12,1,15,0,17760384,128,2
1733423934.3890374,0.0,True,0.0024568240623921156,-0.00259311031550169,0.8387159109115601,-1.0,98,16.124,0,0,False,,,,0,0,3,10,0.004722976591438055,48,28.501,,39.9526383,,-113.4759752,False,0.06651878599950578,28.501,,39.9526382,,-113.4759751,0.0,,39.9526382,,-113.4759751,-0.002669069916009903,0.07791689038276672,0.031104229390621185,-1,MISSION,,,,,,ACTIVE,1733421876.2800472,0.0,0.0,0.0,12,1,15,0,17760384,128,2
1733423934.4910467,0.0,True,0.002492851810529828,-0.0023350969422608614,0.8383321166038513,-1.0,98,16.124,0,0,False,,,,0,0,3,10,0.008579620160162449,48,28.501,,39.9526383,,-113.4759752,False,0.17044320498825982,28.501,,39.9526382,,-113.4759751,0.0,,39.9526382,,-113.4759751,-0.0024903621524572372,0.0775379166007042,0.030687132850289345,-1,MISSION,,,,,,ACTIVE,2058.2109994888306,0.0,0.0,0.0,12,1,15,0,17760384,128,2
1733423934.5937188,0.0,True,0.0022557107731699944,-0.0024011789355427027,0.8385344743728638,-1.0,98,16.118,0,0,False,,,,0,0,3,10,0.008667263202369213,48,28.501,,39.9526383,,-113.4759752,False,0.2721249929891201,28.501,,39.9526382,,-113.4759751,0.0,,39.9526382,,-113.4759751,-0.002413796028122306,0.07726743817329407,0.03000820055603981,-1,MISSION,,,,,,ACTIVE,1733421876.3827193,0.0,0.0,0.0,12,1,15,0,17760384,128,2
1733423934.6914876,0.0,True,0.0023994124494493008,-0.002410947112366557,0.8386553525924683,-1.0,98,16.118,0,0,False,,,,0,0,3,10,0.010192500427365303,48,28.501,,39.9526383,,-113.4759752,False,0.37071147399547044,28.501,,39.9526382,,-113.4759751,0.0,,39.9526382,,-113.4759751,-0.002372145652770996,0.07699111104011536,0.029162731021642685,-1,MISSION,,,,,,ACTIVE,2058.3087682724,0.0,0.0,0.0,12,1,15,0,17760384,128,2
1733423934.791484,0.0,True,0.0024404521100223064,-0.0022253296338021755,0.8387501835823059,-1.0,97,16.111,0,0,False,,,,0,0,3,10,0.0119300726801157,48,28.501,,39.9526383,,-113.4759752,False,0.47090737499820534,28.501,,39.9526382,,-113.4759752,0.0,,39.9526382,,-113.4759752,-0.0022829663939774036,0.07663789391517639,0.02836204320192337,-1,MISSION,,,,,,ACTIVE,1733421876.4827158,-0.01,0.0,0.0,12,1,15,0,17760384,128,2
1733423934.8915527,0.0,True,0.002115365117788315,-0.002403647406026721,0.8384605646133423,-1.0,97,16.111,0,0,False,,,,0,0,3,10,0.013681179843842983,48,28.501,,39.9526383,,-113.4759752,False,0.56923268699029,28.501,,39.9526382,,-113.4759752,0.0,,39.9526382,,-113.4759752,-0.002252297941595316,0.07615584135055542,0.027597347274422646,-1,MISSION,,,,,,ACTIVE,2058.4088368415833,-0.01,0.0,0.0,12,1,15,0,17760384,128,2
1733423934.9920492,0.0,True,0.002041388303041458,-0.002316617639735341,0.8383190035820007,-1.0,97,16.105,0,0,False,,,,0,0,3,10,0.014378194697201252,48,28.501,,39.9526383,,-113.4759752,False,0.6705473049951252,28.501,,39.9526382,,-113.4759752,0.0,,39.9526382,,-113.4759752,-0.002387658227235079,0.07531104236841202,0.026881985366344452,-1,MISSION,,,,,,ACTIVE,1733421876.5832124,-0.01,0.0,0.0,12,1,15,0,17760384,128,2
1733423935.0921552,0.0,True,0.001892000436782837,-0.0027886799070984125,0.8382659554481506,-1.0,97,16.105,0,0,False,,,,0,0,3,10,0.015690380707383156,48,28.501,,39.9526383,,-113.4759752,False,0.7697530219884356,28.501,,39.9526382,,-113.4759752,0.0,,39.9526382,,-113.4759752,-0.0026896181516349316,0.07452321797609329,0.026545654982328415,-1,MISSION,,,,,,ACTIVE,2058.5089428424835,-0.01,0.0,0.0,12,1,15,0,17760384,128,2
1733423935.192767,0.0,True,0.0018662238726392388,-0.0027130907401442528,0.8381847739219666,-1.0,97,16.105,0,0,False,,,,0,0,3,10,0.01573876291513443,48,28.501,,39.9526383,,-113.4759752,False,0.8708895999880042,28.502,,39.9526382,,-113.4759752,0.0,,39.9526382,,-113.4759752,-0.003073179628700018,0.0737861916422844,0.026464059948921204,-1,MISSION,,,,,,ACTIVE,1733421876.683824,-0.01,0.0,0.0,12,1,15,0,17760384,128,2
1733423935.2920954,0.0,True,0.0014915887732058764,-0.0028893849812448025,0.8380352258682251,-1.0,97,16.099,0,0,False,,,,0,0,3,10,0.016210636124014854,48,28.501,,39.9526383,,-113.4759752,False,0.9689823889930267,28.502,,39.9526382,,-113.4759752,0.0,,39.9526382,,-113.4759752,-0.0033126326743513346,0.07322331517934799,0.026560824364423752,-1,MISSION,,,,,,ACTIVE,2058.6082713603973,-0.01,0.0,0.0,12,1,15,0,17760384,128,2
1733423935.3921008,0.0,True,0.0014065850991755724,-0.0027313232421875,0.8378427624702454,-1.0,96,16.096,0,0,False,,,,0,0,3,10,0.015563254244625568,48,28.501,,39.9526383,,-113.4759752,False,0.07205996999982744,28.502,,39.9526382,,-113.4759752,0.001,,39.9526382,,-113.4759752,-0.0036937035620212555,0.07269340008497238,0.026784097775816917,-1,MISSION,,,,,,ACTIVE,1733421876.7838295,-0.01,0.0,0.0,12,1,15,0,17760384,128,2
1733423935.494408,0.0,True,0.0010265982709825039,-0.0026725728530436754,0.8379161357879639,-1.0,96,16.093,0,0,False,,,,0,0,3,10,0.014064567163586617,48,28.501,,39.9526383,,-113.4759752,False,0.06848375299887266,28.503,,39.9526382,,-113.4759752,0.001,,39.9526382,,-113.4759752,-0.003950608894228935,0.07247552275657654,0.026907410472631454,-1,MISSION,,,,,,ACTIVE,2058.71057844162,-0.01,0.0,0.0,12,1,15,0,17760384,128,2
1733423935.5923948,0.0,True,0.0002827951102517545,-0.0024633491411805153,0.8379460573196411,-1.0,96,16.093,0,0,False,,,,0,0,3,10,0.013639476150274277,48,28.501,,39.9526383,,-113.4759752,False,0.16510672500589862,28.503,,39.9526382,,-113.4759752,0.001,,39.9526382,,-113.4759752,-0.004179942421615124,0.07236415892839432,0.02703770063817501,-1,MISSION,,,,,,ACTIVE,1733421876.8818164,-0.01,0.0,0.0,12,1,15,0,17760384,128,2
1733423935.6954365,0.0,True,-0.005577788222581148,-0.001498438068665564,0.8380637764930725,-1.0,96,16.087,0,0,False,,,,0,0,3,10,0.011796411126852036,48,28.501,,39.9526383,,-113.4759752,False,0.26852024599793367,28.504,,39.9526382,,-113.4759752,0.002,,39.9526382,,-113.4759752,-0.005126113072037697,0.07228166610002518,0.02715393155813217,-1,MISSION,,,,,,ACTIVE,2058.8136200904846,0.0,0.0,-0.02,12,1,15,0,17760384,128,2
1733423935.7925897,0.0,True,-0.007733371574431658,-0.0005449154414236546,0.838118314743042,-1.0,96,16.087,0,0,False,,,,0,0,3,10,0.005190457217395306,48,28.501,,39.9526383,,-113.4759752,False,0.3651756100007333,28.507,,39.9526382,,-113.4759752,0.005,,39.9526382,,-113.4759752,-0.008727124892175198,0.07254119217395782,0.027652546763420105,-1,MISSION,,,,,,ACTIVE,1733421876.9789696,0.0,0.0,-0.05,12,1,15,0,17760384,128,2
1733423935.8960686,0.0,True,-0.006623879540711641,-0.00042095239041373134,0.8381550312042236,-1.0,96,16.081,0,0,False,,,,0,0,3,10,0.005925177596509457,48,28.501,,39.9526383,,-113.4759752,False,0.46813590699457563,28.516,,39.9526382,,-113.4759752,0.014,,39.9526382,,-113.4759752,-0.015343454666435719,0.07331514358520508,0.02836286835372448,-1,MISSION,,,,,,ACTIVE,2058.9170989990234,0.0,0.0,-0.11,12,1,15,0,17760384,128,2
1733423935.99284,0.0,True,-0.00507562467828393,-0.0007042154320515692,0.8379716277122498,-1.0,96,16.081,0,0,False,,,,0,0,3,10,0.012456736527383327,48,28.501,,39.9526383,,-113.4759752,False,0.5645459700026549,28.527,,39.9526382,,-113.4759752,0.025,,39.9526382,,-113.4759752,-0.02958538383245468,0.07488030940294266,0.029318751767277718,-1,MISSION,,,,,,ACTIVE,1733421877.075741,0.0,0.01,-0.17,12,1,15,0,17760384,128,2
1733423936.0993853,0.0,True,-0.0027918717823922634,-0.0008566644391976297,0.8380531668663025,-1.0,95,16.076,0,0,False,,,,0,0,3,10,0.017615728080272675,48,28.501,,39.9526383,,-113.4759752,False,0.6734665889962343,28.548,,39.9526382,,-113.4759752,0.046,,39.9526382,,-113.4759752,-0.05152542516589165,0.0764012411236763,0.03039570152759552,-1,MISSION,,,,,,ACTIVE,2059.023644208908,0.01,0.01,-0.28,12,1,15,0,17760384,128,2
1733423936.195524,0.0,True,-0.0012319444213062525,-0.000904131680727005,0.8380946516990662,-1.0,95,16.076,0,0,False,,,,0,0,3,10,0.01901289075613022,48,28.501,,39.9526383,,-113.4759752,False,0.7645265470055165,28.573,,39.9526382,,-113.4759751,0.071,,39.9526382,,-113.4759751,-0.07682383805513382,0.07763224095106125,0.03139123693108559,-1,MISSION,,,,,,ACTIVE,1733421877.1718798,0.01,0.01,-0.36,12,1,15,0,17760384,128,2
1733423936.2955797,0.0,True,-0.00022939141490496695,-0.0010483749210834503,0.8379250764846802,-1.0,95,16.076,0,0,False,,,,0,0,3,10,0.019218167290091515,48,28.501,,39.9526383,,-113.4759752,False,0.8673120830062544,28.613,,39.9526382,,-113.4759751,0.112,,39.9526382,,-113.4759751,-0.11125482618808746,0.0790516808629036,0.03268925100564957,-1,MISSION,,,,,,ACTIVE,2059.123699903488,0.01,0.01,-0.46,12,1,15,0,17760384,128,2
1733423936.395647,0.0,True,0.00044799738680012524,-0.0012462565209716558,0.8380712270736694,-1.0,95,16.07,0,0,False,,,,0,0,3,10,0.019200243055820465,48,28.501,,39.9526383,,-113.4759752,False,0.9689603629958583,28.65,,39.9526383,,-113.4759751,0.149,,39.9526383,,-113.4759751,-0.15576934814453125,0.0806184783577919,0.034367941319942474,-1,MISSION,,,,,,ACTIVE,1733421877.2719471,0.01,0.01,-0.53,12,1,15,0,17760384,128,2
1733423936.4958215,0.0,True,0.0007266128668561578,-0.0013064679224044085,0.8377095460891724,-1.0,95,16.066,0,0,False,,,,0,0,3,10,0.016987308859825134,48,28.501,,39.9526383,,-113.4759752,False,0.0618484879960306,28.701,,39.9526383,,-113.4759751,0.2,,39.9526383,,-113.4759751,-0.19814205169677734,0.08184147626161575,0.03581633046269417,-1,MISSION,,,,,,ACTIVE,2059.2238743305206,0.01,0.01,-0.6,12,1,15,0,17760384,128,2
1733423936.5965059,0.0,True,0.001123028458096087,-0.0014962428249418736,0.8375035524368286,-1.0,95,16.064,0,0,False,,,,0,0,3,10,0.01539966557174921,47,28.501,,39.9526383,,-113.4759752,False,0.0535676709987456,28.749,,39.9526383,,-113.4759751,0.247,,39.9526383,,-113.4759751,-0.25530505180358887,0.0833093523979187,0.03735421225428581,-1,MISSION,,,,,,ACTIVE,1733421877.3726315,0.0,0.01,-0.67,12,1,15,0,17760384,128,2
1733423936.699073,0.0,True,0.0011246766662225127,-0.0017860273364931345,0.837225079536438,-1.0,95,16.064,0,0,False,,,,0,0,3,10,0.011364709585905075,47,28.501,,39.9526383,,-113.4759752,False,0.15749089799646754,28.818,,39.9526383,,-113.4759751,0.316,,39.9526383,,-113.4759751,-0.3248447775840759,0.08444816619157791,0.03884562477469444,-1,MISSION,,,,,,ACTIVE,2059.326441526413,0.0,0.0,-0.74,12,1,15,0,17760384,128,2
1733423936.7983959,0.0,True,0.0013246249873191118,-0.0016790925292298198,0.8372673392295837,-1.0,94,16.058,0,0,False,,,,0,0,3,10,0.0099614467471838,47,28.501,,39.9526383,,-113.4759752,False,0.2536870949988952,28.876,,39.9526383,,-113.4759751,0.375,,39.9526383,,-113.4759751,-0.3835383653640747,0.0848909541964531,0.04010516032576561,-1,MISSION,,,,,,ACTIVE,1733421877.4719543,0.0,0.0,-0.8,12,1,15,0,17760384,128,2
1733423936.8985326,0.0,True,0.001737005077302456,-0.001210894319228828,0.837299108505249,-1.0,94,16.058,0,0,False,,,,0,0,3,10,0.00722998334094882,47,28.501,,39.9526383,,-113.4759752,False,0.3563463780010352,28.952,,39.9526383,,-113.4759751,0.45,,39.9526383,,-113.4759751,-0.45998960733413696,0.08504026383161545,0.041993219405412674,-1,MISSION,,,,,,ACTIVE,2059.42657828331,0.0,0.0,-0.87,12,1,15,0,17760384,128,2
1733423936.9991837,0.0,True,0.0017242549220100045,-0.0006132295820862055,0.8375071287155151,-1.0,94,16.051,0,0,False,,,,0,0,3,10,0.007790375500917435,47,28.501,,39.9526383,,-113.4759752,False,0.45440353600133676,29.02,,39.9526383,,-113.4759751,0.519,,39.9526383,,-113.4759751,-0.5288520455360413,0.0849926546216011,0.04392412677407265,-1,MISSION,,,,,,ACTIVE,1733421877.5726054,0.0,0.0,-0.93,12,1,15,0,17760384,128,2
1733423937.1033962,0.0,True,0.002433618763461709,-0.0002034835342783481,0.8375141620635986,-1.0,94,16.051,0,0,False,,,,0,0,3,10,0.007646452635526657,47,28.501,,39.9526383,,-113.4759752,False,0.56139457700192,29.116,,39.9526384,,-113.4759751,0.615,,39.9526384,,-113.4759751,-0.6253304481506348,0.08493782579898834,0.04657509922981262,-1,MISSION,,,,,,ACTIVE,2059.5307908058167,0.0,0.0,-1.0,12,1,15,0,17760384,128,2
1733423937.2028556,0.0,True,0.002888481132686138,-0.00010454488801769912,0.8375617861747742,-1.0,94,16.051,0,0,False,,,,0,0,3,10,0.007646452635526657,47,28.501,,39.9526383,,-113.4759752,False,0.6594998700020369,29.211,,39.9526384,,-113.4759751,0.71,,39.9526384,,-113.4759751,-0.7044470906257629,0.08476021140813828,0.048616714775562286,-1,MISSION,,,,,,ACTIVE,1733421877.6720648,0.0,0.0,-1.06,12,1,15,0,17760384,128,2
1733423937.3047986,0.0,True,0.0030871254857629538,4.324081601225771e-05,0.8373653888702393,-1.0,94,16.045,0,0,False,,,,0,0,3,10,0.006630181334912777,47,28.501,,39.9526383,,-113.4759752,False,0.7572259949956788,29.295,,39.9526384,,-113.4759751,0.793,,39.9526384,,-113.4759751,-0.7877016663551331,0.08444193750619888,0.05062154680490494,-1,MISSION,,,,,,ACTIVE,2059.632733821869,0.0,0.0,-1.12,12,1,15,0,17760384,128,2
1733423937.4056697,0.0,True,0.0034758285619318485,0.00036597703001461923,0.8372251987457275,-1.0,94,16.045,0,0,False,,,,0,0,3,10,0.005006725899875164,47,28.501,,39.9526383,,-113.4759752,False,0.8630510619987035,29.383,,39.9526384,,-113.4759751,0.881,,39.9526384,,-113.4759751,-0.8932080864906311,0.08383531868457794,0.05277445912361145,-1,MISSION,,,,,,ACTIVE,1733421877.7729359,0.0,0.0,-1.17,12,1,15,0,17760384,128,2
1733423937.5079913,0.0,True,0.003330300562083721,0.0008640278829261661,0.8370566964149475,-1.0,93,16.039,0,0,False,,,,0,0,3,10,0.004209405276924372,47,28.501,,39.9526383,,-113.4759752,False,0.9667707009939477,29.503,,39.9526384,,-113.4759751,1.002,,39.9526384,,-113.4759751,-0.9857872128486633,0.08328842371702194,0.054296258836984634,-1,MISSION,,,,,,ACTIVE,2059.7350554466248,0.0,0.0,-1.24,12,1,15,0,17760384,128,2
1733423937.605599,0.0,True,0.0031334992963820696,0.001113219652324915,0.837031900882721,-1.0,93,16.036,0,0,False,,,,0,0,3,10,0.005068380385637283,47,28.501,,39.9526383,,-113.4759752,False,0.030496359002427198,29.601,,39.9526385,,-113.4759751,1.1,,39.9526385,,-113.4759751,-1.082661747932434,0.08273186534643173,0.05544566363096237,-1,MISSION,,,,,,ACTIVE,1733421877.8705435,0.0,0.0,-1.28,12,1,15,0,17760384,128,2
1733423937.705837,0.0,True,0.0023960787802934647,0.0010736036347225308,0.8369733691215515,-1.0,93,16.033,0,0,False,,,,0,0,3,10,0.006952984724193811,47,28.501,,39.9526383,,-113.4759752,False,0.028145799005869776,29.701,,39.9526385,,-113.4759751,1.2,,39.9526385,,-113.4759751,-1.1826294660568237,0.08218885958194733,0.056159697473049164,-1,MISSION,,,,,,ACTIVE,2059.835293531418,0.0,0.0,-1.3,12,1,15,0,17760384,128,2
1733423937.8112447,0.0,True,0.00231587840244174,0.0008897909428924322,0.837232768535614,-1.0,93,16.033,0,0,False,,,,0,0,3,10,0.009381040930747986,47,28.501,,39.9526383,,-113.4759752,False,0.13364480600284878,29.803,,39.9526385,,-113.4759751,1.301,,39.9526385,,-113.4759751,-1.3144158124923706,0.08170892298221588,0.05641045421361923,-1,MISSION,,,,,,ACTIVE,1733421877.9759512,0.0,0.0,-1.31,12,1,15,0,17760384,128,2
1733423937.9124033,0.0,True,0.002050927374511957,0.00014384918904397637,0.8372763395309448,-1.0,93,16.033,0,0,False,,,,0,0,3,10,0.010047533549368382,47,28.501,,39.9526383,,-113.4759752,False,0.23546826001256704,29.905,,39.9526385,,-113.4759751,1.404,,39.9526385,,-113.4759751,-1.4167145490646362,0.08166243135929108,0.056062351912260056,-1,MISSION,,,,,,ACTIVE,2059.936452150345,0.0,0.0,-1.31,12,1,15,0,17760384,128,2
1733423938.015401,0.0,True,0.001998626859858632,-0.00012210659042466432,0.8374155163764954,-1.0,93,16.027,0,0,False,,,,0,0,3,10,0.010813210159540176,47,28.501,,39.9526383,,-113.4759752,False,0.3384475760103669,30.029,,39.9526385,,-113.4759751,1.528,,39.9526385,,-113.4759751,-1.5200822353363037,0.08170253038406372,0.05568526312708855,-1,MISSION,,,,,,ACTIVE,1733421878.0789487,-0.01,0.0,-1.33,12,1,15,0,17760384,128,2
1733423938.1147046,0.0,True,0.0021319070365279913,-0.00039023684803396463,0.8373380899429321,-1.0,93,16.027,0,0,False,,,,0,0,3,10,0.011749709025025368,47,28.501,,39.9526383,,-113.4759752,False,0.43520428900956176,30.133,,39.9526384,,-113.4759751,1.632,,39.9526384,,-113.4759751,-1.6453373432159424,0.08175627887248993,0.0552697628736496,-1,MISSION,,,,,,ACTIVE,2060.0357558727264,-0.01,0.0,-1.33,12,1,15,0,17760384,128,2
1733423938.2154086,0.0,True,0.0019326189067214727,-0.0003617304319050163,0.853648841381073,-1.0,92,16.021,0,0,False,,,,0,0,3,10,0.01348501443862915,47,28.501,,39.9526383,,-113.4759752,False,0.5383503180055413,30.27,,39.9526384,,-113.4759751,1.769,,39.9526384,,-113.4759751,-1.7506691217422485,0.08174177259206772,0.054866060614585876,-1,MISSION,,,,,,ACTIVE,1733421878.1796527,-0.01,0.0,-1.34,12,1,15,0,17760384,128,2
1733423938.3169045,0.0,True,0.0017558337422087789,-0.0004713801317848265,0.853854775428772,-1.0,92,16.021,0,0,False,,,,0,0,3,10,0.015107130631804466,48,28.501,,39.9526383,,-113.4759752,False,0.6406485380139202,30.377,,39.9526384,,-113.4759751,1.876,,39.9526384,,-113.4759751,-1.8891874551773071,0.08150000125169754,0.0540902279317379,-1,MISSION,,,,,,ACTIVE,2060.137251853943,-0.01,0.0,-1.35,12,1,15,0,17760384,128,2
1733423938.4156747,0.0,True,0.0016056390013545752,-0.0006279587978497148,0.8530822992324829,-1.0,92,16.015,0,0,False,,,,0,0,3,10,0.016404226422309875,48,28.501,,39.9526383,,-113.4759752,False,0.732611107014236,30.485,,39.9526384,,-113.4759751,1.983,,39.9526384,,-113.4759751,-1.996851921081543,0.0811162069439888,0.05324703827500343,-1,MISSION,,,,,,ACTIVE,1733421878.2784228,-0.01,0.0,-1.36,12,1,15,0,17760384,128,2
1733423938.5160668,0.0,True,0.0011812782613560557,-0.0006550601683557034,0.8521596789360046,-1.0,92,16.015,0,0,False,,,,0,0,3,10,0.017172403633594513,48,28.501,,39.9526383,,-113.4759752,False,0.8393323220079765,30.615,,39.9526384,,-113.4759751,2.113,,39.9526384,,-113.4759751,-2.1269617080688477,0.08091021329164505,0.05209644138813019,-1,MISSION,,,,,,ACTIVE,2060.237643957138,-0.01,0.0,-1.37,12,1,15,0,17760384,128,2
1733423938.6204438,0.0,True,0.0010741055011749268,-0.0006045884802006185,0.8518503308296204,-1.0,92,16.009,0,0,False,,,,0,0,3,10,0.016604801639914513,48,28.501,,39.9526383,,-113.4759752,False,0.9448948740027845,30.757,,39.9526384,,-113.4759751,2.255,,39.9526384,,-113.4759751,-2.2360661029815674,0.08099140226840973,0.051090728491544724,-1,MISSION,,,,,,ACTIVE,1733421878.3827999,-0.01,0.0,-1.38,12,1,15,0,17760384,128,2
1733423938.718247,0.0,True,0.0009544701315462589,-0.0008401550585404038,0.8519787788391113,-1.0,91,16.006,0,0,False,,,,0,0,3,10,0.0163374412804842,48,28.501,,39.9526383,,-113.4759752,False,0.004540535999694839,30.866,,39.9526384,,-113.4759751,2.365,,39.9526384,,-113.4759751,-2.3788163661956787,0.08113154768943787,0.049886852502822876,-1,MISSION,,,,,,ACTIVE,2060.335447072983,-0.01,0.0,-1.38,12,1,15,0,17760384,128,2
1733423938.8285072,0.0,True,0.0012107157381251454,-0.0010032986756414175,0.8527570366859436,-1.0,91,16.003,0,0,False,,,,0,0,3,10,0.014806747436523438,48,28.501,,39.9526383,,-113.4759752,False,0.006803673997637816,30.999,,39.9526384,,-113.4759751,2.498,,39.9526384,,-113.4759751,-2.5116724967956543,0.08128274232149124,0.048815056681632996,-1,MISSION,,,,,,ACTIVE,1733421878.49306,-0.01,0.0,-1.39,12,1,15,0,17760384,128,2
1733423938.9378803,0.0,True,0.0014374989550560713,-0.0010111818555742502,0.8542639017105103,-1.0,91,16.003,0,0,False,,,,0,0,3,10,0.015167760662734509,48,28.501,,39.9526383,,-113.4759752,False,0.11675493299844675,31.144,,39.9526384,,-113.4759751,2.643,,39.9526384,,-113.4759751,-2.6566503047943115,0.08141826838254929,0.047302402555942535,-1,MISSION,,,,,,ACTIVE,2060.444820165634,-0.01,0.0,-1.4,12,1,15,0,17760384,128,2
1733423939.032127,0.0,True,0.0013219303218647838,-0.0015012650983408093,0.8552349805831909,-1.0,91,16.003,0,0,False,,,,0,0,3,10,0.014440500177443027,48,28.501,,39.9526383,,-113.4759752,False,0.204981629998656,31.256,,39.9526384,,-113.4759751,2.755,,39.9526384,,-113.4759751,-2.7689456939697266,0.0816374197602272,0.045922376215457916,-1,MISSION,,,,,,ACTIVE,1733421878.5873067,-0.01,0.0,-1.4,12,1,15,0,17760384,128,2
1733423939.1358018,0.0,True,0.0016129408031702042,-0.0021835695952177048,0.8557523488998413,-1.0,91,15.997,0,0,False,,,,0,0,3,10,0.015567426569759846,49,28.501,,39.9526383,,-113.4759752,False,0.31323929299833253,31.392,,39.9526383,,-113.4759751,2.89,,39.9526383,,-113.4759751,-2.9042937755584717,0.08195451647043228,0.044148046523332596,-1,MISSION,,,,,,ACTIVE,2060.548495054245,-0.01,0.0,-1.41,12,1,15,0,17760384,128,2
1733423939.2358031,0.0,True,0.0019881681073457003,-0.002712678164243698,0.85597163438797,-1.0,91,15.997,0,0,False,,,,0,0,3,10,0.012997920624911785,49,28.501,,39.9526383,,-113.4759752,False,0.41421515500405803,31.539,,39.9526383,,-113.4759751,3.037,,39.9526383,,-113.4759751,-3.0287082195281982,0.08237738907337189,0.04265670105814934,-1,MISSION,,,,,,ACTIVE,1733421878.687308,-0.01,0.0,-1.41,12,1,15,0,17760384,128,2
1733423939.335942,0.0,True,0.0024432074278593063,-0.003173345932736993,0.8559279441833496,-1.0,91,15.991,0,0,False,,,,0,0,3,10,0.011557984165847301,49,28.501,,39.9526383,,-113.4759752,False,0.5115043179976055,31.652,,39.9526383,,-113.4759751,3.151,,39.9526383,,-113.4759751,-3.1647849082946777,0.08271345496177673,0.04121284931898117,-1,MISSION,,,,,,ACTIVE,2060.648633956909,-0.01,0.0,-1.42,12,1,15,0,17760384,128,2
1733423939.438719,0.0,True,0.0023471994791179895,-0.003174907760694623,0.8558131456375122,-1.0,91,15.991,0,0,False,,,,0,0,3,10,0.010409155860543251,49,28.501,,39.9526383,,-113.4759752,False,0.616838928006473,31.789,,39.9526383,,-113.4759751,3.287,,39.9526383,,-113.4759751,-3.278567314147949,0.0826546847820282,0.039821382611989975,-1,MISSION,,,,,,ACTIVE,1733421878.790085,0.0,0.0,-1.42,12,1,15,0,17760384,128,2
1733423939.5365381,0.0,True,0.0025822564493864775,-0.002692036097869277,0.8557784557342529,-1.0,90,15.985,0,0,False,,,,0,0,3,10,0.00824400782585144,49,28.501,,39.9526383,,-113.4759752,False,0.7125823200040031,31.903,,39.9526383,,-113.4759751,3.401,,39.9526383,,-113.4759751,-3.415637969970703,0.08238841593265533,0.03805818781256676,-1,MISSION,,,,,,ACTIVE,2060.7464530467987,0.0,0.0,-1.43,12,1,15,0,17760384,128,2
1733423939.638355,0.0,True,0.0022234469652175903,-0.0029657359700649977,0.8558855056762695,-1.0,90,15.985,0,0,False,,,,0,0,3,10,0.008884720504283905,49,28.501,,39.9526383,,-113.4759752,False,0.8148323220084421,32.052,,39.9526383,,-113.4759751,3.551,,39.9526383,,-113.4759751,-3.5534634590148926,0.08190973103046417,0.035995472222566605,-1,MISSION,,,,,,ACTIVE,1733421878.891902,0.0,0.0,-1.43,12,1,15,0,17760384,128,2
1733423939.73919,0.0,True,0.0016688924515619874,-0.003261288395151496,0.8561936616897583,-1.0,90,15.98,0,0,False,,,,0,0,3,10,0.01011069118976593,49,28.501,,39.9526383,,-113.4759752,False,0.9162286009959644,32.168,,39.9526383,,-113.4759751,3.666,,39.9526383,,-113.4759751,-3.680443286895752,0.08119170367717743,0.03391582518815994,-1,MISSION,,,,,,ACTIVE,2060.847288131714,0.0,0.0,-1.44,12,1,15,0,17760384,128,2
1733423939.8415837,0.0,True,0.0010411578696221113,-0.003261105390265584,0.8562664985656738,-1.0,90,15.976,0,0,False,,,,0,0,3,10,0.00885950867086649,49,28.501,,39.9526383,,-113.4759752,False,0.01835498498985544,32.307,,39.9526382,,-113.4759751,3.805,,39.9526382,,-113.4759751,-3.7963263988494873,0.08050213754177094,0.032015226781368256,-1,MISSION,,,,,,ACTIVE,1733421878.9942956,0.0,0.0,-1.44,12,1,15,0,17760384,128,2
1733423939.9416726,0.0,True,0.0005262598278932273,-0.0033550027292221785,0.8565633296966553,-1.0,90,15.974,0,0,False,,,,0,0,3,10,0.009670219384133816,49,28.501,,39.9526383,,-113.4759752,False,0.010695785997086205,32.423,,39.9526382,,-113.4759751,3.922,,39.9526382,,-113.4759751,-3.9361417293548584,0.07967943698167801,0.029714494943618774,-1,MISSION,,,,,,ACTIVE,2060.9473769664764,0.0,0.0,-1.45,12,1,15,0,17760384,128,2
1733423940.046777,0.0,True,1.6465899534523487e-05,-0.0032180575653910637,0.8564243316650391,-1.0,90,15.974,0,0,False,,,,0,0,3,10,0.011381146498024464,49,28.501,,39.9526383,,-113.4759752,False,0.11551923099614214,32.575,,39.9526382,,-113.4759751,4.074,,39.9526382,,-113.4759751,-4.088522434234619,0.07818443328142166,0.02719251625239849,-1,MISSION,,,,,,ACTIVE,1733421879.0994,0.0,0.0,-1.45,12,1,15,0,17760384,128,2
1733423940.1469316,0.0,True,-0.0006606167298741639,-0.003095875261351466,0.8562852144241333,-1.0,90,15.974,0,0,False,,,,0,0,3,10,0.01038728654384613,49,28.501,,39.9526383,,-113.4759752,False,0.21559988299850374,32.716,,39.9526382,,-113.4759752,4.215,,39.9526382,,-113.4759752,-4.205894947052002,0.07669098675251007,0.025338629260659218,-1,MISSION,,,,,,ACTIVE,2061.047531604767,0.0,0.0,-1.45,12,1,15,0,17760384,128,2
1733423940.2496665,0.0,True,-0.001021629897877574,-0.0029681462328881025,0.8563087582588196,-1.0,89,15.968,0,0,False,,,,0,0,3,10,0.009769508615136147,49,28.501,,39.9526383,,-113.4759752,False,0.31889230500382837,32.834,,39.9526382,,-113.4759752,4.332,,39.9526382,,-113.4759752,-4.346922874450684,0.07492241263389587,0.023321064189076424,-1,MISSION,,,,,,ACTIVE,1733421879.2021348,0.0,0.0,-1.46,12,1,15,0,17760384,128,2
1733423940.347806,0.0,True,-0.0014211961533874273,-0.0031298629473894835,0.8559768199920654,-1.0,89,15.968,0,0,False,,,,0,0,3,10,0.010793794877827168,49,28.501,,39.9526383,,-113.4759752,False,0.41570461700030137,32.987,,39.9526381,,-113.4759752,4.486,,39.9526381,,-113.4759752,-4.476640224456787,0.0730082169175148,0.02153591625392437,-1,MISSION,,,,,,ACTIVE,2061.1456711292267,0.0,0.0,-1.46,12,1,15,0,17760384,128,2
1733423940.4519079,0.0,True,-0.0016830206150189042,-0.003084039781242609,0.8559463620185852,-1.0,89,15.962,0,0,False,,,,0,0,3,10,0.009807116352021694,49,28.501,,39.9526383,,-113.4759752,False,0.5185447440017015,33.105,,39.9526381,,-113.4759752,4.604,,39.9526381,,-113.4759752,-4.618595600128174,0.07077911496162415,0.019625477492809296,-1,MISSION,,,,,,ACTIVE,1733421879.3062367,0.0,0.0,-1.46,12,1,15,0,17760384,128,2
1733423940.5481875,0.0,True,-0.0019241742556914687,-0.0025615410413593054,0.855690598487854,-1.0,89,15.962,0,0,False,,,,0,0,3,10,0.00897703506052494,49,28.501,,39.9526383,,-113.4759752,False,0.6156386350048706,33.248,,39.9526381,,-113.4759752,4.746,,39.9526381,,-113.4759752,-4.737231254577637,0.0688876137137413,0.017900170758366585,-1,MISSION,,,,,,ACTIVE,2061.241950750351,0.0,0.0,-1.46,12,1,15,0,17760384,128,2
1733423940.6487112,0.0,True,-0.0024643014185130596,-0.0023212663363665342,0.8551341891288757,-1.0,89,15.956,0,0,False,,,,0,0,3,10,0.009371889755129814,49,28.501,,39.9526383,,-113.4759752,False,0.7171944029978476,33.366,,39.9526381,,-113.4759753,4.865,,39.9526381,,-113.4759753,-4.879603385925293,0.06632693856954575,0.015706608071923256,-1,MISSION,,,,,,ACTIVE,1733421879.4067605,0.0,0.0,-1.47,12,1,15,0,17760384,128,2
1733423940.748408,0.0,True,-0.0027308566495776176,-0.002114764181897044,0.8552025556564331,-1.0,89,15.956,0,0,False,,,,0,0,3,10,0.007796355057507753,49,28.501,,39.9526383,,-113.4759752,False,0.8173103309964063,33.521,,39.9526381,,-113.4759753,5.019,,39.9526381,,-113.4759753,-5.022120952606201,0.06359802931547165,0.013828895054757595,-1,MISSION,,,,,,ACTIVE,2061.3416476249695,0.0,0.0,-1.47,12,1,15,0,17760384,128,2
1733423940.848509,0.0,True,-0.002881634747609496,-0.002218345645815134,0.8553951382637024,-1.0,88,15.95,0,0,False,,,,0,0,3,10,0.007689309772104025,49,28.501,,39.9526383,,-113.4759752,False,0.9171662650041981,33.64,,39.9526381,,-113.4759753,5.138,,39.9526381,,-113.4759753,-5.152796268463135,0.060979943722486496,0.012659445405006409,-1,MISSION,,,,,,ACTIVE,1733421879.5068614,0.0,0.0,-1.47,12,1,15,0,17760384,128,2
1733423940.9486501,0.0,True,-0.002957552205771208,-0.002158861141651869,0.855320155620575,-1.0,88,15.946,0,0,False,,,,0,0,3,10,0.00817853957414627,49,28.501,,39.9526383,,-113.4759752,False,0.01506305200746283,33.782,,39.9526381,,-113.4759754,5.281,,39.9526381,,-113.4759754,-5.271691799163818,0.058546341955661774,0.011922711506485939,-1,MISSION,,,,,,ACTIVE,2061.441788673401,0.0,0.0,-1.47,12,1,15,0,17760384,128,2
1733423941.0494125,0.0,True,-0.002675082068890333,-0.0016858269227668643,0.8552634716033936,-1.0,88,15.944,0,0,False,,,,0,0,3,10,0.010392270982265472,49,28.501,,39.9526383,,-113.4759752,False,0.0087508829892613,33.901,,39.9526381,,-113.4759754,5.4,,39.9526381,,-113.4759754,-5.414589881896973,0.055764079093933105,0.011400454677641392,-1,MISSION,,,,,,ACTIVE,1733421879.6076238,0.0,0.0,-1.47,12,1,15,0,17760384,128,2
1733423941.148927,0.0,True,-0.0028200121596455574,-0.0012538139708340168,0.8551853895187378,-1.0,88,15.944,0,0,False,,,,0,0,3,10,0.010392270982265472,49,28.501,,39.9526383,,-113.4759752,False,0.10671443099272437,34.056,,39.9526381,,-113.4759754,5.555,,39.9526381,,-113.4759754,-5.533862590789795,0.053725384175777435,0.011263638734817505,-1,MISSION,,,,,,ACTIVE,2061.5413031578064,0.01,0.0,-1.48,12,1,15,0,17760384,128,2
1733423941.2490716,0.0,True,-0.0027207625098526478,-0.0008070853655226529,0.8550372123718262,-1.0,88,15.944,0,0,False,,,,0,0,3,10,0.014229525811970234,48,28.501,,39.9526383,,-113.4759752,False,0.20860012399498373,34.176,,39.9526381,,-113.4759754,5.674,,39.9526381,,-113.4759754,-5.689245223999023,0.05100651830434799,0.011386595666408539,-1,MISSION,,,,,,ACTIVE,1733421879.7077684,0.01,0.0,-1.48,12,1,15,0,17760384,128,2
1733423941.3512459,0.0,True,-0.002806237433105707,-0.0006647881818935275,0.8549489974975586,-1.0,88,15.938,0,0,False,,,,0,0,3,10,0.014880538918077946,48,28.501,,39.9526383,,-113.4759752,False,0.31172745100047905,34.32,,39.9526381,,-113.4759755,5.818,,39.9526381,,-113.4759755,-5.808970928192139,0.04883755370974541,0.011585023254156113,-1,MISSION,,,,,,ACTIVE,2061.6434774398804,0.01,0.0,-1.48,12,1,15,0,17760384,128,2
1733423941.4503973,0.0,True,-0.0027856628876179457,-0.00024206792295444757,0.8548052310943604,-1.0,88,15.938,0,0,False,,,,0,0,3,10,0.016554048284888268,48,28.501,,39.9526383,,-113.4759752,False,0.4102549689996522,34.439,,39.9526381,,-113.4759755,5.938,,39.9526381,,-113.4759755,-5.964700222015381,0.04627048969268799,0.011963444761931896,-1,MISSION,,,,,,ACTIVE,1733421879.8069198,0.01,0.0,-1.48,12,1,15,0,17760384,128,2
1733423941.5525198,0.0,True,-0.002597782062366605,5.698787936125882e-05,0.8548409342765808,-1.0,87,15.932,0,0,False,,,,0,0,3,10,0.018374428153038025,48,28.501,,39.9526383,,-113.4759752,False,0.5128713169979164,34.595,,39.9526381,,-113.4759755,6.094,,39.9526381,,-113.4759755,-6.072658061981201,0.04477792605757713,0.012342898175120354,-1,MISSION,,,,,,ACTIVE,2061.7455999851227,0.01,0.0,-1.49,12,1,15,0,17760384,128,2
1733423941.6528366,0.0,True,-0.002266655443236232,0.00012060087465215474,0.8547381162643433,-1.0,87,15.932,0,0,False,,,,0,0,3,10,0.02086213231086731,48,28.501,,39.9526383,,-113.4759752,False,0.6132543080020696,34.716,,39.9526381,,-113.4759755,6.214,,39.9526381,,-113.4759755,-6.228941917419434,0.04308730736374855,0.013094233348965645,-1,MISSION,,,,,,ACTIVE,1733421879.9072366,0.01,0.01,-1.49,12,1,15,0,17760384,128,2
1733423941.7536757,0.0,True,-0.0021393392235040665,-0.00010449847468407825,0.8547204732894897,-1.0,87,15.926,0,0,False,,,,0,0,3,10,0.02336006425321102,48,28.501,,39.9526383,,-113.4759752,False,0.7120964259956963,34.86,,39.9526381,,-113.4759756,6.359,,39.9526381,,-113.4759756,-6.361454010009766,0.042053550481796265,0.013732446357607841,-1,MISSION,,,,,,ACTIVE,2061.8464391231537,0.01,0.01,-1.49,12,1,15,0,17760384,128,2
1733423941.8530326,0.0,True,-0.0016681780107319355,-0.00013831138494424522,0.8545966148376465,-1.0,87,15.926,0,0,False,,,,0,0,3,10,0.025674782693386078,48,28.501,,39.9526383,,-113.4759752,False,0.8131787939928472,34.981,,39.9526381,,-113.4759756,6.479,,39.9526381,,-113.4759756,-6.494073867797852,0.041505493223667145,0.01438444945961237,-1,MISSION,,,,,,ACTIVE,1733421880.0065935,0.02,0.01,-1.49,12,1,15,0,17760384,128,2
1733423941.953079,0.0,True,-0.0013956865295767784,0.00028275130898691714,0.8544799089431763,-1.0,87,15.92,0,0,False,,,,0,0,3,10,0.02841806411743164,48,28.501,,39.9526383,,-113.4759752,False,0.9116448729910189,35.137,,39.9526381,,-113.4759756,6.636,,39.9526381,,-113.4759756,-6.614721775054932,0.04136459156870842,0.015302120707929134,-1,MISSION,,,,,,ACTIVE,2061.946485519409,0.02,0.01,-1.49,12,1,15,0,17760384,128,2
1733423942.0546563,0.0,True,-0.0008536519017070532,0.0005179789732210338,0.8545765280723572,-1.0,86,15.916,0,0,False,,,,0,0,3,10,0.02895120531320572,48,28.501,,39.9526383,,-113.4759752,False,0.007953983003972098,35.258,,39.9526381,,-113.4759756,6.757,,39.9526381,,-113.4759756,-6.771719932556152,0.041344936937093735,0.01671229861676693,-1,MISSION,,,,,,ACTIVE,1733421880.1081707,0.02,0.01,-1.49,12,1,15,0,17760384,128,2
1733423942.153299,0.0,True,-0.0008505068835802376,0.0005276653100736439,0.8545660972595215,-1.0,86,15.913,0,0,False,,,,0,0,3,10,0.03064996935427189,48,28.501,,39.9526383,,-113.4759752,False,0.0026619300042511895,35.403,,39.9526381,,-113.4759756,6.902,,39.9526381,,-113.4759756,-6.892739772796631,0.04144098609685898,0.017786938697099686,-1,MISSION,,,,,,ACTIVE,2062.0451283454895,0.02,0.02,-1.49,12,1,15,0,17760384,128,2
1733423942.2534204,0.0,True,-0.0002816508349496871,0.00033882641582749784,0.8545348644256592,-1.0,86,15.913,0,0,False,,,,0,0,3,10,0.03064996935427189,48,28.501,,39.9526383,,-113.4759752,False,0.10235542399459518,35.525,,39.9526381,,-113.4759756,7.023,,39.9526381,,-113.4759756,-7.038327217102051,0.04187779501080513,0.01924332231283188,-1,MISSION,,,,,,ACTIVE,1733421880.208292,0.02,0.02,-1.49,12,1,15,0,17760384,128,2
1733423942.3540072,0.0,True,0.00046982368803583086,1.4077917512622662e-05,0.8544268608093262,-1.0,86,15.913,0,0,False,,,,0,0,3,10,0.03450094163417816,48,28.501,,39.9526383,,-113.4759752,False,0.200619708004524,35.683,,39.9526381,,-113.4759756,7.181,,39.9526381,,-113.4759756,-7.17184591293335,0.04235328733921051,0.020843297243118286,-1,MISSION,,,,,,ACTIVE,2062.145715236664,0.02,0.02,-1.49,12,1,15,0,17760384,128,2
1733423942.4536755,0.0,True,0.000956653559114784,0.00017192478117067367,0.8544638752937317,-1.0,86,15.908,0,0,False,,,,0,0,3,10,0.035212647169828415,48,28.501,,39.9526383,,-113.4759752,False,0.302428636001423,35.804,,39.9526382,,-113.4759755,7.302,,39.9526382,,-113.4759755,-7.317334175109863,0.04275238513946533,0.022819582372903824,-1,MISSION,,,,,,ACTIVE,1733421880.3079603,0.02,0.02,-1.49,12,1,15,0,17760384,128,2
1733423942.5561712,0.0,True,0.0010310527868568897,0.00010112576273968443,0.8545213341712952,-1.0,86,15.908,0,0,False,,,,0,0,3,10,0.03487437963485718,48,28.501,,39.9526383,,-113.4759752,False,0.40452255999844056,35.949,,39.9526382,,-113.4759755,7.448,,39.9526382,,-113.4759755,-7.46262264251709,0.04319765046238899,0.02509557269513607,-1,MISSION,,,,,,ACTIVE,2062.2482109069824,0.02,0.02,-1.5,12,1,15,0,17760384,128,2
1733423942.6575644,0.0,True,0.0014533736975863576,0.00018119528249371797,0.8543312549591064,-1.0,86,15.902,0,0,False,,,,0,0,3,10,0.03605363890528679,48,28.501,,39.9526383,,-113.4759752,False,0.5075375689921202,36.107,,39.9526382,,-113.4759755,7.605,,39.9526382,,-113.4759755,-7.583668231964111,0.043672721832990646,0.02712140418589115,-1,MISSION,,,,,,ACTIVE,1733421880.4093535,0.02,0.02,-1.5,12,1,15,0,17760384,128,2
1733423942.7563705,0.0,True,0.0018826774321496487,0.00037066926597617567,0.8539928793907166,-1.0,86,15.902,0,0,False,,,,0,0,3,10,0.03612576425075531,48,28.501,,39.9526383,,-113.4759752,False,0.6045235769997817,36.228,,39.9526382,,-113.4759755,7.726,,39.9526382,,-113.4759755,-7.741040229797363,0.04430987685918808,0.029924679547548294,-1,MISSION,,,,,,ACTIVE,2062.3470170497894,0.02,0.02,-1.5,12,1,15,0,17760384,128,2
1733423942.857664,0.0,True,0.002210472710430622,0.0007816151482984424,0.8541269898414612,-1.0,85,15.895,0,0,False,,,,0,0,3,10,0.035764846950769424,48,28.501,,39.9526383,,-113.4759752,False,0.7075258319964632,36.373,,39.9526382,,-113.4759755,7.872,,39.9526382,,-113.4759755,-7.8743720054626465,0.044955313205718994,0.03257918357849121,-1,MISSION,,,,,,ACTIVE,1733421880.510647,0.02,0.02,-1.5,12,1,15,0,17760384,128,2
1733423942.956754,0.0,True,0.0022009452804923058,0.00097843527328223,0.8541902303695679,-1.0,85,15.895,0,0,False,,,,0,0,3,10,0.03296798840165138,48,28.501,,39.9526383,,-113.4759752,False,0.8046872449922375,36.494,,39.9526383,,-113.4759755,7.993,,39.9526383,,-113.4759755,-8.007610321044922,0.04540884867310524,0.035121459513902664,-1,MISSION,,,,,,ACTIVE,2062.4461069107056,0.01,0.02,-1.5,12,1,15,0,17760384,128,2
1733423943.0580204,0.0,True,0.002133237896487117,0.0010564642725512385,0.8540772795677185,-1.0,85,15.889,0,0,False,,,,0,0,3,10,0.030819931998848915,48,28.501,,39.9526383,,-113.4759752,False,0.9054441659973236,36.652,,39.9526383,,-113.4759755,8.15,,39.9526383,,-113.4759755,-8.12885570526123,0.04568587616086006,0.03718051686882973,-1,MISSION,,,,,,ACTIVE,1733421880.6119134,0.01,0.02,-1.5,12,1,15,0,17760384,128,2
1733423943.159287,0.0,True,0.0020635980181396008,0.0007348927902057767,0.8540359735488892,-1.0,85,15.886,0,0,False,,,,0,0,3,10,0.02915162406861782,48,28.501,,39.9526383,,-113.4759752,False,0.0023013059981167316,36.773,,39.9526383,,-113.4759755,8.272,,39.9526383,,-113.4759755,-8.286738395690918,0.04597112536430359,0.03943439945578575,-1,MISSION,,,,,,ACTIVE,2062.547373533249,0.01,0.02,-1.5,12,1,15,0,17760384,128,2
1733423943.2574239,0.0,True,0.0022664915304630995,0.0008880653767846525,0.8544395565986633,-1.0,85,15.886,0,0,False,,,,0,0,3,10,0.02915162406861782,48,28.501,,39.9526383,,-113.4759752,False,0.09998002200154588,36.919,,39.9526383,,-113.4759755,8.418,,39.9526383,,-113.4759755,-8.408248901367188,0.045957740396261215,0.04110080376267433,-1,MISSION,,,,,,ACTIVE,1733421880.7100503,0.01,0.02,-1.5,12,1,15,0,17760384,128,2
1733423943.3600478,0.0,True,0.0016798936994746327,0.0007950832368806005,0.8550781011581421,-1.0,85,15.883,0,0,False,,,,0,0,3,10,0.026494843885302544,48,28.501,,39.9526383,,-113.4759752,False,0.09736595999856945,37.041,,39.9526383,,-113.4759755,8.539,,39.9526383,,-113.4759755,-8.554177284240723,0.04570615664124489,0.04300614446401596,-1,MISSION,,,,,,ACTIVE,2062.649997472763,0.0,0.02,-1.5,12,1,15,0,17760384,128,2
1733423943.4626675,0.0,True,0.0013186251744627953,0.0010847339872270823,0.8552379012107849,-1.0,85,15.883,0,0,False,,,,0,0,3,10,0.021602608263492584,49,28.501,,39.9526383,,-113.4759752,False,0.20000208899728023,37.198,,39.9526384,,-113.4759755,8.697,,39.9526384,,-113.4759755,-8.687723159790039,0.04526166990399361,0.044685546308755875,-1,MISSION,,,,,,ACTIVE,1733421880.81267,0.0,0.02,-1.5,12,1,15,0,17760384,128,2
1733423943.564686,0.0,True,0.0011001299135386944,0.0013821879401803017,0.8554997444152832,-1.0,84,15.878,0,0,False,,,,0,0,3,10,0.020829597488045692,49,28.501,,39.9526383,,-113.4759752,False,0.3017423389974283,37.32,,39.9526384,,-113.4759755,8.818,,39.9526384,,-113.4759755,-8.833284378051758,0.04463362321257591,0.04635683074593544,-1,MISSION,,,,,,ACTIVE,2062.752016067505,0.0,0.01,-1.5,12,1,15,0,17760384,128,2
1733423943.6601286,0.0,True,0.0009861128637567163,0.0017467978177592158,0.8557992577552795,-1.0,84,15.878,0,0,False,,,,0,0,3,10,0.02078893408179283,49,28.501,,39.9526383,,-113.4759752,False,0.39615941599186044,37.465,,39.9526384,,-113.4759755,8.964,,39.9526384,,-113.4759755,-8.954672813415527,0.04416866973042488,0.047915611416101456,-1,MISSION,,,,,,ACTIVE,1733421880.9081125,0.0,0.01,-1.5,12,1,15,0,17760384,128,2
1733423943.7611327,0.0,True,0.0010050798300653696,0.0017297464655712247,0.8559342622756958,-1.0,84,15.872,0,0,False,,,,0,0,3,10,0.018779953941702843,49,28.501,,39.9526383,,-113.4759752,False,0.4974234080000315,37.587,,39.9526384,,-113.4759755,9.085,,39.9526384,,-113.4759755,-9.100091934204102,0.04366374388337135,0.04986342787742615,-1,MISSION,,,,,,ACTIVE,2062.8530201911926,0.0,0.01,-1.5,12,1,15,0,17760384,128,2
1733423943.8635283,0.0,True,0.0008776667527854443,0.0021648861002177,0.8561604619026184,-1.0,84,15.872,0,0,False,,,,0,0,3,10,0.018327860161662102,49,28.501,,39.9526383,,-113.4759752,False,0.6012784949998604,37.744,,39.9526384,,-113.4759755,9.243,,39.9526384,,-113.4759755,-9.245467185974121,0.04325132444500923,0.051814526319503784,-1,MISSION,,,,,,ACTIVE,1733421881.010508,0.0,0.01,-1.5,12,1,15,0,17760384,128,2
1733423943.965027,0.0,True,0.0013421335024759173,0.0022817272692918777,0.8562478423118591,-1.0,84,15.866,0,0,False,,,,0,0,3,10,0.020171836018562317,49,28.501,,39.9526383,,-113.4759752,False,0.7020637949899537,37.865,,39.9526384,,-113.4759755,9.364,,39.9526384,,-113.4759755,-9.37878131866455,0.04305776581168175,0.053585298359394073,-1,MISSION,,,,,,ACTIVE,2062.954519033432,0.0,0.02,-1.51,12,1,15,0,17760384,128,2
1733423944.0670173,0.0,True,0.0011309152469038963,0.0024537735152989626,0.8564969301223755,-1.0,84,15.866,0,0,False,,,,0,0,3,10,0.019619416445493698,49,28.501,,39.9526383,,-113.4759752,False,0.804617027999484,38.011,,39.9526384,,-113.4759755,9.509,,39.9526384,,-113.4759755,-9.524273872375488,0.04300358518958092,0.05494459345936775,-1,MISSION,,,,,,ACTIVE,1733421881.1124983,0.0,0.01,-1.51,12,1,15,0,17760384,128,2
1733423944.1650326,0.0,True,0.0007820136961527169,0.0022341562435030937,0.8565874695777893,-1.0,83,15.86,0,0,False,,,,0,0,3,10,0.018861139193177223,49,28.501,,39.9526383,,-113.4759752,False,0.9015099799871678,38.132,,39.9526385,,-113.4759755,9.63,,39.9526385,,-113.4759755,-9.645407676696777,0.04310915991663933,0.05575507879257202,-1,MISSION,,,,,,ACTIVE,2063.052534341812,0.0,0.01,-1.51,12,1,15,0,17760384,128,2
1733423944.265317,0.0,True,0.00072908541187644,0.0023078010417521,0.8569381237030029,-1.0,83,15.86,0,0,False,,,,0,0,3,10,0.018861139193177223,49,28.501,,39.9526383,,-113.4759752,False,0.9952701119909761,38.289,,39.9526385,,-113.4759755,9.788,,39.9526385,,-113.4759755,-9.76651668548584,0.043500497937202454,0.056353069841861725,-1,MISSION,,,,,,ACTIVE,1733421881.2127826,0.0,0.01,-1.5,12,1,15,0,17760384,128,2
1733423944.3653955,0.0,True,0.0009919065050780773,0.0023950424510985613,0.8571641445159912,-1.0,83,15.856,0,0,False,,,,0,0,3,10,0.019536951556801796,49,28.501,,39.9526383,,-113.4759752,False,0.09558288101106882,38.411,,39.9526385,,-113.4759755,9.909,,39.9526385,,-113.4759755,-9.924055099487305,0.04421411454677582,0.057050153613090515,-1,MISSION,,,,,,ACTIVE,2063.152612924576,0.0,0.01,-1.51,12,1,15,0,17760384,128,2
1733423944.467648,0.0,True,0.0009579557809047401,0.0019203962292522192,0.8571546077728271,-1.0,83,15.854,0,0,False,,,,0,0,3,10,0.020889857783913612,49,28.501,,39.9526383,,-113.4759752,False,0.09353049998753704,38.556,,39.9526385,,-113.4759755,10.055,,39.9526385,,-113.4759755,-10.06966495513916,0.04486941173672676,0.05751454457640648,-1,MISSION,,,,,,ACTIVE,1733421881.315035,-0.01,0.02,-1.51,12,1,15,0,17760384,128,2
1733423944.5670054,0.0,True,0.0009117788285948336,0.001768606249243021,0.8572155833244324,-1.0,83,15.854,0,0,False,,,,0,0,3,10,0.02330518327653408,49,28.501,,39.9526383,,-113.4759752,False,0.1918138209875906,38.678,,39.9526385,,-113.4759755,10.177,,39.9526385,,-113.4759755,-10.203978538513184,0.04530997574329376,0.05790584534406662,-1,MISSION,,,,,,ACTIVE,2063.2519702911377,-0.01,0.02,-1.52,12,1,15,0,17760384,128,2
1733423944.6686006,0.0,True,0.0008666586363688111,0.0015392799396067858,0.8571836948394775,-1.0,83,15.848,0,0,False,,,,0,0,3,10,0.024174660444259644,49,28.501,,39.9526383,,-113.4759752,False,0.29580398299731314,38.84,,39.9526385,,-113.4759755,10.339,,39.9526385,,-113.4759755,-10.354507446289062,0.045684073120355606,0.058317989110946655,-1,MISSION,,,,,,ACTIVE,1733421881.4166303,-0.01,0.02,-1.58,12,1,15,0,17760384,128,2
1733423944.7674942,0.0,True,0.0006577605963684618,0.0012105543864890933,0.8573503494262695,-1.0,83,15.848,0,0,False,,,,0,0,3,10,0.026452623307704926,49,28.501,,39.9526383,,-113.4759752,False,0.3907230629993137,38.971,,39.9526385,,-113.4759755,10.469,,39.9526385,,-113.4759755,-10.485544204711914,0.0460645891726017,0.0586683489382267,-1,MISSION,,,,,,ACTIVE,2063.3508639335632,-0.01,0.02,-1.66,12,1,15,0,17760384,128,2
1733423944.8683422,0.0,True,0.0009553520358167589,0.0008105173474177718,0.8572461009025574,-1.0,82,15.842,0,0,False,,,,0,0,3,10,0.026960795745253563,49,28.501,,39.9526383,,-113.4759752,False,0.49508580499968957,39.136,,39.9526385,,-113.4759755,10.635,,39.9526385,,-113.4759755,-10.637792587280273,0.04645993188023567,0.059115901589393616,-1,MISSION,,,,,,ACTIVE,1733421881.5174782,-0.01,0.02,-1.78,12,1,15,0,17760384,128,2
1733423944.9687548,0.0,True,0.0013772522797808051,0.0009004563326016068,0.8575224280357361,-1.0,82,15.842,0,0,False,,,,0,0,3,10,0.027430010959506035,49,28.501,,39.9526383,,-113.4759752,False,0.5954161799891153,39.284,,39.9526385,,-113.4759755,10.782,,39.9526385,,-113.4759755,-10.800579071044922,0.04681791365146637,0.05944054573774338,-1,MISSION,,,,,,ACTIVE,2063.451276540756,-0.01,0.02,-1.91,12,1,15,0,17760384,128,2
1733423945.069307,0.0,True,0.0013926380779594183,0.0011672499822452664,0.8578096032142639,-1.0,82,15.836,0,0,False,,,,0,0,3,10,0.027281904593110085,49,28.501,,39.9526383,,-113.4759752,False,0.6950315649883123,39.492,,39.9526385,,-113.4759755,10.99,,39.9526385,,-113.4759755,-10.959606170654297,0.046934790909290314,0.0596357025206089,-1,MISSION,,,,,,ACTIVE,1733421881.6180305,-0.01,0.02,-2.11,12,1,15,0,17760384,128,2
1733423945.1689708,0.0,True,0.0013613755581900477,0.0008996800752356648,0.8578802347183228,-1.0,82,15.836,0,0,False,,,,0,0,3,10,0.02654045820236206,49,28.501,,39.9526383,,-113.4759752,False,0.7951954169984674,39.666,,39.9526385,,-113.4759755,11.164,,39.9526385,,-113.4759755,-11.18527889251709,0.04726236313581467,0.05989455431699753,-1,MISSION,,,,,,ACTIVE,2063.5509402751923,-0.01,0.02,-2.3,12,1,15,0,17760384,128,2
1733423945.2736337,0.0,True,0.0014151117065921426,0.0010978576028719544,0.857602596282959,-1.0,82,15.83,0,0,False,,,,0,0,3,10,0.0276649110019207,49,28.501,,39.9526383,,-113.4759752,False,0.9008186289865989,39.893,,39.9526385,,-113.4759755,11.392,,39.9526385,,-113.4759755,-11.414627075195312,0.047759972512722015,0.06015690416097641,-1,MISSION,,,,,,ACTIVE,1733421881.7226934,-0.01,0.02,-2.51,12,1,15,0,17760384,128,2
1733423945.3693743,0.0,True,0.0012710352893918753,0.001134679070673883,0.8572739958763123,-1.0,82,15.83,0,0,False,,,,0,0,3,10,0.0276649110019207,49,28.501,,39.9526383,,-113.4759752,False,0.9952421950001735,40.097,,39.9526385,,-113.4759755,11.595,,39.9526385,,-113.4759755,-11.619147300720215,0.048525258898735046,0.06019633635878563,-1,MISSION,,,,,,ACTIVE,2063.646680831909,-0.01,0.02,-2.66,12,1,15,0,17760384,128,2
1733423945.4692185,0.0,True,0.0014923863345757127,0.0010945689864456654,0.8572410941123962,-1.0,81,15.826,0,0,False,,,,0,0,3,10,0.0276743583381176,49,28.501,,39.9526383,,-113.4759752,False,0.08537563600111753,40.375,,39.9526385,,-113.4759755,11.874,,39.9526385,,-113.4759755,-11.85473346710205,0.04958776384592056,0.059873491525650024,-1,MISSION,,,,,,ACTIVE,1733421881.8225377,-0.01,0.02,-2.81,12,1,15,0,17760384,128,2
1733423945.569371,0.0,True,0.0013927946565672755,0.0006529712700285017,0.857068657875061,-1.0,81,15.824,0,0,False,,,,0,0,3,10,0.028729163110256195,49,28.501,,39.9526383,,-113.4759752,False,0.08002007499453612,40.598,,39.9526385,,-113.4759755,12.096,,39.9526385,,-113.4759755,-12.121902465820312,0.050916027277708054,0.05900205671787262,-1,MISSION,,,,,,ACTIVE,2063.7468333244324,-0.01,0.02,-2.9,12,1,15,0,17760384,128,2
1733423945.67086,0.0,True,0.0016344098839908838,0.0004734550602734089,0.85648113489151,-1.0,81,15.824,0,0,False,,,,0,0,3,10,0.029960671439766884,49,28.501,,39.9526383,,-113.4759752,False,0.18264302099123597,40.872,,39.9526385,,-113.4759754,12.371,,39.9526385,,-113.4759754,-12.39670181274414,0.052576515823602676,0.05786233767867088,-1,MISSION,,,,,,ACTIVE,1733421881.9240267,-0.01,0.02,-2.97,12,1,15,0,17760384,128,2
1733423945.7708855,0.0,True,0.0017570429481565952,4.005374285043217e-05,0.8560404181480408,-1.0,81,15.818,0,0,False,,,,0,0,3,10,0.029924428090453148,49,28.501,,39.9526383,,-113.4759752,False,0.2798185529973125,41.105,,39.9526385,,-113.4759754,12.603,,39.9526385,,-113.4759754,-12.629570007324219,0.053950101137161255,0.05673480033874512,-1,MISSION,,,,,,ACTIVE,2063.846858739853,-0.01,0.02,-3.0,12,1,15,0,17760384,128,2
1733423945.8727517,0.0,True,0.0015494640683755279,-0.0002898353268392384,0.8558042645454407,-1.0,81,15.818,0,0,False,,,,0,0,3,10,0.030753320083022118,49,28.501,,39.9526383,,-113.4759752,False,0.38247840499388985,41.409,,39.9526384,,-113.4759754,12.908,,39.9526384,,-113.4759754,-12.934107780456543,0.05575237050652504,0.055036820471286774,-1,MISSION,,,,,,ACTIVE,1733421882.025893,-0.02,0.02,-3.0,12,1,15,0,17760384,128,2
1733423945.9760566,0.0,True,0.0013744322350248694,-0.0007214987999759614,0.8558244705200195,-1.0,81,15.811,0,0,False,,,,0,0,3,10,0.03113195300102234,49,28.501,,39.9526383,,-113.4759752,False,0.4853151659917785,41.69,,39.9526384,,-113.4759754,13.189,,39.9526384,,-113.4759754,-13.191563606262207,0.057170409709215164,0.05344256013631821,-1,MISSION,,,,,,ACTIVE,2063.950163602829,-0.02,0.02,-2.98,12,1,15,0,17760384,128,2
