timestamp,airspeed,armed,attitude.pitch,attitude.roll,attitude.yaw,battery.current,battery.level,battery.voltage,commands.count,commands.next,ekf_ok,gimbal.pitch,gimbal.roll,gimbal.yaw,gps_0.eph,gps_0.epv,gps_0.fix_type,gps_0.satellites_visible,groundspeed,heading,home_location.alt,home_location.global_frame,home_location.lat,home_location.local_frame,home_location.lon,is_armable,last_heartbeat,location.global_frame.alt,location.global_frame.global_frame,location.global_frame.lat,location.global_frame.local_frame,location.global_frame.lon,location.global_relative_frame.alt,location.global_relative_frame.global_frame,location.global_relative_frame.lat,location.global_relative_frame.local_frame,location.global_relative_frame.lon,location.local_frame.down,location.local_frame.east,location.local_frame.north,ml_verdict,mode.name,mount_status[0],mount_status[1],mount_status[2],rangefinder.distance,rangefinder.voltage,system_status.state,timedelta,velocity[0],velocity[1],velocity[2],version.autopilot_type,version.major,version.minor,version.patch,version.raw_version,version.release,version.vehicle_type
1733421482.5977905,0.0,True,-0.002669610781595111,-0.0010208634193986654,0.5545241236686707,-1.0,100,16.196,0,8,False,,,,0,0,3,10,0.029434112831950188,31,28.49,,39.9526381,,-113.4759756,False,0.06630243999825325,28.495,,39.9526381,,-113.4759756,0.0,,39.9526381,,-113.4759756,0.0033838078379631042,0.038868289440870285,0.012118487618863583,-1,MISSION,,,,,,ACTIVE,0,0.02,0.01,0.0,12,1,15,0,17760384,128,2
1733421482.6965342,0.0,True,-0.002746358746662736,-0.0014846976846456528,0.5542075634002686,-1.0,100,16.193,0,8,False,,,,0,0,3,10,0.029560236260294914,31,28.49,,39.9526381,,-113.4759756,False,0.05801592998614069,28.495,,39.9526381,,-113.4759756,0.0,,39.9526381,,-113.4759756,0.003475345205515623,0.038916539400815964,0.01219797134399414,-1,MISSION,,,,,,ACTIVE,1733421482.6965342,0.02,0.01,0.0,12,1,15,0,17760384,128,2
1733421482.7981362,0.0,True,-0.002842284506186843,-0.0013691463973373175,0.554291844367981,-1.0,100,16.193,0,8,False,,,,0,0,3,10,0.028606072068214417,31,28.49,,39.9526381,,-113.4759756,False,0.16024970999569632,28.495,,39.9526381,,-113.4759756,0.0,,39.9526381,,-113.4759756,0.0037187181878834963,0.03887716308236122,0.012112371623516083,-1,MISSION,,,,,,ACTIVE,0.10160207748413086,0.02,0.01,0.0,12,1,15,0,17760384,128,2
1733421482.9010124,0.0,True,-0.002849295735359192,-0.001197422738187015,0.5543623566627502,-1.0,100,16.187,0,8,False,,,,0,0,3,10,0.028255026787519455,31,28.49,,39.9526381,,-113.4759756,False,0.26457037999352906,28.495,,39.9526381,,-113.4759756,0.0,,39.9526381,,-113.4759756,0.0037392559461295605,0.038805801421403885,0.01207067258656025,-1,MISSION,,,,,,ACTIVE,1733421482.7994103,0.02,0.01,0.0,12,1,15,0,17760384,128,2
1733421483.0009496,0.0,True,-0.002873738994821906,-0.0012155803851783276,0.554176926612854,-1.0,100,16.187,0,0,False,,,,0,0,3,10,0.028398077934980392,31,28.49,,39.9526381,,-113.4759756,False,0.36076367998612113,28.495,,39.9526381,,-113.4759756,0.0,,39.9526381,,-113.4759756,0.0036787143908441067,0.038780055940151215,0.012194609269499779,-1,MISSION,,,,,,ACTIVE,0.2015392780303955,0.02,0.01,0.0,12,1,15,0,17760384,128,2
1733421483.100922,0.0,True,-0.002844896400347352,-0.0012456870172172785,0.5539754033088684,-1.0,100,16.181,0,0,False,,,,0,0,3,10,0.03006233461201191,31,28.49,,39.9526381,,-113.4759756,False,0.4630742139997892,28.495,,39.9526381,,-113.4759756,0.0,,39.9526381,,-113.4759756,0.0037387493066489697,0.03872781991958618,0.012603187933564186,-1,MISSION,,,,,,ACTIVE,1733421482.8993828,0.02,0.01,0.0,12,1,15,0,17760384,128,2
1733421483.2021024,0.0,True,-0.0026925080455839634,-0.0012029542122036219,0.5542031526565552,-1.0,100,16.181,0,0,False,,,,0,0,3,10,0.03159799799323082,31,28.49,,39.9526381,,-113.4759756,False,0.5647993439924903,28.495,,39.9526381,,-113.4759756,-0.001,,39.9526381,,-113.4759756,0.0040587736293673515,0.038500722497701645,0.013231271877884865,-1,MISSION,,,,,,ACTIVE,0.3027195930480957,0.02,0.01,0.0,12,1,15,0,17760384,128,2
1733421483.302044,0.0,True,-0.002566602546721697,-0.0010942381341010332,0.5544926524162292,-1.0,100,16.181,0,0,False,,,,0,0,3,10,0.03159799799323082,31,28.496,,39.9526381,,-113.4759756,False,0.6644645989872515,28.494,,39.9526381,,-113.4759756,-0.001,,39.9526381,,-113.4759756,0.004444253630936146,0.03827323392033577,0.013878582045435905,-1,MISSION,,,,,,ACTIVE,1733421482.9993243,0.02,0.01,0.0,12,1,15,0,17760384,128,2
1733421483.4021018,0.0,True,-0.0024873341899365187,-0.0009656171896494925,0.5546050667762756,-1.0,100,16.176,0,0,False,,,,0,0,3,10,0.03173767775297165,31,28.496,,39.9526381,,-113.4759756,False,0.7644544759968994,28.494,,39.9526381,,-113.4759756,-0.001,,39.9526381,,-113.4759756,0.0047427816316485405,0.038114625960588455,0.014565893448889256,-1,MISSION,,,,,,ACTIVE,0.40277743339538574,0.02,0.01,0.0,12,1,15,0,17760384,128,2
1733421483.505401,0.0,True,-0.0024999564047902822,-0.0010256136301904917,0.5545796751976013,-1.0,100,16.176,0,0,False,,,,0,0,3,10,0.03194234147667885,31,28.496,,39.9526381,,-113.4759756,False,0.8690836999885505,28.494,,39.9526381,,-113.4759756,-0.002,,39.9526381,,-113.4759756,0.004983955062925816,0.03804159536957741,0.015175375156104565,-1,MISSION,,,,,,ACTIVE,1733421483.1026235,0.02,0.01,0.0,12,1,15,0,17760384,128,2
1733421483.606667,0.0,True,-0.0022621373645961285,-0.0007954260800033808,0.5548043847084045,-1.0,100,16.169,0,0,False,,,,0,0,3,10,0.031240122392773628,31,28.496,,39.9526381,,-113.4759756,False,0.9701283159956802,28.494,,39.9526381,,-113.4759756,-0.002,,39.9526381,,-113.4759756,0.005112544167786837,0.03786057233810425,0.015956895425915718,-1,MISSION,,,,,,ACTIVE,0.5040435791015625,0.02,0.01,0.0,12,1,15,0,17760384,128,2
1733421483.705634,0.0,True,-0.002311120508238673,-0.0005448079318739474,0.5548653602600098,-1.0,100,16.166,0,0,False,,,,0,0,3,10,0.030873283743858337,31,28.496,,39.9526381,,-113.4759756,False,0.06288669000787195,28.494,,39.9526381,,-113.4759756,-0.001,,39.9526381,,-113.4759756,0.004974782466888428,0.037730515003204346,0.016433963552117348,-1,MISSION,,,,,,ACTIVE,1733421483.2015905,0.02,0.01,0.0,12,1,15,0,17760384,128,2
1733421483.8057017,0.0,True,-0.0020556903909891844,-0.0007359231822192669,0.5547901391983032,-1.0,100,16.163,0,0,False,,,,0,0,3,10,0.029643474146723747,31,28.496,,39.9526381,,-113.4759756,False,0.05205889599164948,28.494,,39.9526381,,-113.4759756,-0.001,,39.9526381,,-113.4759756,0.004613746888935566,0.03758293762803078,0.016674542799592018,-1,MISSION,,,,,,ACTIVE,0.6041111946105957,0.02,0.01,0.0,12,1,15,0,17760384,128,2
1733421483.9081986,0.0,True,-0.0020811089780181646,-0.0009680202347226441,0.5546305179595947,-1.0,100,16.163,0,0,False,,,,0,0,3,10,0.02943350002169609,31,28.496,,39.9526381,,-113.4759756,False,0.1539855299924966,28.494,,39.9526381,,-113.4759756,-0.001,,39.9526381,,-113.4759756,0.004206500481814146,0.03725146874785423,0.016730979084968567,-1,MISSION,,,,,,ACTIVE,1733421483.3040874,0.02,0.01,0.0,12,1,15,0,17760384,128,2
1733421484.010803,0.0,True,-0.0020750141702592373,-0.001420551328919828,0.5549368262290955,-1.0,99,16.158,0,0,False,,,,0,0,3,10,0.028777141124010086,31,28.496,,39.9526381,,-113.4759756,False,0.26063951799005736,28.495,,39.9526381,,-113.4759756,0.0,,39.9526381,,-113.4759756,0.003881139447912574,0.03658981993794441,0.01677384227514267,-1,MISSION,,,,,,ACTIVE,0.7067155838012695,0.02,0.0,0.0,12,1,15,0,17760384,128,2
1733421484.108861,0.0,True,-0.0018285276601091027,-0.0013662311248481274,0.5550119876861572,-1.0,99,16.158,0,0,False,,,,0,0,3,10,0.02813996747136116,31,28.496,,39.9526381,,-113.4759756,False,0.35851575499691535,28.495,,39.9526381,,-113.4759756,0.0,,39.9526381,,-113.4759756,0.003788395319133997,0.03599269315600395,0.016894837841391563,-1,MISSION,,,,,,ACTIVE,1733421483.4021454,0.02,0.0,0.0,12,1,15,0,17760384,128,2
1733421484.2092,0.0,True,-0.0019181864336133003,-0.0013825129717588425,0.5552699565887451,-1.0,99,16.151,0,0,False,,,,0,0,3,10,0.027706939727067947,31,28.496,,39.9526381,,-113.4759756,False,0.4562562089995481,28.495,,39.9526381,,-113.4759756,0.0,,39.9526381,,-113.4759756,0.003639876376837492,0.0352313257753849,0.017011381685733795,-1,MISSION,,,,,,ACTIVE,0.8070545196533203,0.02,0.0,0.0,12,1,15,0,17760384,128,2
1733421484.3090189,0.0,True,-0.0019155516056343913,-0.0014324624789878726,0.5552237033843994,-1.0,99,16.151,0,0,False,,,,0,0,3,10,0.026893416419625282,31,28.496,,39.9526381,,-113.4759756,False,0.5581741689966293,28.495,,39.9526381,,-113.4759756,0.0,,39.9526381,,-113.4759756,0.003271341323852539,0.03403357043862343,0.017178840935230255,-1,MISSION,,,,,,ACTIVE,1733421483.5019643,0.02,0.0,0.0,12,1,15,0,17760384,128,2
1733421484.409461,0.0,True,-0.0018684429815039039,-0.0014398933853954077,0.5553894639015198,-1.0,99,16.151,0,0,False,,,,0,0,3,10,0.026893416419625282,31,28.496,,39.9526381,,-113.4759756,False,0.6565312029997585,28.496,,39.9526381,,-113.4759757,0.0,,39.9526381,,-113.4759757,0.0029773679561913013,0.033183708786964417,0.01737401634454727,-1,MISSION,,,,,,ACTIVE,0.9074966907501221,0.02,0.0,0.0,12,1,15,0,17760384,128,2
1733421484.5089972,0.0,True,-0.0019615439232438803,-0.0015087019419297576,0.555313766002655,-1.0,99,16.145,0,0,False,,,,0,0,3,10,0.025410154834389687,31,28.496,,39.9526381,,-113.4759756,False,0.7583820789877791,28.496,,39.9526381,,-113.4759757,0.0,,39.9526381,,-113.4759757,0.002536079613491893,0.03284495696425438,0.01746777445077896,-1,MISSION,,,,,,ACTIVE,1733421483.6015005,0.02,0.0,0.0,12,1,15,0,17760384,128,2
1733421484.6092453,0.0,True,-0.0018782899715006351,-0.0012829855550080538,0.5553070306777954,-1.0,99,16.145,0,0,False,,,,0,0,3,10,0.025892935693264008,31,28.496,,39.9526381,,-113.4759756,False,0.8556655319989659,28.497,,39.9526381,,-113.4759757,0.001,,39.9526381,,-113.4759757,0.002004833659157157,0.03259306773543358,0.01769818551838398,-1,MISSION,,,,,,ACTIVE,1.0077447891235352,0.02,0.0,0.0,12,1,15,0,17760384,128,2
1733421484.7092447,0.0,True,-0.0017286395886912942,-0.001475056167691946,0.5557799935340881,-1.0,99,16.14,0,0,False,,,,0,0,3,10,0.025289809331297874,31,28.496,,39.9526381,,-113.4759756,False,0.9591311089898227,28.497,,39.9526381,,-113.4759757,0.001,,39.9526381,,-113.4759757,0.0015558868180960417,0.032453689724206924,0.017856445163488388,-1,MISSION,,,,,,ACTIVE,1733421483.7015,0.02,0.0,0.0,12,1,15,0,17760384,128,2
1733421484.809873,0.0,True,-0.0017095443326979876,-0.001585626509040594,0.5559056997299194,-1.0,98,16.136,0,0,False,,,,0,0,3,10,0.02282281406223774,31,28.496,,39.9526381,,-113.4759756,False,0.052177038000081666,28.497,,39.9526381,,-113.4759757,0.001,,39.9526381,,-113.4759757,0.0012705849949270487,0.03227837756276131,0.017859434708952904,-1,MISSION,,,,,,ACTIVE,1.1083731651306152,0.02,0.0,0.0,12,1,15,0,17760384,128,2
1733421484.9101963,0.0,True,-0.0017569037154316902,-0.0016437058802694082,0.5558711886405945,-1.0,98,16.133,0,0,False,,,,0,0,3,10,0.023451978340744972,31,28.496,,39.9526381,,-113.4759756,False,0.0458713300031377,28.498,,39.9526381,,-113.4759757,0.002,,39.9526381,,-113.4759757,0.0010530337458476424,0.03218913823366165,0.017924433574080467,-1,MISSION,,,,,,ACTIVE,1733421483.8018231,0.02,0.0,0.0,12,1,15,0,17760384,128,2
1733421485.0102644,0.0,True,-0.0016872818814590573,-0.0016516071045771241,0.5556408166885376,-1.0,98,16.133,0,0,False,,,,0,0,3,10,0.02402665838599205,31,28.496,,39.9526381,,-113.4759756,False,0.1466831620055018,28.498,,39.9526381,,-113.4759757,0.002,,39.9526381,,-113.4759757,0.0006964401691220701,0.03209083527326584,0.017912590876221657,-1,MISSION,,,,,,ACTIVE,1.2084412574768066,0.02,0.0,0.0,12,1,15,0,17760384,128,2
1733421485.110448,0.0,True,-0.0015422275755554438,-0.0017247502692043781,0.5555019378662109,-1.0,98,16.128,0,0,False,,,,0,0,3,10,0.02357036992907524,31,28.496,,39.9526381,,-113.4759756,False,0.24524441799439956,28.498,,39.9526381,,-113.4759757,0.002,,39.9526381,,-113.4759757,0.0004261532158125192,0.032022662460803986,0.017654024064540863,-1,MISSION,,,,,,ACTIVE,1733421483.9020066,0.02,0.0,0.0,12,1,15,0,17760384,128,2
1733421485.210551,0.0,True,-0.0014561184216290712,-0.0017599030397832394,0.5554581880569458,-1.0,98,16.128,0,0,False,,,,0,0,3,10,0.02440820075571537,31,28.496,,39.9526381,,-113.4759756,False,0.3421553399966797,28.498,,39.9526381,,-113.4759757,0.002,,39.9526381,,-113.4759757,0.0003102388000115752,0.031759630888700485,0.017694946378469467,-1,MISSION,,,,,,ACTIVE,1.308544397354126,0.02,0.0,0.0,12,1,15,0,17760384,128,2
1733421485.3106601,0.0,True,-0.001309034414589405,-0.0014440974919125438,0.5554739236831665,-1.0,98,16.121,0,0,False,,,,0,0,3,10,0.022636685520410538,31,28.496,,39.9526381,,-113.4759756,False,0.4467750879994128,28.498,,39.9526381,,-113.4759757,0.002,,39.9526381,,-113.4759757,0.0003065995988436043,0.03136219084262848,0.017834261059761047,-1,MISSION,,,,,,ACTIVE,1733421484.0021157,0.02,0.0,0.0,12,1,15,0,17760384,128,2
1733421485.4107354,0.0,True,-0.0015326716238632798,-0.0017074886709451675,0.5555020570755005,-1.0,98,16.121,0,0,False,,,,0,0,3,10,0.022636685520410538,31,28.496,,39.9526381,,-113.4759756,False,0.547348713997053,28.498,,39.9526381,,-113.4759757,0.002,,39.9526381,,-113.4759757,0.0004003110225312412,0.030921462923288345,0.01785280928015709,-1,MISSION,,,,,,ACTIVE,1.4086196422576904,0.02,0.0,0.0,12,1,15,0,17760384,128,2
1733421485.5109425,0.0,True,-0.001508918940089643,-0.0017370618879795074,0.5552859902381897,-1.0,98,16.121,0,0,False,,,,0,0,3,10,0.020140068605542183,31,28.496,,39.9526381,,-113.4759757,False,0.6450724040041678,28.498,,39.9526381,,-113.4759757,0.002,,39.9526381,,-113.4759757,0.0003811599453911185,0.030607789754867554,0.017655974254012108,-1,MISSION,,,,,,ACTIVE,1733421484.1023228,0.01,0.0,0.0,12,1,15,0,17760384,128,2
1733421485.610969,0.0,True,-0.0012148531386628747,-0.0020573062356561422,0.5553683638572693,-1.0,97,16.115,0,0,False,,,,0,0,3,10,0.01952984370291233,31,28.496,,39.9526381,,-113.4759757,False,0.7465449580049608,28.498,,39.9526381,,-113.4759757,0.002,,39.9526381,,-113.4759757,0.00029626351897604764,0.030231822282075882,0.017478471621870995,-1,MISSION,,,,,,ACTIVE,1.5086462497711182,0.01,0.0,0.0,12,1,15,0,17760384,128,2
1733421485.7141073,0.0,True,-0.001227827393449843,-0.0026119037065654993,0.5552816987037659,-1.0,97,16.115,0,0,False,,,,0,0,3,10,0.018990542739629745,31,28.496,,39.9526381,,-113.4759757,False,0.8491073869954562,28.498,,39.9526381,,-113.4759757,0.002,,39.9526381,,-113.4759757,0.0004052140866406262,0.030282627791166306,0.01736232079565525,-1,MISSION,,,,,,ACTIVE,1733421484.205461,0.01,0.0,0.0,12,1,15,0,17760384,128,2
1733421485.81727,0.0,True,-0.00108744902536273,-0.002545068273320794,0.5554074048995972,-1.0,97,16.109,0,0,False,,,,0,0,3,10,0.020951492711901665,31,28.496,,39.9526381,,-113.4759757,False,0.9465351749968249,28.498,,39.9526381,,-113.4759757,0.002,,39.9526381,,-113.4759757,0.0006875782273709774,0.030339937657117844,0.017376722767949104,-1,MISSION,,,,,,ACTIVE,1.6118090152740479,0.01,0.0,0.0,12,1,15,0,17760384,128,2
1733421485.91737,0.0,True,-0.0008154399693012238,-0.0026443134993314743,0.5550646185874939,-1.0,97,16.106,0,0,False,,,,0,0,3,10,0.02140815742313862,31,28.496,,39.9526381,,-113.4759757,False,0.048636822000844404,28.498,,39.9526381,,-113.4759757,0.001,,39.9526381,,-113.4759757,0.0011460308451205492,0.030208345502614975,0.01726616732776165,-1,MISSION,,,,,,ACTIVE,1733421484.305561,0.01,0.0,0.0,12,1,15,0,17760384,128,2
1733421486.0192382,0.0,True,-0.0005433576880022883,-0.0024573039263486862,0.5549635291099548,-1.0,97,16.103,0,0,False,,,,0,0,3,10,0.02104738913476467,31,28.496,,39.9526381,,-113.4759757,False,0.045403626005281694,28.497,,39.9526381,,-113.4759757,0.001,,39.9526381,,-113.4759757,0.001323865377344191,0.029954219236969948,0.017200080677866936,-1,MISSION,,,,,,ACTIVE,1.713677167892456,0.01,-0.01,0.0,12,1,15,0,17760384,128,2
1733421486.1175714,0.0,True,-0.0002480693510733545,-0.002139790216460824,0.5549332499504089,-1.0,97,16.103,0,0,False,,,,0,0,3,10,0.01954040862619877,31,28.496,,39.9526381,,-113.4759757,False,0.14240774400241207,28.497,,39.9526381,,-113.4759757,0.001,,39.9526381,,-113.4759757,0.001518143923021853,0.029576914384961128,0.017161840572953224,-1,MISSION,,,,,,ACTIVE,1733421484.4038942,0.01,-0.01,0.0,12,1,15,0,17760384,128,2
1733421486.2179048,0.0,True,-0.0002445918507874012,-0.002098516095429659,0.5549788475036621,-1.0,96,16.097,0,0,False,,,,0,0,3,10,0.019288795068860054,31,28.496,,39.9526381,,-113.4759757,False,0.24035669599834364,28.497,,39.9526381,,-113.4759757,0.001,,39.9526381,,-113.4759757,0.0016268430044874549,0.028992246836423874,0.016967935487627983,-1,MISSION,,,,,,ACTIVE,1.8140106201171875,0.01,-0.01,0.0,12,1,15,0,17760384,128,2
1733421486.31787,0.0,True,-0.00036115606781095266,-0.0021179402247071266,0.5551871061325073,-1.0,96,16.097,0,0,False,,,,0,0,3,10,0.018839579075574875,31,28.496,,39.9526381,,-113.4759757,False,0.3429245730076218,28.497,,39.9526381,,-113.4759757,0.001,,39.9526381,,-113.4759757,0.0019450114341452718,0.027817701920866966,0.01641606166958809,-1,MISSION,,,,,,ACTIVE,1733421484.5038593,0.01,-0.01,0.0,12,1,15,0,17760384,128,2
1733421486.4217186,0.0,True,-0.00048292396240867674,-0.0020431552547961473,0.5554466247558594,-1.0,96,16.092,0,0,False,,,,0,0,3,10,0.01924031972885132,31,28.496,,39.9526381,,-113.4759757,False,0.4464935950090876,28.496,,39.9526381,,-113.4759757,0.0,,39.9526381,,-113.4759757,0.002343295607715845,0.02676633931696415,0.01590898633003235,-1,MISSION,,,,,,ACTIVE,1.9178593158721924,0.01,-0.01,0.0,12,1,15,0,17760384,128,2
1733421486.5178845,0.0,True,0.0001879547198768705,3.619585550040938e-05,0.5556910037994385,-1.0,96,16.092,0,0,False,,,,0,0,3,10,0.01924031972885132,31,28.496,,39.9526381,,-113.4759757,False,0.5426935230061645,28.496,,39.9526381,,-113.4759757,0.0,,39.9526381,,-113.4759757,0.0027779489755630493,0.025999723002314568,0.015292588621377945,-1,MISSION,,,,,,ACTIVE,1733421484.6000252,0.0,-0.01,0.0,12,1,15,0,17760384,128,2
1733421486.6196446,0.0,True,0.0020885970443487167,0.01008526049554348,0.555544376373291,-1.0,96,16.092,0,0,False,,,,0,0,3,10,0.01629931479692459,31,28.496,,39.9526381,,-113.4759757,False,0.645657626009779,28.497,,39.9526381,,-113.4759757,0.001,,39.9526381,,-113.4759757,0.002312786178663373,0.025763101875782013,0.014420604333281517,-1,MISSION,,,,,,ACTIVE,2.0196194648742676,0.0,0.0,-0.02,12,1,15,0,17760384,128,2
1733421486.7180915,0.0,True,0.002313505159690976,0.013565711677074432,0.5558257699012756,-1.0,96,16.085,0,0,False,,,,0,0,3,10,0.004410600755363703,31,28.496,,39.9526381,,-113.4759757,False,0.7425299000024097,28.5,,39.9526381,,-113.4759757,0.004,,39.9526381,,-113.4759757,-0.0016067009419202805,0.0268354881554842,0.012608430348336697,-1,MISSION,,,,,,ACTIVE,1733421484.698472,0.0,0.0,-0.05,12,1,15,0,17760384,128,2
1733421486.820423,0.0,True,0.0019166062120348215,0.012174288742244244,0.5558502674102783,-1.0,96,16.085,0,0,False,,,,0,0,3,10,0.010947921313345432,31,28.496,,39.9526381,,-113.4759757,False,0.8466800380119821,28.508,,39.952638,,-113.4759757,0.012,,39.952638,,-113.4759757,-0.010122835636138916,0.029165856540203094,0.010215774178504944,-1,MISSION,,,,,,ACTIVE,2.12195086479187,-0.01,0.01,-0.11,12,1,15,0,17760384,128,2
1733421486.9183254,0.0,True,0.0008611226221546531,0.008573034778237343,0.5554797649383545,-1.0,95,16.079,0,0,False,,,,0,0,3,10,0.028110213577747345,31,28.496,,39.9526381,,-113.4759757,False,0.9422387420054292,28.519,,39.952638,,-113.4759757,0.023,,39.952638,,-113.4759757,-0.021347135305404663,0.03179185464978218,0.007763508707284927,-1,MISSION,,,,,,ACTIVE,1733421484.7963746,-0.02,0.02,-0.16,12,1,15,0,17760384,128,2
1733421487.0194318,0.0,True,0.00023258512374013662,0.003974464256316423,0.555242121219635,-1.0,95,16.076,0,0,False,,,,0,0,3,10,0.03908788785338402,31,28.496,,39.9526381,,-113.4759757,False,0.04066073099966161,28.542,,39.952638,,-113.4759756,0.046,,39.952638,,-113.4759756,-0.03878629580140114,0.034873466938734055,0.005222348030656576,-1,MISSION,,,,,,ACTIVE,2.223057270050049,-0.02,0.03,-0.28,12,1,15,0,17760384,128,2
1733421487.1230888,0.0,True,-0.00027135820710100234,0.000579911982640624,0.5552367568016052,-1.0,95,16.073,0,0,False,,,,0,0,3,10,0.04322821646928787,31,28.496,,39.9526381,,-113.4759757,False,0.035428698000032455,28.567,,39.952638,,-113.4759756,0.071,,39.952638,,-113.4759756,-0.07125527411699295,0.03917566314339638,0.0022029494866728783,-1,MISSION,,,,,,ACTIVE,1733421484.9000316,-0.02,0.03,-0.36,12,1,15,0,17760384,128,2
1733421487.223869,0.0,True,-0.0006828404148109257,-0.001619651447981596,0.5551667213439941,-1.0,95,16.073,0,0,False,,,,0,0,3,10,0.04437888786196709,31,28.496,,39.9526381,,-113.4759757,False,0.13814640999771655,28.605,,39.9526379,,-113.4759755,0.109,,39.9526379,,-113.4759755,-0.10960130393505096,0.04321058839559555,-0.00033834687201306224,-1,MISSION,,,,,,ACTIVE,2.3238375186920166,-0.02,0.03,-0.45,12,1,15,0,17760384,128,2
1733421487.323841,0.0,True,-0.0010021814377978444,-0.003507555928081274,0.5553580522537231,-1.0,95,16.067,0,0,False,,,,0,0,3,10,0.04373427480459213,31,28.496,,39.9526381,,-113.4759757,False,0.23543008299020585,28.642,,39.9526379,,-113.4759755,0.146,,39.9526379,,-113.4759755,-0.14734895527362823,0.046741679310798645,-0.002288391347974539,-1,MISSION,,,,,,ACTIVE,1733421485.0000036,-0.02,0.03,-0.52,12,1,15,0,17760384,128,2
1733421487.4239995,0.0,True,-0.0009931821841746569,-0.004649508278816938,0.555620014667511,-1.0,95,16.067,0,0,False,,,,0,0,3,10,0.04071904718875885,31,28.496,,39.9526381,,-113.4759757,False,0.3377700690034544,28.698,,39.9526379,,-113.4759754,0.202,,39.9526379,,-113.4759754,-0.2036064863204956,0.05160415545105934,-0.005099660716950893,-1,MISSION,,,,,,ACTIVE,2.4239959716796875,-0.02,0.03,-0.6,12,1,15,0,17760384,128,2
1733421487.5240571,0.0,True,-0.0014079370303079486,-0.005317076109349728,0.5552500486373901,-1.0,95,16.067,0,0,False,,,,0,0,3,10,0.04071904718875885,31,28.496,,39.9526381,,-113.4759757,False,0.4356212839920772,28.746,,39.9526379,,-113.4759754,0.25,,39.9526379,,-113.4759754,-0.2572861611843109,0.0559266172349453,-0.007358528673648834,-1,MISSION,,,,,,ACTIVE,1733421485.1000612,-0.02,0.03,-0.67,12,1,15,0,17760384,128,2
1733421487.6252358,0.0,True,-0.001120491069741547,-0.00609835097566247,0.5552164316177368,-1.0,94,16.061,0,0,False,,,,0,0,3,10,0.036535486578941345,31,28.496,,39.9526381,,-113.4759757,False,0.5377595939935418,28.81,,39.9526379,,-113.4759753,0.314,,39.9526379,,-113.4759753,-0.316646933555603,0.060355160385370255,-0.009106116369366646,-1,MISSION,,,,,,ACTIVE,2.525174617767334,-0.01,0.03,-0.74,12,1,15,0,17760384,128,2
1733421487.7290637,0.0,True,-0.0004862873174715787,-0.006846554111689329,0.5551678538322449,-1.0,94,16.061,0,0,False,,,,0,0,3,10,0.033092644065618515,31,28.496,,39.9526381,,-113.4759757,False,0.6400785180012463,28.886,,39.9526379,,-113.4759753,0.39,,39.9526379,,-113.4759753,-0.3752876818180084,0.06430090963840485,-0.010165555402636528,-1,MISSION,,,,,,ACTIVE,1733421485.2038891,-0.01,0.02,-0.81,12,1,15,0,17760384,128,2
1733421487.8293478,0.0,True,-0.0003291158936917782,-0.007750011049211025,0.5550398826599121,-1.0,94,16.055,0,0,False,,,,0,0,3,10,0.026350535452365875,31,28.496,,39.9526381,,-113.4759757,False,0.7419870710000396,28.95,,39.9526378,,-113.4759752,0.454,,39.9526378,,-113.4759752,-0.4584334194660187,0.06917034089565277,-0.011489074677228928,-1,MISSION,,,,,,ACTIVE,2.6254587173461914,0.0,0.02,-0.87,12,1,15,0,17760384,128,2
1733421487.9306593,0.0,True,-0.00012430502101778984,-0.008270001970231533,0.5546674132347107,-1.0,94,16.055,0,0,False,,,,0,0,3,10,0.023834144696593285,31,28.496,,39.9526381,,-113.4759757,False,0.8452573879912961,29.033,,39.9526378,,-113.4759752,0.537,,39.9526378,,-113.4759752,-0.542026162147522,0.07344454526901245,-0.012400311417877674,-1,MISSION,,,,,,ACTIVE,1733421485.3052006,0.0,0.02,-0.94,12,1,15,0,17760384,128,2
1733421488.0295084,0.0,True,7.045920938253403e-06,-0.008615761995315552,0.5546181201934814,-1.0,94,16.049,0,0,False,,,,0,0,3,10,0.01828671433031559,31,28.496,,39.9526381,,-113.4759757,False,0.9420993249950698,29.108,,39.9526378,,-113.4759752,0.612,,39.9526378,,-113.4759752,-0.6167513728141785,0.07667095214128494,-0.012681425549089909,-1,MISSION,,,,,,ACTIVE,2.7243077754974365,0.0,0.01,-0.99,12,1,15,0,17760384,128,2
1733421488.1302774,0.0,True,0.00012218556366860867,-0.008535521104931831,0.554466724395752,-1.0,94,16.046,0,0,False,,,,0,0,3,10,0.01208234578371048,31,28.496,,39.9526381,,-113.4759757,False,0.04021270498924423,29.211,,39.9526378,,-113.4759751,0.715,,39.9526378,,-113.4759751,-0.6960201263427734,0.0795251801609993,-0.01256539300084114,-1,MISSION,,,,,,ACTIVE,1733421485.4059696,0.0,0.0,-1.06,12,1,15,0,17760384,128,2
1733421488.2308638,0.0,True,0.00043223996181041,-0.008112078532576561,0.5545452833175659,-1.0,93,16.043,0,0,False,,,,0,0,3,10,0.0067251380532979965,31,28.496,,39.9526381,,-113.4759757,False,0.031273095999495126,29.296,,39.9526378,,-113.4759751,0.8,,39.9526378,,-113.4759751,-0.8057413697242737,0.08231315016746521,-0.012047549709677696,-1,MISSION,,,,,,ACTIVE,2.8248941898345947,0.0,0.0,-1.12,12,1,15,0,17760384,128,2
1733421488.330666,0.0,True,0.0006227144622243941,-0.007615715730935335,0.5546169281005859,-1.0,93,16.043,0,0,False,,,,0,0,3,10,0.010460938327014446,31,28.496,,39.9526381,,-113.4759757,False,0.133918387000449,29.403,,39.9526378,,-113.4759751,0.907,,39.9526378,,-113.4759751,-0.8950697183609009,0.08376641571521759,-0.011324083432555199,-1,MISSION,,,,,,ACTIVE,1733421485.5057719,0.01,0.0,-1.18,12,1,15,0,17760384,128,2
1733421488.4323578,0.0,True,0.001075211213901639,-0.007376968394964933,0.5543427467346191,-1.0,93,16.037,0,0,False,,,,0,0,3,10,0.01404237374663353,31,28.496,,39.9526381,,-113.4759757,False,0.2359905310004251,29.497,,39.9526379,,-113.4759751,1.001,,39.9526379,,-113.4759751,-1.0078895092010498,0.08512791991233826,-0.010260874405503273,-1,MISSION,,,,,,ACTIVE,2.9265859127044678,0.01,0.0,-1.23,12,1,15,0,17760384,128,2
1733421488.534309,0.0,True,0.0013783893082290888,-0.007191444747149944,0.5542652606964111,-1.0,93,16.037,0,0,False,,,,0,0,3,10,0.017131399363279343,31,28.496,,39.9526381,,-113.4759757,False,0.3382353960041655,29.625,,39.9526379,,-113.475975,1.129,,39.9526379,,-113.475975,-1.1367297172546387,0.0862952396273613,-0.008997507393360138,-1,MISSION,,,,,,ACTIVE,1733421485.607723,0.01,0.0,-1.29,12,1,15,0,17760384,128,2
1733421488.6341217,0.0,True,0.0016621601535007358,-0.006776629015803337,0.5540171265602112,-1.0,93,16.037,0,0,False,,,,0,0,3,10,0.017131399363279343,31,28.496,,39.9526381,,-113.4759757,False,0.4363618560018949,29.727,,39.9526379,,-113.475975,1.231,,39.9526379,,-113.475975,-1.2488006353378296,0.08705464005470276,-0.007706489879637957,-1,MISSION,,,,,,ACTIVE,3.0263986587524414,0.01,-0.01,-1.31,12,1,15,0,17760384,128,2
1733421488.7350466,0.0,True,0.001748806913383305,-0.00669449009001255,0.5538830161094666,-1.0,93,16.032,0,0,False,,,,0,0,3,10,0.020430540665984154,31,28.496,,39.9526381,,-113.4759757,False,0.5382793919998221,29.85,,39.9526379,,-113.475975,1.354,,39.9526379,,-113.475975,-1.3616780042648315,0.08746013790369034,-0.006175135727971792,-1,MISSION,,,,,,ACTIVE,1733421485.708648,0.01,-0.01,-1.32,12,1,15,0,17760384,128,2
1733421488.8355553,0.0,True,0.0021768398582935333,-0.006361887790262699,0.5542721152305603,-1.0,93,16.032,0,0,False,,,,0,0,3,10,0.024132268503308296,31,28.496,,39.9526381,,-113.4759757,False,0.6361030849948293,29.953,,39.9526379,,-113.475975,1.457,,39.9526379,,-113.475975,-1.465167760848999,0.08741983026266098,-0.004640913102775812,-1,MISSION,,,,,,ACTIVE,3.1269073486328125,0.02,-0.01,-1.32,12,1,15,0,17760384,128,2
1733421488.935432,0.0,True,0.002169489162042737,-0.0055915797129273415,0.554165780544281,-1.0,92,16.026,0,0,False,,,,0,0,3,10,0.0315941721200943,31,28.496,,39.9526381,,-113.4759757,False,0.7381225559947779,30.089,,39.9526379,,-113.475975,1.593,,39.9526379,,-113.475975,-1.6011282205581665,0.08673754334449768,-0.0022912458516657352,-1,MISSION,,,,,,ACTIVE,1733421485.8085246,0.02,-0.02,-1.33,12,1,15,0,17760384,128,2
1733421489.0387464,0.0,True,0.002394131850451231,-0.004836099222302437,0.5543990135192871,-1.0,92,16.026,0,0,False,,,,0,0,3,10,0.033015165477991104,31,28.496,,39.9526381,,-113.4759757,False,0.8405598389945226,30.216,,39.9526379,,-113.475975,1.72,,39.9526379,,-113.475975,-1.7069358825683594,0.08583886921405792,-0.00047313698451034725,-1,MISSION,,,,,,ACTIVE,3.230221748352051,0.02,-0.02,-1.34,12,1,15,0,17760384,128,2
1733421489.138659,0.0,True,0.002190912840887904,-0.0038765943609178066,0.5667386054992676,-1.0,92,16.019,0,0,False,,,,0,0,3,10,0.0375157855451107,32,28.496,,39.9526381,,-113.4759757,False,0.938596038002288,30.323,,39.952638,,-113.4759751,1.827,,39.952638,,-113.4759751,-1.8350179195404053,0.08411502093076706,0.0016449642134830356,-1,MISSION,,,,,,ACTIVE,1733421485.9084373,0.02,-0.02,-1.35,12,1,15,0,17760384,128,2
1733421489.238668,0.0,True,0.0021914467215538025,-0.0029284420888870955,0.5678755044937134,-1.0,92,16.016,0,0,False,,,,0,0,3,10,0.04040016233921051,32,28.496,,39.9526381,,-113.4759757,False,0.03652523900382221,30.463,,39.952638,,-113.4759751,1.967,,39.952638,,-113.4759751,-1.9427624940872192,0.0821799486875534,0.00317961978726089,-1,MISSION,,,,,,ACTIVE,3.330230712890625,0.02,-0.03,-1.36,12,1,15,0,17760384,128,2
1733421489.3361537,0.0,True,0.0019006370566785336,-0.0022425397764891386,0.5696985721588135,-1.0,92,16.014,0,0,False,,,,0,0,3,10,0.04165441170334816,32,28.496,,39.9526381,,-113.4759757,False,0.027246432000538334,30.572,,39.952638,,-113.4759751,2.076,,39.952638,,-113.4759751,-2.084146022796631,0.07953768223524094,0.004993160255253315,-1,MISSION,,,,,,ACTIVE,1733421486.005923,0.02,-0.03,-1.36,12,1,15,0,17760384,128,2
1733421489.4386678,0.0,True,0.0017591423820704222,-0.0019178343936800957,0.571046769618988,-1.0,92,16.014,0,0,False,,,,0,0,3,10,0.04323489964008331,32,28.496,,39.9526381,,-113.4759757,False,0.12978770499466918,30.703,,39.952638,,-113.4759751,2.207,,39.952638,,-113.4759751,-2.1937413215637207,0.07731609046459198,0.006220405921339989,-1,MISSION,,,,,,ACTIVE,3.4327447414398193,0.02,-0.03,-1.37,12,1,15,0,17760384,128,2
1733421489.5355756,0.0,True,0.001452091266401112,-0.0013653284404426813,0.5713116526603699,-1.0,91,16.007,0,0,False,,,,0,0,3,10,0.04189911112189293,32,28.496,,39.9526381,,-113.4759757,False,0.22666908499377314,30.814,,39.952638,,-113.4759752,2.318,,39.952638,,-113.4759752,-2.326141119003296,0.07481110841035843,0.0075933984480798244,-1,MISSION,,,,,,ACTIVE,1733421486.102831,0.02,-0.03,-1.38,12,1,15,0,17760384,128,2
1733421489.6369963,0.0,True,0.0012441638391464949,-0.001162352622486651,0.5707697868347168,-1.0,91,16.007,0,0,False,,,,0,0,3,10,0.04189911112189293,32,28.496,,39.9526381,,-113.4759757,False,0.3290105109917931,30.958,,39.952638,,-113.4759752,2.462,,39.952638,,-113.4759752,-2.4483566284179688,0.07269516587257385,0.009069949388504028,-1,MISSION,,,,,,ACTIVE,3.534165382385254,0.01,-0.03,-1.39,12,1,15,0,17760384,128,2
1733421489.7385561,0.0,True,0.001131610944867134,-0.000780648784711957,0.5703223943710327,-1.0,91,16.007,0,0,False,,,,0,0,3,10,0.041260264813899994,32,28.496,,39.9526381,,-113.4759757,False,0.43121945500024594,31.07,,39.952638,,-113.4759752,2.574,,39.952638,,-113.4759752,-2.5825555324554443,0.0703083798289299,0.010701187886297703,-1,MISSION,,,,,,ACTIVE,1733421486.2043908,0.01,-0.03,-1.39,12,1,15,0,17760384,128,2
1733421489.8421478,0.0,True,0.0011541284620761871,-0.00030769334989599884,0.570200502872467,-1.0,91,16.001,0,0,False,,,,0,0,3,10,0.04047086834907532,32,28.496,,39.9526381,,-113.4759757,False,0.5338652979990002,31.205,,39.9526381,,-113.4759753,2.709,,39.9526381,,-113.4759753,-2.6952593326568604,0.06823118776082993,0.011872264556586742,-1,MISSION,,,,,,ACTIVE,3.6377570629119873,0.01,-0.03,-1.4,12,1,15,0,17760384,128,2
1733421489.9440522,0.0,True,0.0012417029356583953,-0.0005544000305235386,0.5699644088745117,-1.0,91,16.001,0,0,False,,,,0,0,3,10,0.0375966839492321,32,28.496,,39.9526381,,-113.4759757,False,0.6353429179871455,31.319,,39.9526381,,-113.4759753,2.822,,39.9526381,,-113.4759753,-2.831261157989502,0.06581038981676102,0.013211904093623161,-1,MISSION,,,,,,ACTIVE,1733421486.3062952,0.01,-0.03,-1.4,12,1,15,0,17760384,128,2
1733421490.0462587,0.0,True,0.0010749321663752198,-0.0003678752691484988,0.5696333050727844,-1.0,91,15.995,0,0,False,,,,0,0,3,10,0.035028159618377686,32,28.496,,39.9526381,,-113.4759757,False,0.7385381339991,31.467,,39.9526381,,-113.4759753,2.971,,39.9526381,,-113.4759753,-2.9795637130737305,0.06310353428125381,0.014746696688234806,-1,MISSION,,,,,,ACTIVE,3.7399635314941406,0.01,-0.03,-1.41,12,1,15,0,17760384,128,2
1733421490.145873,0.0,True,0.00120326760224998,-0.0004226471937727183,0.5696138739585876,-1.0,91,15.995,0,0,False,,,,0,0,3,10,0.0336647592484951,32,28.496,,39.9526381,,-113.4759757,False,0.835392654989846,31.581,,39.9526381,,-113.4759753,3.085,,39.9526381,,-113.4759753,-3.094296932220459,0.060853008180856705,0.01584567502140999,-1,MISSION,,,,,,ACTIVE,1733421486.4059095,0.01,-0.03,-1.42,12,1,15,0,17760384,128,2
1733421490.2471392,0.0,True,0.0010105763794854283,-0.00012542815238703042,0.5693188309669495,-1.0,90,15.99,0,0,False,,,,0,0,3,10,0.032708220183849335,32,28.496,,39.9526381,,-113.4759757,False,0.9382486839895137,31.72,,39.9526381,,-113.4759754,3.223,,39.9526381,,-113.4759754,-3.2324323654174805,0.057873811572790146,0.01710883155465126,-1,MISSION,,,,,,ACTIVE,3.8412296772003174,0.01,-0.02,-1.42,12,1,15,0,17760384,128,2
1733421490.35101,0.0,True,0.0008598404820077121,0.00021114322589710355,0.5693838000297546,-1.0,90,15.986,0,0,False,,,,0,0,3,10,0.032974619418382645,32,28.496,,39.9526381,,-113.4759757,False,0.03896561301371548,31.87,,39.9526381,,-113.4759754,3.374,,39.9526381,,-113.4759754,-3.348047971725464,0.05522865429520607,0.01816604845225811,-1,MISSION,,,,,,ACTIVE,1733421486.5097804,0.01,-0.03,-1.43,12,1,15,0,17760384,128,2
1733421490.447962,0.0,True,0.0008298952016048133,0.0009309934102930129,0.5694858431816101,-1.0,90,15.983,0,0,False,,,,0,0,3,10,0.032279349863529205,32,28.496,,39.9526381,,-113.4759757,False,0.02722501401149202,31.986,,39.9526381,,-113.4759754,3.49,,39.9526381,,-113.4759754,-3.498948097229004,0.05147256702184677,0.019757317379117012,-1,MISSION,,,,,,ACTIVE,3.9381816387176514,0.01,-0.02,-1.43,12,1,15,0,17760384,128,2
1733421490.5509684,0.0,True,0.0005631473031826317,0.0014597780536860228,0.569911539554596,-1.0,90,15.983,0,0,False,,,,0,0,3,10,0.030788715928792953,32,28.496,,39.9526381,,-113.4759757,False,0.1292268130055163,32.126,,39.9526381,,-113.4759755,3.629,,39.9526381,,-113.4759755,-3.6152596473693848,0.048449091613292694,0.021144269034266472,-1,MISSION,,,,,,ACTIVE,1733421486.6127868,0.01,-0.02,-1.44,12,1,15,0,17760384,128,2
1733421490.6489632,0.0,True,0.00019294366938993335,0.0019086081301793456,0.5699414014816284,-1.0,90,15.977,0,0,False,,,,0,0,3,10,0.02896343171596527,32,28.496,,39.9526381,,-113.4759757,False,0.22667969101166818,32.242,,39.9526382,,-113.4759755,3.746,,39.9526382,,-113.4759755,-3.754953145980835,0.044700987637043,0.022902999073266983,-1,MISSION,,,,,,ACTIVE,4.036176443099976,0.0,-0.02,-1.44,12,1,15,0,17760384,128,2
1733421490.7490273,0.0,True,0.00019388331566005945,0.0023741701152175665,0.5701109766960144,-1.0,90,15.977,0,0,False,,,,0,0,3,10,0.02896343171596527,32,28.496,,39.9526381,,-113.4759757,False,0.3299327420099871,32.394,,39.9526382,,-113.4759756,3.898,,39.9526382,,-113.4759756,-3.88340425491333,0.04103122279047966,0.024650389328598976,-1,MISSION,,,,,,ACTIVE,1733421486.7128508,0.0,-0.02,-1.44,12,1,15,0,17760384,128,2
1733421490.8490667,0.0,True,0.00025182339595630765,0.0025523316580802202,0.5702027678489685,-1.0,90,15.977,0,0,False,,,,0,0,3,10,0.026884809136390686,32,28.496,,39.9526381,,-113.4759757,False,0.4269115979986964,32.511,,39.9526382,,-113.4759756,4.015,,39.9526382,,-113.4759756,-4.024021148681641,0.036963675171136856,0.026435328647494316,-1,MISSION,,,,,,ACTIVE,4.136215925216675,0.01,-0.02,-1.45,12,1,15,0,17760384,128,2
1733421490.9500484,0.0,True,0.0006622598157264292,0.002871154807507992,0.5701960921287537,-1.0,89,15.971,0,0,False,,,,0,0,3,10,0.023179534822702408,32,28.496,,39.9526381,,-113.4759757,False,0.5291975020081736,32.652,,39.9526382,,-113.4759757,4.156,,39.9526382,,-113.4759757,-4.141585350036621,0.033865831792354584,0.02769526280462742,-1,MISSION,,,,,,ACTIVE,1733421486.8138325,0.0,-0.01,-1.45,12,1,15,0,17760384,128,2
1733421491.0501523,0.0,True,0.0007074159220792353,0.0030411931220442057,0.5700986385345459,-1.0,89,15.971,0,0,False,,,,0,0,3,10,0.02024943381547928,32,28.496,,39.9526381,,-113.4759757,False,0.6309934930031886,32.77,,39.9526382,,-113.4759757,4.274,,39.9526382,,-113.4759757,-4.283271312713623,0.03031536191701889,0.029085952788591385,-1,MISSION,,,,,,ACTIVE,4.2363197803497314,0.0,-0.01,-1.45,12,1,15,0,17760384,128,2
1733421491.1497405,0.0,True,0.0006092843832448125,0.003152968594804406,0.5699511766433716,-1.0,89,15.965,0,0,False,,,,0,0,3,10,0.01573357731103897,32,28.496,,39.9526381,,-113.4759757,False,0.7292075340083102,32.924,,39.9526382,,-113.4759757,4.428,,39.9526382,,-113.4759757,-4.401701927185059,0.02737109549343586,0.03038306161761284,-1,MISSION,,,,,,ACTIVE,1733421486.9134207,0.0,-0.01,-1.46,12,1,15,0,17760384,128,2
1733421491.2513187,0.0,True,0.0010541049996390939,0.003648972837254405,0.5695952773094177,-1.0,89,15.965,0,0,False,,,,0,0,3,10,0.014495612122118473,32,28.496,,39.9526381,,-113.4759757,False,0.8327896210103063,33.043,,39.9526382,,-113.4759758,4.547,,39.9526382,,-113.4759758,-4.556224346160889,0.02375592663884163,0.032494284212589264,-1,MISSION,,,,,,ACTIVE,4.337898015975952,0.0,-0.01,-1.46,12,1,15,0,17760384,128,2
1733421491.3510976,0.0,True,0.0013069667620584369,0.0036488575860857964,0.5694751739501953,-1.0,89,15.959,0,0,False,,,,0,0,3,10,0.008836861699819565,32,28.496,,39.9526381,,-113.4759757,False,0.9292838020046474,33.186,,39.9526383,,-113.4759758,4.69,,39.9526383,,-113.4759758,-4.675363540649414,0.021366022527217865,0.03421451151371002,-1,MISSION,,,,,,ACTIVE,1733421487.0131996,0.0,0.0,-1.47,12,1,15,0,17760384,128,2
1733421491.4536488,0.0,True,0.0014400280779227614,0.0035082350950688124,0.5692057609558105,-1.0,89,15.956,0,0,False,,,,0,0,3,10,0.005324273835867643,32,28.496,,39.9526381,,-113.4759757,False,0.026929870000458322,33.305,,39.9526383,,-113.4759758,4.809,,39.9526383,,-113.4759758,-4.818398952484131,0.018774347379803658,0.036403242498636246,-1,MISSION,,,,,,ACTIVE,4.440449237823486,0.0,0.0,-1.47,12,1,15,0,17760384,128,2
1733421491.551054,0.0,True,0.001711517572402954,0.003568614600226283,0.5691482424736023,-1.0,88,15.953,0,0,False,,,,0,0,3,10,0.004020774737000465,32,28.496,,39.9526381,,-113.4759757,False,0.01807919700513594,33.46,,39.9526383,,-113.4759759,4.964,,39.9526383,,-113.4759759,-4.937516212463379,0.016808494925498962,0.03835645318031311,-1,MISSION,,,,,,ACTIVE,1733421487.1106048,0.0,0.0,-1.47,12,1,15,0,17760384,128,2
1733421491.6547182,0.0,True,0.0019582402892410755,0.0036361380480229855,0.5688775181770325,-1.0,88,15.953,0,0,False,,,,0,0,3,10,0.005435137543827295,32,28.496,,39.9526381,,-113.4759757,False,0.12431294500129297,33.579,,39.9526383,,-113.4759759,5.083,,39.9526383,,-113.4759759,-5.092554569244385,0.014672314748167992,0.04098944738507271,-1,MISSION,,,,,,ACTIVE,4.544113397598267,0.0,0.0,-1.47,12,1,15,0,17760384,128,2
1733421491.7556663,0.0,True,0.002283250680193305,0.003453429089859128,0.5683141350746155,-1.0,88,15.947,0,0,False,,,,0,0,3,10,0.011110002174973488,32,28.496,,39.9526381,,-113.4759757,False,0.2243539850023808,33.723,,39.9526383,,-113.4759759,5.227,,39.9526383,,-113.4759759,-5.223974704742432,0.013547984883189201,0.04340038076043129,-1,MISSION,,,,,,ACTIVE,1733421487.2115529,0.0,0.01,-1.47,12,1,15,0,17760384,128,2
1733421491.851556,0.0,True,0.002875338075682521,0.0032898751087486744,0.5678109526634216,-1.0,88,15.947,0,0,False,,,,0,0,3,10,0.011110002174973488,32,28.496,,39.9526381,,-113.4759757,False,0.3200477049977053,33.842,,39.9526384,,-113.4759759,5.346,,39.9526384,,-113.4759759,-5.355610370635986,0.013088420033454895,0.046065934002399445,-1,MISSION,,,,,,ACTIVE,4.640003204345703,0.0,0.01,-1.48,12,1,15,0,17760384,128,2
1733421491.9552233,0.0,True,0.0035308189690113068,0.0032437636982649565,0.5672285556793213,-1.0,88,15.947,0,0,False,,,,0,0,3,10,0.014445342123508453,32,28.496,,39.9526381,,-113.4759757,False,0.4229273560049478,33.998,,39.9526384,,-113.4759759,5.502,,39.9526384,,-113.4759759,-5.475464820861816,0.013045498169958591,0.04856552928686142,-1,MISSION,,,,,,ACTIVE,1733421487.31522,0.0,0.01,-1.48,12,1,15,0,17760384,128,2
1733421492.0551872,0.0,True,0.003840596880763769,0.003257423872128129,0.5666386485099792,-1.0,88,15.941,0,0,False,,,,0,0,3,10,0.016322070732712746,32,28.496,,39.9526381,,-113.4759757,False,0.5244220860040514,34.118,,39.9526384,,-113.4759759,5.622,,39.9526384,,-113.4759759,-5.631519794464111,0.013295570388436317,0.05179416760802269,-1,MISSION,,,,,,ACTIVE,4.739967107772827,0.0,0.01,-1.48,12,1,15,0,17760384,128,2
1733421492.1554613,0.0,True,0.0038246195763349533,0.0030927539337426424,0.5661568641662598,-1.0,88,15.941,0,0,False,,,,0,0,3,10,0.018667155876755714,32,28.496,,39.9526381,,-113.4759757,False,0.6229670730099315,34.262,,39.9526384,,-113.4759759,5.766,,39.9526384,,-113.4759759,-5.775712966918945,0.013592301867902279,0.05478621646761894,-1,MISSION,,,,,,ACTIVE,1733421487.4154942,0.0,0.01,-1.48,12,1,15,0,17760384,128,2
1733421492.255563,0.0,True,0.004130993038415909,0.002770025050267577,0.5658501386642456,-1.0,87,15.935,0,0,False,,,,0,0,3,10,0.021808182820677757,32,28.496,,39.9526381,,-113.4759757,False,0.7242714239982888,34.383,,39.9526385,,-113.4759759,5.886,,39.9526385,,-113.4759759,-5.895915508270264,0.013966233469545841,0.057257279753685,-1,MISSION,,,,,,ACTIVE,4.840068817138672,0.0,0.02,-1.48,12,1,15,0,17760384,128,2
1733421492.3569512,0.0,True,0.0045743235386908054,0.002468075370416045,0.5657482743263245,-1.0,87,15.935,0,0,False,,,,0,0,3,10,0.024247225373983383,32,28.496,,39.9526381,,-113.4759757,False,0.827345259996946,34.539,,39.9526385,,-113.4759759,6.043,,39.9526385,,-113.4759759,-6.052261829376221,0.014505263417959213,0.06041776388883591,-1,MISSION,,,,,,ACTIVE,1733421487.5168824,-0.01,0.02,-1.48,12,1,15,0,17760384,128,2
1733421492.4564185,0.0,True,0.004833983723074198,0.002305443864315748,0.5657947063446045,-1.0,87,15.929,0,0,False,,,,0,0,3,10,0.026180757209658623,32,28.496,,39.9526381,,-113.4759757,False,0.9243546079960652,34.659,,39.9526385,,-113.4759759,6.163,,39.9526385,,-113.4759759,-6.1726603507995605,0.014989985153079033,0.06254904717206955,-1,MISSION,,,,,,ACTIVE,4.939536094665527,-0.01,0.02,-1.49,12,1,15,0,17760384,128,2
1733421492.5570679,0.0,True,0.005064565688371658,0.0022257694508880377,0.5658997893333435,-1.0,87,15.926,0,0,False,,,,0,0,3,10,0.02856743335723877,32,28.496,,39.9526381,,-113.4759757,False,0.02286956000898499,34.804,,39.9526385,,-113.4759759,6.308,,39.9526385,,-113.4759759,-6.317558288574219,0.015563607215881348,0.06461887806653976,-1,MISSION,,,,,,ACTIVE,1733421487.6175318,-0.01,0.02,-1.49,12,1,15,0,17760384,128,2
1733421492.657163,0.0,True,0.0049613043665885925,0.0022371094673871994,0.566569983959198,-1.0,87,15.923,0,0,False,,,,0,0,3,10,0.02940286509692669,32,28.496,,39.9526381,,-113.4759757,False,0.013438167006825097,34.925,,39.9526385,,-113.4759759,6.429,,39.9526385,,-113.4759759,-6.438498020172119,0.015868021175265312,0.0659257099032402,-1,MISSION,,,,,,ACTIVE,5.039631128311157,-0.01,0.02,-1.49,12,1,15,0,17760384,128,2
1733421492.7572505,0.0,True,0.004454575013369322,0.0022464466746896505,0.5673255324363708,-1.0,87,15.923,0,0,False,,,,0,0,3,10,0.02895526774227619,32,28.496,,39.9526381,,-113.4759757,False,0.11581099599425215,35.082,,39.9526386,,-113.4759759,6.586,,39.9526386,,-113.4759759,-6.595910549163818,0.01601560041308403,0.06740636378526688,-1,MISSION,,,,,,ACTIVE,1733421487.7176194,-0.02,0.01,-1.49,12,1,15,0,17760384,128,2
1733421492.860655,0.0,True,0.004300159402191639,0.00228439480997622,0.5675086379051208,-1.0,87,15.923,0,0,False,,,,0,0,3,10,0.02992328256368637,32,28.496,,39.9526381,,-113.4759757,False,0.2137675779958954,35.204,,39.9526386,,-113.4759759,6.707,,39.9526386,,-113.4759759,-6.729150295257568,0.016284609213471413,0.06838975101709366,-1,MISSION,,,,,,ACTIVE,5.143035650253296,-0.02,0.01,-1.49,12,1,15,0,17760384,128,2
1733421492.9574428,0.0,True,0.004147048108279705,0.0022811400704085827,0.5679763555526733,-1.0,86,15.917,0,0,False,,,,0,0,3,10,0.031094754114747047,32,28.496,,39.9526381,,-113.4759757,False,0.3159049189998768,35.349,,39.9526386,,-113.4759759,6.853,,39.9526386,,-113.4759759,-6.862682342529297,0.01670936681330204,0.0692351907491684,-1,MISSION,,,,,,ACTIVE,1733421487.814407,-0.02,0.01,-1.49,12,1,15,0,17760384,128,2
1733421493.0575662,0.0,True,0.003869996638968587,0.002445594174787402,0.5677892565727234,-1.0,86,15.917,0,0,False,,,,0,0,3,10,0.033271659165620804,32,28.496,,39.9526381,,-113.4759757,False,0.4134531479940051,35.471,,39.9526386,,-113.4759758,6.974,,39.9526386,,-113.4759758,-6.9840569496154785,0.017274418845772743,0.06973844766616821,-1,MISSION,,,,,,ACTIVE,5.243159055709839,-0.02,0.01,-1.49,12,1,15,0,17760384,128,2
1733421493.157756,0.0,True,0.004020665306597948,0.0020466516725718975,0.5674527883529663,-1.0,86,15.911,0,0,False,,,,0,0,3,10,0.03494412079453468,32,28.496,,39.9526381,,-113.4759757,False,0.5157229320029728,35.628,,39.9526386,,-113.4759758,7.132,,39.9526386,,-113.4759758,-7.1415114402771,0.018115874379873276,0.07011250406503677,-1,MISSION,,,,,,ACTIVE,1733421487.914597,-0.02,0.02,-1.49,12,1,15,0,17760384,128,2
1733421493.260767,0.0,True,0.004299083724617958,0.001917311456054449,0.5674473643302917,-1.0,86,15.911,0,0,False,,,,0,0,3,10,0.0373571440577507,32,28.496,,39.9526381,,-113.4759757,False,0.6198591110005509,35.773,,39.9526386,,-113.4759758,7.277,,39.9526386,,-113.4759758,-7.2624640464782715,0.018864735960960388,0.07022041827440262,-1,MISSION,,,,,,ACTIVE,5.346169948577881,-0.03,0.02,-1.49,12,1,15,0,17760384,128,2
1733421493.3606496,0.0,True,0.004362340085208416,0.0014547646278515458,0.5676989555358887,-1.0,86,15.905,0,0,False,,,,0,0,3,10,0.03962120786309242,32,28.496,,39.9526381,,-113.4759757,False,0.7201030489959521,35.894,,39.9526386,,-113.4759758,7.398,,39.9526386,,-113.4759758,-7.407479286193848,0.019904283806681633,0.0700950101017952,-1,MISSION,,,,,,ACTIVE,1733421488.0144796,-0.03,0.02,-1.5,12,1,15,0,17760384,128,2
1733421493.4602847,0.0,True,0.0041030352003872395,0.0013007714878767729,0.5677396059036255,-1.0,86,15.905,0,0,False,,,,0,0,3,10,0.039813630282878876,32,28.496,,39.9526381,,-113.4759757,False,0.818231867000577,36.051,,39.9526386,,-113.4759758,7.555,,39.9526386,,-113.4759758,-7.528325080871582,0.020811228081583977,0.06966046243906021,-1,MISSION,,,,,,ACTIVE,5.445805072784424,-0.03,0.02,-1.5,12,1,15,0,17760384,128,2
1733421493.5610301,0.0,True,0.004058747086673975,0.0009926303755491972,0.5675580501556396,-1.0,85,15.899,0,0,False,,,,0,0,3,10,0.041546232998371124,32,28.496,,39.9526381,,-113.4759757,False,0.9203799429960782,36.172,,39.9526386,,-113.4759758,7.676,,39.9526386,,-113.4759758,-7.68535852432251,0.022493714466691017,0.0691576823592186,-1,MISSION,,,,,,ACTIVE,1733421488.115225,-0.03,0.02,-1.5,12,1,15,0,17760384,128,2
1733421493.6606274,0.0,True,0.004879404790699482,0.0005797373596578836,0.5675326585769653,-1.0,85,15.896,0,0,False,,,,0,0,3,10,0.041659314185380936,32,28.496,,39.9526381,,-113.4759757,False,0.010794999994686805,36.317,,39.9526386,,-113.4759758,7.821,,39.9526386,,-113.4759758,-7.806237697601318,0.02428223378956318,0.06911510229110718,-1,MISSION,,,,,,ACTIVE,5.54540228843689,-0.03,0.02,-1.5,12,1,15,0,17760384,128,2
1733421493.764873,0.0,True,0.005107533652335405,0.00039555205148644745,0.5677079558372498,-1.0,85,15.893,0,0,False,,,,0,0,3,10,0.041487425565719604,32,28.496,,39.9526381,,-113.4759757,False,0.01098017800541129,36.438,,39.9526386,,-113.4759757,7.942,,39.9526386,,-113.4759757,-7.951234817504883,0.02679162099957466,0.06941917538642883,-1,MISSION,,,,,,ACTIVE,1733421488.2194707,-0.03,0.02,-1.5,12,1,15,0,17760384,128,2
1733421493.8612728,0.0,True,0.005536166485399008,-7.716102118138224e-05,0.5675116181373596,-1.0,85,15.893,0,0,False,,,,0,0,3,10,0.041487425565719604,32,28.496,,39.9526381,,-113.4759757,False,0.10646229299891274,36.595,,39.9526386,,-113.4759757,8.099,,39.9526386,,-113.4759757,-8.08415412902832,0.029102088883519173,0.06985769420862198,-1,MISSION,,,,,,ACTIVE,5.641802072525024,-0.03,0.02,-1.5,12,1,15,0,17760384,128,2
1733421493.9615526,0.0,True,0.005577395670115948,-0.00036243689828552306,0.5676451325416565,-1.0,85,15.893,0,0,False,,,,0,0,3,10,0.042501434683799744,32,28.496,,39.9526381,,-113.4759757,False,0.2085427310084924,36.716,,39.9526386,,-113.4759757,8.22,,39.9526386,,-113.4759757,-8.229129791259766,0.03180643543601036,0.07002220302820206,-1,MISSION,,,,,,ACTIVE,1733421488.3197505,-0.03,0.02,-1.5,12,1,15,0,17760384,128,2
1733421494.061504,0.0,True,0.005764465779066086,-0.0009370518964715302,0.5677991509437561,-1.0,85,15.887,0,0,False,,,,0,0,3,10,0.044278647750616074,32,28.496,,39.9526381,,-113.4759757,False,0.306338072012295,36.861,,39.9526386,,-113.4759756,8.365,,39.9526386,,-113.4759756,-8.350080490112305,0.034166235476732254,0.06993444263935089,-1,MISSION,,,,,,ACTIVE,5.741753339767456,-0.03,0.02,-1.5,12,1,15,0,17760384,128,2
1733421494.1617193,0.0,True,0.005814339034259319,-0.001353178871795535,0.5680214762687683,-1.0,85,15.887,0,0,False,,,,0,0,3,10,0.04359808191657066,32,28.496,,39.9526381,,-113.4759757,False,0.4082406060042558,36.982,,39.9526386,,-113.4759756,8.486,,39.9526386,,-113.4759756,-8.495375633239746,0.037256911396980286,0.06970365345478058,-1,MISSION,,,,,,ACTIVE,1733421488.419966,-0.03,0.02,-1.5,12,1,15,0,17760384,128,2
1733421494.262084,0.0,True,0.0061363098211586475,-0.0017479922389611602,0.5682610869407654,-1.0,84,15.882,0,0,False,,,,0,0,3,10,0.04242471233010292,32,28.496,,39.9526381,,-113.4759757,False,0.5062543970125262,37.139,,39.9526386,,-113.4759756,8.643,,39.9526386,,-113.4759756,-8.616403579711914,0.039941661059856415,0.06943793594837189,-1,MISSION,,,,,,ACTIVE,5.84211802482605,-0.03,0.02,-1.5,12,1,15,0,17760384,128,2
1733421494.3624022,0.0,True,0.006449017208069563,-0.001829625922255218,0.5681902170181274,-1.0,84,15.882,0,0,False,,,,0,0,3,10,0.04193796589970589,32,28.496,,39.9526381,,-113.4759757,False,0.608864291003556,37.261,,39.9526386,,-113.4759755,8.764,,39.9526386,,-113.4759755,-8.77405071258545,0.043378666043281555,0.06873758137226105,-1,MISSION,,,,,,ACTIVE,1733421488.5202842,-0.03,0.02,-1.5,12,1,15,0,17760384,128,2
1733421494.4624083,0.0,True,0.006326333619654179,-0.0021332288160920143,0.568303644657135,-1.0,84,15.875,0,0,False,,,,0,0,3,10,0.043964412063360214,32,28.496,,39.9526381,,-113.4759757,False,0.7063780930038774,37.406,,39.9526386,,-113.4759755,8.91,,39.9526386,,-113.4759755,-8.895465850830078,0.04602383077144623,0.06775946170091629,-1,MISSION,,,,,,ACTIVE,5.942124128341675,-0.03,0.02,-1.5,12,1,15,0,17760384,128,2
1733421494.562692,0.0,True,0.006208993960171938,-0.002871475415304303,0.5685855150222778,-1.0,84,15.875,0,0,False,,,,0,0,3,10,0.04491136595606804,32,28.496,,39.9526381,,-113.4759757,False,0.8083200090040918,37.528,,39.9526385,,-113.4759755,9.032,,39.9526385,,-113.4759755,-9.04114818572998,0.04896622896194458,0.06623344123363495,-1,MISSION,,,,,,ACTIVE,1733421488.6205678,-0.03,0.02,-1.5,12,1,15,0,17760384,128,2
1733421494.6625116,0.0,True,0.0061977943405508995,-0.0033845901489257812,0.5689578652381897,-1.0,84,15.869,0,0,False,,,,0,0,3,10,0.043733853846788406,32,28.496,,39.9526381,,-113.4759757,False,0.9063539990020217,37.685,,39.9526385,,-113.4759754,9.189,,39.9526385,,-113.4759754,-9.162578582763672,0.05119594559073448,0.06476788222789764,-1,MISSION,,,,,,ACTIVE,6.041943788528442,-0.03,0.01,-1.5,12,1,15,0,17760384,128,2
1733421494.768653,0.0,True,0.005881840828806162,-0.003638853318989277,0.5693976879119873,-1.0,84,15.866,0,0,False,,,,0,0,3,10,0.043070029467344284,32,28.496,,39.9526381,,-113.4759757,False,0.009729009994771332,37.807,,39.9526385,,-113.4759754,9.311,,39.9526385,,-113.4759754,-9.320510864257812,0.05365874990820885,0.0625155121088028,-1,MISSION,,,,,,ACTIVE,1733421488.7267091,-0.04,0.01,-1.5,12,1,15,0,17760384,128,2
1733421494.86657,0.0,True,0.005468592047691345,-0.003999184351414442,0.5698649883270264,-1.0,84,15.864,0,0,False,,,,0,0,3,10,0.044772736728191376,32,28.496,,39.9526381,,-113.4759757,False,0.0026856319891521707,37.953,,39.9526385,,-113.4759754,9.457,,39.9526385,,-113.4759754,-9.454023361206055,0.05536160245537758,0.0603768527507782,-1,MISSION,,,,,,ACTIVE,6.1398608684539795,-0.04,0.01,-1.5,12,1,15,0,17760384,128,2
1733421494.966651,0.0,True,0.004675146657973528,-0.00417687464505434,0.5701037049293518,-1.0,84,15.864,0,0,False,,,,0,0,3,10,0.044772736728191376,32,28.496,,39.9526381,,-113.4759757,False,0.10220374100026675,38.074,,39.9526385,,-113.4759754,9.578,,39.9526385,,-113.4759754,-9.599529266357422,0.05698895454406738,0.05736124888062477,-1,MISSION,,,,,,ACTIVE,1733421488.82679,-0.04,0.0,-1.5,12,1,15,0,17760384,128,2
1733421495.064744,0.0,True,0.0040813651867210865,-0.004363611340522766,0.5701746940612793,-1.0,84,15.864,0,0,False,,,,0,0,3,10,0.04655831307172775,32,28.496,,39.9526381,,-113.4759757,False,0.20057626999914646,38.232,,39.9526384,,-113.4759754,9.735,,39.9526384,,-113.4759754,-9.708660125732422,0.05814150348305702,0.05463508889079094,-1,MISSION,,,,,,ACTIVE,6.2379539012908936,-0.04,0.0,-1.5,12,1,15,0,17760384,128,2
1733421495.1640713,0.0,True,0.0034187936689704657,-0.004851130302995443,0.5701829791069031,-1.0,83,15.858,0,0,False,,,,0,0,3,10,0.04578808322548866,32,28.496,,39.9526381,,-113.4759757,False,0.2973931069864193,38.353,,39.9526384,,-113.4759754,9.857,,39.9526384,,-113.4759754,-9.86639404296875,0.05970294401049614,0.05057079717516899,-1,MISSION,,,,,,ACTIVE,1733421488.9261174,-0.04,0.0,-1.5,12,1,15,0,17760384,128,2
1733421495.2645984,0.0,True,0.0030945127364248037,-0.0049345968291163445,0.5699776411056519,-1.0,83,15.858,0,0,False,,,,0,0,3,10,0.04406161606311798,32,28.496,,39.9526381,,-113.4759757,False,0.4002565939881606,38.499,,39.9526384,,-113.4759753,10.003,,39.9526384,,-113.4759753,-10.012137413024902,0.06110676750540733,0.046911753714084625,-1,MISSION,,,,,,ACTIVE,6.3384809494018555,-0.04,0.0,-1.5,12,1,15,0,17760384,128,2
1733421495.3647375,0.0,True,0.0030384096316993237,-0.005057087168097496,0.5700483322143555,-1.0,83,15.852,0,0,False,,,,0,0,3,10,0.04215710610151291,32,28.496,,39.9526381,,-113.4759757,False,0.49762385500071105,38.62,,39.9526383,,-113.4759753,10.124,,39.9526383,,-113.4759753,-10.13382625579834,0.062022916972637177,0.043953925371170044,-1,MISSION,,,,,,ACTIVE,1733421489.0262566,-0.04,0.0,-1.51,12,1,15,0,17760384,128,2
1733421495.4649448,0.0,True,0.002632706193253398,-0.004784535616636276,0.5697307586669922,-1.0,83,15.852,0,0,False,,,,0,0,3,10,0.04063168168067932,32,28.496,,39.9526381,,-113.4759757,False,0.5998413399938727,38.78,,39.9526383,,-113.4759753,10.284,,39.9526383,,-113.4759753,-10.256877899169922,0.06249811127781868,0.04098957031965256,-1,MISSION,,,,,,ACTIVE,6.438688278198242,-0.04,0.0,-1.55,12,1,15,0,17760384,128,2
1733421495.5658605,0.0,True,0.0018051920924335718,-0.004817288834601641,0.5698279738426208,-1.0,83,15.846,0,0,False,,,,0,0,3,10,0.04126515984535217,32,28.496,,39.9526381,,-113.4759757,False,0.7025354639918078,38.908,,39.9526383,,-113.4759753,10.412,,39.9526383,,-113.4759753,-10.422087669372559,0.06236426904797554,0.037031643092632294,-1,MISSION,,,,,,ACTIVE,1733421489.1271722,-0.03,0.0,-1.61,12,1,15,0,17760384,128,2
1733421495.6660964,0.0,True,0.0010589960729703307,-0.004437798168510199,0.5698124170303345,-1.0,83,15.846,0,0,False,,,,0,0,3,10,0.039631929248571396,32,28.496,,39.9526381,,-113.4759757,False,0.8021734709909651,39.068,,39.9526383,,-113.4759753,10.572,,39.9526383,,-113.4759753,-10.555800437927246,0.061759285628795624,0.03413458913564682,-1,MISSION,,,,,,ACTIVE,6.538924217224121,-0.03,-0.01,-1.72,12,1,15,0,17760384,128,2
1733421495.7660613,0.0,True,0.0007483034278266132,-0.0039030741900205612,0.5697402358055115,-1.0,82,15.84,0,0,False,,,,0,0,3,10,0.03800928592681885,32,28.496,,39.9526381,,-113.4759757,False,0.9020335929963039,39.211,,39.9526382,,-113.4759753,10.715,,39.9526382,,-113.4759753,-10.72674560546875,0.06101725623011589,0.030868176370859146,-1,MISSION,,,,,,ACTIVE,1733421489.227137,-0.03,-0.01,-1.84,12,1,15,0,17760384,128,2
1733421495.8701963,0.0,True,0.00018231815192848444,-0.004066126421093941,0.5699488520622253,-1.0,82,15.836,0,0,False,,,,0,0,3,10,0.03688225895166397,32,28.496,,39.9526381,,-113.4759757,False,0.0018563560006441548,39.411,,39.9526382,,-113.4759753,10.915,,39.9526382,,-113.4759753,-10.928293228149414,0.06022046506404877,0.027203453704714775,-1,MISSION,,,,,,ACTIVE,6.643059253692627,-0.03,-0.01,-2.03,12,1,15,0,17760384,128,2
1733421495.9661722,0.0,True,6.396742537617683e-05,-0.004462056793272495,0.569677472114563,-1.0,82,15.836,0,0,False,,,,0,0,3,10,0.03688225895166397,32,28.496,,39.9526381,,-113.4759757,False,0.0972210769978119,39.579,,39.9526382,,-113.4759754,11.083,,39.9526382,,-113.4759754,-11.115199089050293,0.05950886383652687,0.023998236283659935,-1,MISSION,,,,,,ACTIVE,1733421489.323113,-0.03,-0.01,-2.2,12,1,15,0,17760384,128,2
1733421496.0664668,0.0,True,0.000231700309086591,-0.004050718620419502,0.569243848323822,-1.0,82,15.834,0,0,False,,,,0,0,3,10,0.032569415867328644,32,28.496,,39.9526381,,-113.4759757,False,0.08960171100625303,39.799,,39.9526381,,-113.4759754,11.302,,39.9526381,,-113.4759754,-11.280813217163086,0.05885099247097969,0.021556073799729347,-1,MISSION,,,,,,ACTIVE,6.743353843688965,-0.02,-0.01,-2.43,12,1,15,0,17760384,128,2
1733421496.1687138,0.0,True,-0.00016252452041953802,-0.0036622346378862858,0.5690293908119202,-1.0,82,15.834,0,0,False,,,,0,0,3,10,0.027306195348501205,32,28.496,,39.9526381,,-113.4759757,False,0.19116559500980657,39.996,,39.9526381,,-113.4759754,11.5,,39.9526381,,-113.4759754,-11.518285751342773,0.05809596925973892,0.018565520644187927,-1,MISSION,,,,,,ACTIVE,1733421489.42536,-0.02,-0.01,-2.6,12,1,15,0,17760384,128,2
1733421496.2665827,0.0,True,5.386490374803543e-05,-0.003962740767747164,0.5688895583152771,-1.0,82,15.828,0,0,False,,,,0,0,3,10,0.02580360881984234,32,28.496,,39.9526381,,-113.4759757,False,0.2897699309978634,40.27,,39.9526381,,-113.4759754,11.773,,39.9526381,,-113.4759754,-11.770882606506348,0.057552799582481384,0.01606222242116928,-1,MISSION,,,,,,ACTIVE,6.841222763061523,-0.02,0.0,-2.77,12,1,15,0,17760384,128,2
1733421496.3677404,0.0,True,0.0003784277359955013,-0.004420008510351181,0.5691132545471191,-1.0,82,15.828,0,0,False,,,,0,0,3,10,0.022904204204678535,32,28.496,,39.9526381,,-113.4759757,False,0.3915136740106391,40.489,,39.9526381,,-113.4759754,11.993,,39.9526381,,-113.4759754,-12.012871742248535,0.05710500478744507,0.01390533335506916,-1,MISSION,,,,,,ACTIVE,1733421489.5265176,-0.01,0.0,-2.87,12,1,15,0,17760384,128,2
1733421496.4676893,0.0,True,0.0007335852133110166,-0.004349011927843094,0.5686859488487244,-1.0,81,15.822,0,0,False,,,,0,0,3,10,0.0164045263081789,32,28.496,,39.9526381,,-113.4759757,False,0.49367486000119243,40.761,,39.9526381,,-113.4759754,12.265,,39.9526381,,-113.4759754,-12.285707473754883,0.05631767213344574,0.012077562510967255,-1,MISSION,,,,,,ACTIVE,6.941171646118164,-0.01,0.0,-2.96,12,1,15,0,17760384,128,2
1733421496.5707378,0.0,True,0.000924621825106442,-0.004134229850023985,0.5683198571205139,-1.0,81,15.822,0,0,False,,,,0,0,3,10,0.012889949604868889,32,28.496,,39.9526381,,-113.4759757,False,0.5960021799983224,41.063,,39.952638,,-113.4759754,12.567,,39.952638,,-113.4759754,-12.51794719696045,0.05545298755168915,0.010872089304029942,-1,MISSION,,,,,,ACTIVE,1733421489.6295662,0.0,0.0,-3.0,12,1,15,0,17760384,128,2
