timestamp,airspeed,armed,attitude.pitch,attitude.roll,attitude.yaw,battery.current,battery.level,battery.voltage,commands.count,commands.next,ekf_ok,gimbal.pitch,gimbal.roll,gimbal.yaw,gps_0.eph,gps_0.epv,gps_0.fix_type,gps_0.satellites_visible,groundspeed,heading,home_location.alt,home_location.global_frame,home_location.lat,home_location.local_frame,home_location.lon,is_armable,last_heartbeat,location.global_frame.alt,location.global_frame.global_frame,location.global_frame.lat,location.global_frame.local_frame,location.global_frame.lon,location.global_relative_frame.alt,location.global_relative_frame.global_frame,location.global_relative_frame.lat,location.global_relative_frame.local_frame,location.global_relative_frame.lon,location.local_frame.down,location.local_frame.east,location.local_frame.north,ml_verdict,mode.name,mount_status[0],mount_status[1],mount_status[2],rangefinder.distance,rangefinder.voltage,system_status.state,timedelta,velocity[0],velocity[1],velocity[2],version.autopilot_type,version.major,version.minor,version.patch,version.raw_version,version.release,version.vehicle_type
1733421874.9841633,0.0,True,0.0012413153890520334,0.001175671350210905,0.5857491493225098,-1.0,100,16.181,0,0,False,,,,0,0,3,10,0.010746807791292667,33,28.516,,39.9526383,,-113.4759755,False,0.06425271500484087,28.518,,39.9526383,,-113.4759755,0.002,,39.9526383,,-113.4759755,-0.019191037863492966,0.04870781674981117,0.04408343508839607,-1,MISSION,,,,,,ACTIVE,1733421705.5161378,0.0,0.0,-0.01,12,1,15,0,17760384,128,2
1733421875.0698316,0.0,True,0.0014125811867415905,0.001062873168848455,0.5858628153800964,-1.0,100,16.178,0,0,False,,,,0,0,3,10,0.009803172200918198,33,28.516,,39.9526383,,-113.4759755,False,0.04491103500186,28.518,,39.9526384,,-113.4759755,0.002,,39.9526384,,-113.4759755,-0.019713422283530235,0.048624325543642044,0.044690459966659546,-1,MISSION,,,,,,ACTIVE,169.5536937713623,0.0,0.0,-0.01,12,1,15,0,17760384,128,2
1733421875.1701512,0.0,True,0.0013725204626098275,0.0011092129861935973,0.5856478214263916,-1.0,100,16.178,0,0,False,,,,0,0,3,10,0.010632152669131756,33,28.516,,39.9526383,,-113.4759755,False,0.1461996919970261,28.519,,39.9526384,,-113.4759755,0.003,,39.9526384,,-113.4759755,-0.020637240260839462,0.048510871827602386,0.045386895537376404,-1,MISSION,,,,,,ACTIVE,1733421705.6164575,0.0,0.0,-0.01,12,1,15,0,17760384,128,2
1733421875.273997,0.0,True,0.001247243257239461,0.001004898687824607,0.5857929587364197,-1.0,100,16.172,0,0,False,,,,0,0,3,10,0.011819032952189445,33,28.516,,39.9526383,,-113.4759755,False,0.25071412599936593,28.52,,39.9526384,,-113.4759755,0.004,,39.9526384,,-113.4759755,-0.021624835208058357,0.04858656972646713,0.045971766114234924,-1,MISSION,,,,,,ACTIVE,169.65753960609436,0.0,0.01,-0.01,12,1,15,0,17760384,128,2
1733421875.3749738,0.0,True,0.001629705191589892,0.0012003332376480103,0.5856085419654846,-1.0,100,16.172,0,0,False,,,,0,0,3,10,0.013047036714851856,33,28.516,,39.9526383,,-113.4759755,False,0.35020073800114915,28.521,,39.9526384,,-113.4759755,0.005,,39.9526384,,-113.4759755,-0.02220277115702629,0.04885042831301689,0.04644494131207466,-1,MISSION,,,,,,ACTIVE,1733421705.7174342,0.0,0.01,-0.01,12,1,15,0,17760384,128,2
1733421875.4770226,0.0,True,0.0014697485603392124,0.0013947926927357912,0.5855650305747986,-1.0,100,16.166,0,0,False,,,,0,0,3,10,0.013674811460077763,33,28.516,,39.9526383,,-113.4759755,False,0.45400057900405955,28.521,,39.9526384,,-113.4759755,0.005,,39.9526384,,-113.4759755,-0.022570686414837837,0.04936717078089714,0.047124795615673065,-1,MISSION,,,,,,ACTIVE,169.75958847999573,0.0,0.01,-0.01,12,1,15,0,17760384,128,2
1733421875.5783777,0.0,True,0.0015661182114854455,0.0014571520732715726,0.585587739944458,-1.0,100,16.166,0,0,False,,,,0,0,3,10,0.013674811460077763,33,28.516,,39.9526383,,-113.4759755,False,0.555943005005247,28.521,,39.9526384,,-113.4759755,0.005,,39.9526384,,-113.4759755,-0.02285701036453247,0.05012764036655426,0.04768161103129387,-1,MISSION,,,,,,ACTIVE,1733421705.8187892,0.0,0.01,-0.01,12,1,15,0,17760384,128,2
1733421875.6776533,0.0,True,0.0011135017266497016,0.001309122540988028,0.5855332016944885,-1.0,100,16.166,0,0,False,,,,0,0,3,10,0.015610512346029282,33,28.516,,39.9526383,,-113.4759755,False,0.6544159089971799,28.522,,39.9526384,,-113.4759755,0.005,,39.9526384,,-113.4759755,-0.022935060784220695,0.050781335681676865,0.04805082455277443,-1,MISSION,,,,,,ACTIVE,169.85886406898499,0.0,0.01,-0.01,12,1,15,0,17760384,128,2
1733421875.7799587,0.0,True,0.0007894641603343189,0.0013493506703525782,0.5856942534446716,-1.0,100,16.16,0,0,False,,,,0,0,3,10,0.01714642532169819,33,28.516,,39.9526383,,-113.4759755,False,0.755426151008578,28.522,,39.9526384,,-113.4759754,0.006,,39.9526384,,-113.4759754,-0.02307114750146866,0.051875364035367966,0.048524145036935806,-1,MISSION,,,,,,ACTIVE,1733421705.9210947,0.0,0.01,-0.01,12,1,15,0,17760384,128,2
1733421875.8819845,0.0,True,0.0008342523942701519,0.0016073818551376462,0.5860657691955566,-1.0,100,16.16,0,0,False,,,,0,0,3,10,0.017459062859416008,33,28.516,,39.9526383,,-113.4759755,False,0.8595481079973979,28.522,,39.9526384,,-113.4759754,0.006,,39.9526384,,-113.4759754,-0.023346131667494774,0.05271787568926811,0.0490301251411438,-1,MISSION,,,,,,ACTIVE,169.96088981628418,0.0,0.01,-0.01,12,1,15,0,17760384,128,2
1733421875.9804277,0.0,True,0.0008022825350053608,0.0014890863094478846,0.5861215591430664,-1.0,99,16.154,0,0,False,,,,0,0,3,10,0.017192909494042397,33,28.516,,39.9526383,,-113.4759755,False,0.9549032670038287,28.522,,39.9526384,,-113.4759754,0.006,,39.9526384,,-113.4759754,-0.02361355721950531,0.053229253739118576,0.04946340247988701,-1,MISSION,,,,,,ACTIVE,1733421706.019538,0.0,0.01,-0.01,12,1,15,0,17760384,128,2
1733421876.0804858,0.0,True,0.0005738562322221696,0.0011258900631219149,0.5860623121261597,-1.0,99,16.151,0,0,False,,,,0,0,3,10,0.017158841714262962,33,28.516,,39.9526383,,-113.4759755,False,0.042704564999439754,28.523,,39.9526384,,-113.4759754,0.006,,39.9526384,,-113.4759754,-0.023997073993086815,0.05379948765039444,0.04995059594511986,-1,MISSION,,,,,,ACTIVE,170.06094789505005,0.0,0.01,-0.01,12,1,15,0,17760384,128,2
1733421876.1841915,0.0,True,0.0005610259831883013,0.0016287664184346795,0.5861377120018005,-1.0,99,16.148,0,0,False,,,,0,0,3,10,0.01900867000222206,33,28.516,,39.9526383,,-113.4759755,False,0.04128351100371219,28.523,,39.9526384,,-113.4759754,0.007,,39.9526384,,-113.4759754,-0.024317419156432152,0.054222166538238525,0.05002997815608978,-1,MISSION,,,,,,ACTIVE,1733421706.1232436,0.0,0.01,-0.01,12,1,15,0,17760384,128,2
1733421876.2850325,0.0,True,0.0005054327775724232,0.0019202576950192451,0.5859750509262085,-1.0,99,16.148,0,0,False,,,,0,0,3,10,0.02037832885980606,33,28.516,,39.9526383,,-113.4759755,False,0.14223994199710432,28.523,,39.9526384,,-113.4759754,0.0,,39.9526384,,-113.4759754,-0.024885114282369614,0.054607924073934555,0.05000307783484459,-1,MISSION,,,,,,ACTIVE,170.1617889404297,0.0,0.02,-0.01,12,1,15,0,17760384,128,2
1733421876.385109,0.0,True,0.0005562708829529583,0.002146154874935746,0.586059033870697,-1.0,99,16.142,0,0,False,,,,0,0,3,10,0.022325346246361732,33,28.516,,39.9526383,,-113.4759755,False,0.23975526700087357,28.524,,39.9526384,,-113.4759754,0.0,,39.9526384,,-113.4759754,-0.02531055361032486,0.0550282821059227,0.049785222858190536,-1,MISSION,,,,,,ACTIVE,1733421706.22332,0.0,0.02,-0.01,12,1,15,0,17760384,128,2
1733421876.4858644,0.0,True,0.0004764846817124635,0.002402594080194831,0.5858842134475708,-1.0,99,16.142,0,0,False,,,,0,0,3,10,0.023280521854758263,33,28.516,,39.9526383,,-113.4759755,False,0.34202556099626236,28.524,,39.9526384,,-113.4759754,0.0,,39.9526384,,-113.4759754,-0.025571288540959358,0.05582747980952263,0.049551401287317276,-1,MISSION,,,,,,ACTIVE,170.26254439353943,0.0,0.02,-0.01,12,1,15,0,17760384,128,2
1733421876.587337,0.0,True,0.0006958780577406287,0.002331519266590476,0.5856670141220093,-1.0,99,16.142,0,0,False,,,,0,0,3,10,0.023280521854758263,33,28.516,,39.9526383,,-113.4759755,False,0.43945460199029185,28.524,,39.9526384,,-113.4759754,0.0,,39.9526384,,-113.4759754,-0.02553667686879635,0.056553930044174194,0.04951272904872894,-1,MISSION,,,,,,ACTIVE,1733421706.3247926,0.0,0.02,-0.01,12,1,15,0,17760384,128,2
1733421876.6911254,0.0,True,0.0007973249303176999,0.0021417811512947083,0.5859705805778503,-1.0,98,16.136,0,0,False,,,,0,0,3,10,0.024766528978943825,33,28.516,,39.9526383,,-113.4759755,False,0.5466258649976226,28.524,,39.9526384,,-113.4759754,0.0,,39.9526384,,-113.4759754,-0.02526509389281273,0.057289086282253265,0.04973030835390091,-1,MISSION,,,,,,ACTIVE,170.36633276939392,0.0,0.02,-0.01,12,1,15,0,17760384,128,2
1733421876.7918434,0.0,True,0.0008265551296062768,0.002099107950925827,0.5857301354408264,-1.0,98,16.136,0,0,False,,,,0,0,3,10,0.02539004758000374,33,28.523,,39.9526384,,-113.4759754,False,0.6491139739955543,28.524,,39.9526384,,-113.4759754,0.0,,39.9526384,,-113.4759754,-0.02515767700970173,0.057683754712343216,0.05003567412495613,-1,MISSION,,,,,,ACTIVE,1733421706.4255106,0.0,0.02,-0.01,12,1,15,0,17760384,128,2
1733421876.8917503,0.0,True,0.0008738299948163331,0.002023536479100585,0.5857423543930054,-1.0,98,16.13,0,0,False,,,,0,0,3,10,0.027356095612049103,33,28.523,,39.9526384,,-113.4759754,False,0.7460321909893537,28.524,,39.9526384,,-113.4759754,0.0,,39.9526384,,-113.4759754,-0.025001373142004013,0.058175936341285706,0.05037684738636017,-1,MISSION,,,,,,ACTIVE,170.46623969078064,0.0,0.02,-0.01,12,1,15,0,17760384,128,2
1733421876.9917858,0.0,True,0.0008188803913071752,0.0019437731243669987,0.5856793522834778,-1.0,98,16.13,0,0,False,,,,0,0,3,10,0.028031006455421448,33,28.523,,39.9526384,,-113.4759754,False,0.8489391909970436,28.524,,39.9526384,,-113.4759754,0.0,,39.9526384,,-113.4759754,-0.024925535544753075,0.058810435235500336,0.050673194229602814,-1,MISSION,,,,,,ACTIVE,1733421706.525546,0.0,0.02,-0.01,12,1,15,0,17760384,128,2
1733421877.092552,0.0,True,0.0006248994613997638,0.0017664360348135233,0.5854786038398743,-1.0,98,16.124,0,0,False,,,,0,0,3,10,0.028933797031641006,33,28.523,,39.9526384,,-113.4759754,False,0.9504868429939961,28.523,,39.9526384,,-113.4759754,0.0,,39.9526384,,-113.4759754,-0.024808010086417198,0.05958046019077301,0.050974246114492416,-1,MISSION,,,,,,ACTIVE,170.56700587272644,0.0,0.02,-0.01,12,1,15,0,17760384,128,2
1733421877.1930752,0.0,True,0.0007743773167021573,0.0015531250974163413,0.5855412483215332,-1.0,98,16.121,0,0,False,,,,0,0,3,10,0.029770052060484886,33,28.523,,39.9526384,,-113.4759754,False,0.040826315991580486,28.523,,39.9526384,,-113.4759753,0.0,,39.9526384,,-113.4759753,-0.02472839504480362,0.0603206567466259,0.051399461925029755,-1,MISSION,,,,,,ACTIVE,1733421706.6260693,0.0,0.03,-0.01,12,1,15,0,17760384,128,2
1733421877.2934103,0.0,True,0.0008262366754934192,0.0015471293590962887,0.5854284167289734,-1.0,98,16.118,0,0,False,,,,0,0,3,10,0.03062829002737999,33,28.523,,39.9526384,,-113.4759754,False,0.035659579996718094,28.523,,39.9526384,,-113.4759753,0.0,,39.9526384,,-113.4759753,-0.02470766007900238,0.061222586780786514,0.051824573427438736,-1,MISSION,,,,,,ACTIVE,170.66734099388123,0.0,0.03,-0.01,12,1,15,0,17760384,128,2
1733421877.3966672,0.0,True,0.0004381263570394367,0.0013827389338985085,0.5855764150619507,-1.0,98,16.118,0,0,False,,,,0,0,3,10,0.030664358288049698,33,28.523,,39.9526384,,-113.4759754,False,0.13750595599412918,28.523,,39.9526384,,-113.4759753,0.0,,39.9526384,,-113.4759753,-0.024838192388415337,0.062029995024204254,0.0523582398891449,-1,MISSION,,,,,,ACTIVE,1733421706.7293262,0.0,0.03,-0.01,12,1,15,0,17760384,128,2
1733421877.4936671,0.0,True,0.0005535625386983156,0.001223644008859992,0.585308849811554,-1.0,97,16.112,0,0,False,,,,0,0,3,10,0.031099556013941765,33,28.523,,39.9526384,,-113.4759754,False,0.23514644800161477,28.524,,39.9526384,,-113.4759753,0.0,,39.9526384,,-113.4759753,-0.0250968337059021,0.06277505308389664,0.05294744297862053,-1,MISSION,,,,,,ACTIVE,170.76434087753296,0.0,0.03,-0.01,12,1,15,0,17760384,128,2
1733421877.593769,0.0,True,0.00033982115564867854,0.0011442780960351229,0.5855618715286255,-1.0,97,16.112,0,0,False,,,,0,0,3,10,0.03054097294807434,33,28.523,,39.9526384,,-113.4759754,False,0.33507728700351436,28.524,,39.9526384,,-113.4759753,0.0,,39.9526384,,-113.4759753,-0.02546856179833412,0.06360200047492981,0.05368358641862869,-1,MISSION,,,,,,ACTIVE,1733421706.8294282,0.0,0.03,-0.01,12,1,15,0,17760384,128,2
1733421877.6963425,0.0,True,0.00028013548580929637,0.0012981294421479106,0.5851664543151855,-1.0,97,16.112,0,0,False,,,,0,0,3,10,0.03054097294807434,33,28.523,,39.9526384,,-113.4759754,False,0.43771240299975034,28.525,,39.9526384,,-113.4759753,0.001,,39.9526384,,-113.4759753,-0.026094747707247734,0.06447106599807739,0.05452210456132889,-1,MISSION,,,,,,ACTIVE,170.86691427230835,0.0,0.03,-0.01,12,1,15,0,17760384,128,2
1733421877.7941577,0.0,True,0.00020015190239064395,0.0011390295112505555,0.5849735736846924,-1.0,97,16.106,0,0,False,,,,0,0,3,10,0.03241870179772377,33,28.523,,39.9526384,,-113.4759754,False,0.5331299620011123,28.525,,39.9526384,,-113.4759753,0.001,,39.9526384,,-113.4759753,-0.02650439366698265,0.06517493724822998,0.055191777646541595,-1,MISSION,,,,,,ACTIVE,1733421706.9272435,0.0,0.03,-0.01,12,1,15,0,17760384,128,2
1733421877.894185,0.0,True,0.0003530188696458936,0.0008442222606390715,0.5849708318710327,-1.0,97,16.106,0,0,False,,,,0,0,3,10,0.03391565382480621,33,28.523,,39.9526384,,-113.4759754,False,0.6351300829992397,28.525,,39.9526385,,-113.4759753,0.002,,39.9526385,,-113.4759753,-0.026772864162921906,0.065959632396698,0.055732011795043945,-1,MISSION,,,,,,ACTIVE,170.96694159507751,0.0,0.03,-0.01,12,1,15,0,17760384,128,2
1733421877.9950979,0.0,True,0.0009580205078236759,0.0008493533823639154,0.5849173069000244,-1.0,97,16.1,0,0,False,,,,0,0,3,10,0.03315339237451553,33,28.523,,39.9526384,,-113.4759754,False,0.7373914240015438,28.526,,39.9526385,,-113.4759753,0.002,,39.9526385,,-113.4759753,-0.02693355083465576,0.066544309258461,0.056053876876831055,-1,MISSION,,,,,,ACTIVE,1733421707.0281563,0.0,0.03,-0.01,12,1,15,0,17760384,128,2
1733421878.09429,0.0,True,0.0008481982513330877,0.0007512300508096814,0.5848771929740906,-1.0,97,16.1,0,0,False,,,,0,0,3,10,0.03249938040971756,33,28.523,,39.9526384,,-113.4759754,False,0.8348675809975248,28.526,,39.9526385,,-113.4759753,0.002,,39.9526385,,-113.4759753,-0.027078639715909958,0.06668097525835037,0.056113824248313904,-1,MISSION,,,,,,ACTIVE,171.0661337375641,0.0,0.03,-0.01,12,1,15,0,17760384,128,2
1733421878.1952627,0.0,True,0.0008664180641062558,0.0008659216109663248,0.5848339796066284,-1.0,96,16.094,0,0,False,,,,0,0,3,10,0.03131762892007828,33,28.523,,39.9526384,,-113.4759754,False,0.9376450650015613,28.526,,39.9526385,,-113.4759753,0.002,,39.9526385,,-113.4759753,-0.027333108708262444,0.0667903795838356,0.05620875209569931,-1,MISSION,,,,,,ACTIVE,1733421707.129129,0.0,0.03,-0.01,12,1,15,0,17760384,128,2
1733421878.294551,0.0,True,0.0013810007367283106,0.0007810563547536731,0.5847311615943909,-1.0,96,16.091,0,0,False,,,,0,0,3,10,0.029451260343194008,33,28.523,,39.9526384,,-113.4759754,False,0.03067007199570071,28.526,,39.9526385,,-113.4759753,0.002,,39.9526385,,-113.4759753,-0.027668310329318047,0.06686939299106598,0.05622103810310364,-1,MISSION,,,,,,ACTIVE,171.16542196273804,0.0,0.02,-0.01,12,1,15,0,17760384,128,2
1733421878.3949566,0.0,True,0.004610023461282253,-0.0027004533912986517,0.5844898223876953,-1.0,96,16.088,0,0,False,,,,0,0,3,10,0.0287191029638052,33,28.523,,39.9526384,,-113.4759754,False,0.026703725001425482,28.527,,39.9526385,,-113.4759753,0.003,,39.9526385,,-113.4759753,-0.028272610157728195,0.06702173501253128,0.05611850321292877,-1,MISSION,,,,,,ACTIVE,1733421707.2295346,0.0,0.02,-0.01,12,1,15,0,17760384,128,2
1733421878.495024,0.0,True,0.010535509325563908,-0.01252830121666193,0.584797739982605,-1.0,96,16.088,0,0,False,,,,0,0,3,10,0.020159998908638954,33,28.523,,39.9526384,,-113.4759754,False,0.12438572000246495,28.528,,39.9526385,,-113.4759753,0.004,,39.9526385,,-113.4759753,-0.029507294297218323,0.06675437092781067,0.05584096163511276,-1,MISSION,,,,,,ACTIVE,171.2654893398285,0.0,0.02,-0.03,12,1,15,0,17760384,128,2
1733421878.5958154,0.0,True,0.012318930588662624,-0.016792042180895805,0.5848037600517273,-1.0,96,16.082,0,0,False,,,,0,0,3,10,0.0012158440658822656,33,28.523,,39.9526384,,-113.4759754,False,0.22742211300646886,28.532,,39.9526384,,-113.4759753,0.008,,39.9526384,,-113.4759753,-0.033878616988658905,0.06511621922254562,0.05524441599845886,-1,MISSION,,,,,,ACTIVE,1733421707.330326,0.0,0.0,-0.07,12,1,15,0,17760384,128,2
1733421878.6959767,0.0,True,0.010431014001369476,-0.014747463166713715,0.5845465660095215,-1.0,96,16.082,0,0,False,,,,0,0,3,10,0.0012158440658822656,33,28.523,,39.9526384,,-113.4759754,False,0.3243445380066987,28.539,,39.9526384,,-113.4759753,0.015,,39.9526384,,-113.4759753,-0.04197356849908829,0.061697885394096375,0.054431408643722534,-1,MISSION,,,,,,ACTIVE,171.3656506538391,0.0,-0.01,-0.12,12,1,15,0,17760384,128,2
1733421878.7964594,0.0,True,0.007444724440574646,-0.01049474161118269,0.584408700466156,-1.0,96,16.082,0,0,False,,,,0,0,3,10,0.02008180506527424,33,28.523,,39.9526384,,-113.4759754,False,0.42683297900657635,28.555,,39.9526384,,-113.4759754,0.031,,39.9526384,,-113.4759754,-0.05757997930049896,0.05654047802090645,0.05351918190717697,-1,MISSION,,,,,,ACTIVE,1733421707.4308088,0.0,-0.03,-0.22,12,1,15,0,17760384,128,2
1733421878.89622,0.0,True,0.004948957823216915,-0.0061994800344109535,0.5844448208808899,-1.0,95,16.076,0,0,False,,,,0,0,3,10,0.03531493619084358,33,28.523,,39.9526384,,-113.4759754,False,0.5247573689994169,28.574,,39.9526384,,-113.4759754,0.051,,39.9526384,,-113.4759754,-0.07799490541219711,0.05169050022959709,0.052851662039756775,-1,MISSION,,,,,,ACTIVE,171.46541118621826,0.0,-0.04,-0.31,12,1,15,0,17760384,128,2
1733421878.9964917,0.0,True,0.0029057885985821486,-0.002974699018523097,0.5845261812210083,-1.0,95,16.076,0,0,False,,,,0,0,3,10,0.04422123730182648,33,28.523,,39.9526384,,-113.4759754,False,0.6272153830068419,28.606,,39.9526384,,-113.4759755,0.082,,39.9526384,,-113.4759755,-0.11052461713552475,0.04546675458550453,0.0522819422185421,-1,MISSION,,,,,,ACTIVE,1733421707.5310805,0.0,-0.04,-0.4,12,1,15,0,17760384,128,2
1733421879.0991104,0.0,True,0.0011533338110893965,-0.00023630866780877113,0.5844858884811401,-1.0,95,16.07,0,0,False,,,,0,0,3,10,0.04960951581597328,33,28.523,,39.9526384,,-113.4759754,False,0.7309610770025756,28.649,,39.9526384,,-113.4759756,0.126,,39.9526384,,-113.4759756,-0.15075361728668213,0.0390506386756897,0.05186517909169197,-1,MISSION,,,,,,ACTIVE,171.56802988052368,0.0,-0.04,-0.49,12,1,15,0,17760384,128,2
1733421879.199387,0.0,True,-0.00013128816499374807,0.0014259829185903072,0.5847868919372559,-1.0,95,16.07,0,0,False,,,,0,0,3,10,0.04883044213056564,33,28.523,,39.9526384,,-113.4759754,False,0.8312014650000492,28.688,,39.9526384,,-113.4759757,0.164,,39.9526384,,-113.4759757,-0.19372396171092987,0.03305627405643463,0.05157392844557762,-1,MISSION,,,,,,ACTIVE,1733421707.6313572,0.0,-0.04,-0.56,12,1,15,0,17760384,128,2
1733421879.301111,0.0,True,-0.0009471370140090585,0.002971947891637683,0.5850640535354614,-1.0,95,16.064,0,0,False,,,,0,0,3,10,0.0486181378364563,33,28.523,,39.9526384,,-113.4759754,False,0.9296280380076496,28.741,,39.9526384,,-113.4759757,0.218,,39.9526384,,-113.4759757,-0.23811081051826477,0.027678756043314934,0.05145974084734917,-1,MISSION,,,,,,ACTIVE,171.66975378990173,0.0,-0.04,-0.64,12,1,15,0,17760384,128,2
1733421879.4012117,0.0,True,-0.0018504044273868203,0.00419229781255126,0.5850018858909607,-1.0,94,16.061,0,0,False,,,,0,0,3,10,0.04354501888155937,33,28.523,,39.9526384,,-113.4759754,False,0.026238423990434967,28.791,,39.9526384,,-113.4759758,0.267,,39.9526384,,-113.4759758,-0.2977960407733917,0.02148842252790928,0.051481541246175766,-1,MISSION,,,,,,ACTIVE,1733421707.731458,0.0,-0.04,-0.7,12,1,15,0,17760384,128,2
1733421879.5041192,0.0,True,-0.0020624245516955853,0.0054431455209851265,0.5847682952880859,-1.0,94,16.058,0,0,False,,,,0,0,3,10,0.037588026374578476,33,28.523,,39.9526384,,-113.4759754,False,0.022653077001450583,28.863,,39.9526384,,-113.4759759,0.339,,39.9526384,,-113.4759759,-0.36411547660827637,0.01562892459332943,0.05172979086637497,-1,MISSION,,,,,,ACTIVE,171.77266120910645,0.0,-0.03,-0.78,12,1,15,0,17760384,128,2
1733421879.604185,0.0,True,-0.0024027854669839144,0.006081797648221254,0.584804117679596,-1.0,94,16.058,0,0,False,,,,0,0,3,10,0.03116535022854805,33,28.523,,39.9526384,,-113.4759754,False,0.12370788300177082,28.923,,39.9526384,,-113.4759759,0.399,,39.9526384,,-113.4759759,-0.430571585893631,0.010806282050907612,0.05178254097700119,-1,MISSION,,,,,,ACTIVE,1733421707.831524,0.0,-0.03,-0.83,12,1,15,0,17760384,128,2
1733421879.7043402,0.0,True,-0.002692018635571003,0.006435994524508715,0.5849642753601074,-1.0,94,16.052,0,0,False,,,,0,0,3,10,0.02287238836288452,33,28.523,,39.9526384,,-113.4759754,False,0.22313256601046305,29.001,,39.9526384,,-113.475976,0.477,,39.9526384,,-113.475976,-0.4956449568271637,0.007016253657639027,0.0518416091799736,-1,MISSION,,,,,,ACTIVE,171.872816324234,0.0,-0.02,-0.9,12,1,15,0,17760384,128,2
1733421879.804406,0.0,True,-0.0029652861412614584,0.006537911016494036,0.584823727607727,-1.0,94,16.052,0,0,False,,,,0,0,3,10,0.02287238836288452,33,28.523,,39.9526384,,-113.4759754,False,0.3237860210065264,29.071,,39.9526384,,-113.475976,0.547,,39.9526384,,-113.475976,-0.5866346955299377,0.002543988171964884,0.05158429592847824,-1,MISSION,,,,,,ACTIVE,1733421707.9315896,0.0,-0.01,-0.96,12,1,15,0,17760384,128,2
1733421879.9059157,0.0,True,-0.003336650785058737,0.00654493598267436,0.5847291350364685,-1.0,94,16.052,0,0,False,,,,0,0,3,10,0.017025316134095192,33,28.523,,39.9526384,,-113.4759754,False,0.426198690009187,29.168,,39.9526384,,-113.4759761,0.644,,39.9526384,,-113.4759761,-0.6772027015686035,-0.001034969580359757,0.051037807017564774,-1,MISSION,,,,,,ACTIVE,171.97432613372803,0.0,-0.01,-1.03,12,1,15,0,17760384,128,2
1733421880.004769,0.0,True,-0.0033390370663255453,0.006683436222374439,0.5847558975219727,-1.0,94,16.046,0,0,False,,,,0,0,3,10,0.008152958005666733,33,28.523,,39.9526384,,-113.4759754,False,0.523830762002035,29.248,,39.9526384,,-113.4759761,0.724,,39.9526384,,-113.4759761,-0.757373571395874,-0.0035419221967458725,0.05057825148105621,-1,MISSION,,,,,,ACTIVE,1733421708.030443,0.0,0.0,-1.08,12,1,15,0,17760384,128,2
1733421880.1048346,0.0,True,-0.003282458521425724,0.006383412051945925,0.5847441554069519,-1.0,94,16.046,0,0,False,,,,0,0,3,10,0.0024912713561207056,33,28.523,,39.9526384,,-113.4759754,False,0.6221012720052386,29.349,,39.9526384,,-113.4759761,0.825,,39.9526384,,-113.4759761,-0.8504970669746399,-0.005496148485690355,0.05007066950201988,-1,MISSION,,,,,,ACTIVE,172.07439160346985,0.0,0.0,-1.14,12,1,15,0,17760384,128,2
1733421880.2051718,0.0,True,-0.0032057189382612705,0.005852772854268551,0.5850863456726074,-1.0,93,16.04,0,0,False,,,,0,0,3,10,0.007758080493658781,33,28.523,,39.9526384,,-113.4759754,False,0.7238190790085355,29.438,,39.9526384,,-113.4759761,0.914,,39.9526384,,-113.4759761,-0.9486238956451416,-0.006650604773312807,0.04979667812585831,-1,MISSION,,,,,,ACTIVE,1733421708.1307802,0.0,0.01,-1.2,12,1,15,0,17760384,128,2
1733421880.3086615,0.0,True,-0.0030018717516213655,0.005231110379099846,0.5850425362586975,-1.0,93,16.04,0,0,False,,,,0,0,3,10,0.015388768166303635,33,28.523,,39.9526384,,-113.4759754,False,0.8262852750049205,29.56,,39.9526384,,-113.4759761,1.036,,39.9526384,,-113.4759761,-1.0713303089141846,-0.007313977461308241,0.04989585280418396,-1,MISSION,,,,,,ACTIVE,172.17788124084473,0.0,0.01,-1.26,12,1,15,0,17760384,128,2
1733421880.4053922,0.0,True,-0.0022660698741674423,0.004885026253759861,0.5851096510887146,-1.0,93,16.034,0,0,False,,,,0,0,3,10,0.02316804975271225,33,28.523,,39.9526384,,-113.4759754,False,0.9236809630092466,29.658,,39.9526384,,-113.4759761,1.135,,39.9526384,,-113.4759761,-1.1696722507476807,-0.007406008895486593,0.04995943233370781,-1,MISSION,,,,,,ACTIVE,1733421708.227511,0.0,0.02,-1.29,12,1,15,0,17760384,128,2
1733421880.5067225,0.0,True,-0.0018733262550085783,0.004934739321470261,0.5847867727279663,-1.0,93,16.031,0,0,False,,,,0,0,3,10,0.02904607728123665,33,28.523,,39.9526384,,-113.4759754,False,0.022490547999041155,29.778,,39.9526384,,-113.4759761,1.254,,39.9526384,,-113.4759761,-1.2892760038375854,-0.007139106281101704,0.04998231679201126,-1,MISSION,,,,,,ACTIVE,172.27921152114868,0.0,0.02,-1.3,12,1,15,0,17760384,128,2
1733421880.606583,0.0,True,-0.0015210808487609029,0.0040276264771819115,0.5850235819816589,-1.0,93,16.028,0,0,False,,,,0,0,3,10,0.03506140783429146,33,28.523,,39.9526384,,-113.4759754,False,0.016093411992187612,29.878,,39.9526384,,-113.4759761,1.354,,39.9526384,,-113.4759761,-1.3896349668502808,-0.006630206946283579,0.04979858174920082,-1,MISSION,,,,,,ACTIVE,1733421708.3273716,0.0,0.03,-1.31,12,1,15,0,17760384,128,2
1733421880.7062714,0.0,True,-0.0010342479217797518,0.003617697162553668,0.5850871801376343,-1.0,93,16.028,0,0,False,,,,0,0,3,10,0.040694620460271835,33,28.523,,39.9526384,,-113.4759754,False,0.1156523770041531,30.01,,39.9526384,,-113.4759761,1.486,,39.9526384,,-113.4759761,-1.5215115547180176,-0.00567236915230751,0.04947037622332573,-1,MISSION,,,,,,ACTIVE,172.37889981269836,0.0,0.04,-1.32,12,1,15,0,17760384,128,2
1733421880.8089926,0.0,True,-0.0005195384146645665,0.0030134273692965508,0.5850813388824463,-1.0,93,16.028,0,0,False,,,,0,0,3,10,0.0435413159430027,33,28.523,,39.9526384,,-113.4759754,False,0.21888659399701282,30.133,,39.9526384,,-113.4759761,1.609,,39.9526384,,-113.4759761,-1.6242176294326782,-0.00456619868054986,0.049151141196489334,-1,MISSION,,,,,,ACTIVE,1733421708.4300928,0.0,0.04,-1.33,12,1,15,0,17760384,128,2
1733421880.9082944,0.0,True,-0.00013879447942599654,0.002202449832111597,0.5852023959159851,-1.0,92,16.022,0,0,False,,,,0,0,3,10,0.0459633469581604,33,28.523,,39.9526384,,-113.4759754,False,0.3157285380002577,30.237,,39.9526384,,-113.4759761,1.713,,39.9526384,,-113.4759761,-1.7488455772399902,-0.0028286094311624765,0.04872411489486694,-1,MISSION,,,,,,ACTIVE,172.47820162773132,0.0,0.04,-1.34,12,1,15,0,17760384,128,2
1733421881.00845,0.0,True,3.360438859090209e-05,0.002256468404084444,0.7063663601875305,-1.0,92,16.022,0,0,False,,,,0,0,3,10,0.04950854554772377,40,28.523,,39.9526384,,-113.4759754,False,0.4179010299994843,30.373,,39.9526384,,-113.4759761,1.85,,39.9526384,,-113.4759761,-1.853593111038208,-0.001176233752630651,0.04828342795372009,-1,MISSION,,,,,,ACTIVE,1733421708.5302484,0.0,0.05,-1.35,12,1,15,0,17760384,128,2
1733421881.1085536,0.0,True,0.00020675850100815296,0.0017443695105612278,0.7072187066078186,-1.0,92,16.016,0,0,False,,,,0,0,3,10,0.05155438184738159,40,28.523,,39.9526384,,-113.4759754,False,0.5155679159943247,30.479,,39.9526384,,-113.475976,1.955,,39.9526384,,-113.475976,-1.9908554553985596,0.0014016428031027317,0.04758172482252121,-1,MISSION,,,,,,ACTIVE,172.5783052444458,0.0,0.05,-1.35,12,1,15,0,17760384,128,2
1733421881.2090783,0.0,True,0.00023793193395249546,0.000639474717900157,0.7083380222320557,-1.0,92,16.016,0,0,False,,,,0,0,3,10,0.05345333740115166,40,28.523,,39.9526384,,-113.4759754,False,0.6185122820024844,30.607,,39.9526384,,-113.475976,2.083,,39.9526384,,-113.475976,-2.108119010925293,0.004039789084345102,0.04683265835046768,-1,MISSION,,,,,,ACTIVE,1733421708.630773,0.0,0.05,-1.36,12,1,15,0,17760384,128,2
1733421881.3091094,0.0,True,0.0006935135461390018,-0.00031621105154044926,0.7100199460983276,-1.0,92,16.01,0,0,False,,,,0,0,3,10,0.05546092242002487,40,28.523,,39.9526384,,-113.4759754,False,0.7157501180045074,30.714,,39.9526384,,-113.475976,2.19,,39.9526384,,-113.475976,-2.226393461227417,0.0070974077098071575,0.04609479382634163,-1,MISSION,,,,,,ACTIVE,172.67833638191223,0.0,0.05,-1.37,12,1,15,0,17760384,128,2
1733421881.4134216,0.0,True,0.0007336228736676276,-0.0005524185835383832,0.7113744020462036,-1.0,92,16.01,0,0,False,,,,0,0,3,10,0.055311419069767,40,28.523,,39.9526384,,-113.4759754,False,0.8229043140017893,30.855,,39.9526384,,-113.4759759,2.331,,39.9526384,,-113.4759759,-2.334542989730835,0.010088157840073109,0.045310284942388535,-1,MISSION,,,,,,ACTIVE,1733421708.7350852,0.0,0.05,-1.38,12,1,15,0,17760384,128,2
1733421881.5136247,0.0,True,0.0008569136261940002,-0.0010784099576994777,0.7123066782951355,-1.0,91,16.004,0,0,False,,,,0,0,3,10,0.054188571870326996,40,28.523,,39.9526384,,-113.4759754,False,0.9200378399982583,30.964,,39.9526383,,-113.4759759,2.44,,39.9526383,,-113.4759759,-2.4760682582855225,0.014028106816112995,0.04389191046357155,-1,MISSION,,,,,,ACTIVE,172.7785394191742,0.0,0.05,-1.38,12,1,15,0,17760384,128,2
1733421881.6163442,0.0,True,0.0009316899813711643,-0.0015469028148800135,0.7127934694290161,-1.0,91,16.001,0,0,False,,,,0,0,3,10,0.054467298090457916,40,28.523,,39.9526384,,-113.4759754,False,0.018290851003257558,31.095,,39.9526383,,-113.4759758,2.571,,39.9526383,,-113.4759758,-2.6075782775878906,0.017974480986595154,0.04252481088042259,-1,MISSION,,,,,,ACTIVE,1733421708.8378048,0.0,0.05,-1.39,12,1,15,0,17760384,128,2
1733421881.7161977,0.0,True,0.0011261703912168741,-0.0018401327542960644,0.712562620639801,-1.0,91,15.998,0,0,False,,,,0,0,3,10,0.053797680884599686,40,28.523,,39.9526384,,-113.4759754,False,0.013189778008381836,31.205,,39.9526383,,-113.4759758,2.682,,39.9526383,,-113.4759758,-2.7177271842956543,0.02145892195403576,0.041368890553712845,-1,MISSION,,,,,,ACTIVE,172.8783929347992,0.0,0.05,-1.4,12,1,15,0,17760384,128,2
1733421881.8169217,0.0,True,0.0013528108829632401,-0.0024345270358026028,0.7124029397964478,-1.0,91,15.998,0,0,False,,,,0,0,3,10,0.05449396371841431,40,28.523,,39.9526384,,-113.4759754,False,0.11579932199674658,31.349,,39.9526383,,-113.4759757,2.825,,39.9526383,,-113.4759757,-2.861453056335449,0.0260479636490345,0.039758313447237015,-1,MISSION,,,,,,ACTIVE,1733421708.9385288,0.0,0.05,-1.4,12,1,15,0,17760384,128,2
1733421881.9164178,0.0,True,0.0018467683112248778,-0.0032234699465334415,0.7118132710456848,-1.0,91,15.998,0,0,False,,,,0,0,3,10,0.05365382507443428,40,28.523,,39.9526384,,-113.4759754,False,0.21357046700723004,31.46,,39.9526383,,-113.4759757,2.936,,39.9526383,,-113.4759757,-2.9726271629333496,0.029392164200544357,0.038529712706804276,-1,MISSION,,,,,,ACTIVE,172.97788906097412,0.0,0.05,-1.41,12,1,15,0,17760384,128,2
1733421882.0170732,0.0,True,0.0022026195656508207,-0.0034093069843947887,0.7114261984825134,-1.0,91,15.992,0,0,False,,,,0,0,3,10,0.053104218095541,40,28.523,,39.9526384,,-113.4759754,False,0.31580233499698807,31.594,,39.9526383,,-113.4759757,3.07,,39.9526383,,-113.4759757,-3.106832981109619,0.03343060985207558,0.03733150660991669,-1,MISSION,,,,,,ACTIVE,1733421709.039184,0.0,0.05,-1.41,12,1,15,0,17760384,128,2
1733421882.1172254,0.0,True,0.002452258253470063,-0.0038237711414694786,0.7111057043075562,-1.0,91,15.992,0,0,False,,,,0,0,3,10,0.05119031295180321,40,28.523,,39.9526384,,-113.4759754,False,0.4159636109980056,31.707,,39.9526383,,-113.4759756,3.183,,39.9526383,,-113.4759756,-3.2192909717559814,0.03687325865030289,0.0365278460085392,-1,MISSION,,,,,,ACTIVE,173.07804131507874,0.0,0.05,-1.42,12,1,15,0,17760384,128,2
1733421882.2173753,0.0,True,0.002878868253901601,-0.0043470291420817375,0.7110651135444641,-1.0,90,15.986,0,0,False,,,,0,0,3,10,0.049985822290182114,40,28.523,,39.9526384,,-113.4759754,False,0.5115993220097153,31.854,,39.9526383,,-113.4759756,3.33,,39.9526383,,-113.4759756,-3.354882001876831,0.040992844849824905,0.03569267690181732,-1,MISSION,,,,,,ACTIVE,1733421709.139334,0.0,0.04,-1.43,12,1,15,0,17760384,128,2
1733421882.3174903,0.0,True,0.0028077077586203814,-0.004998199641704559,0.7112398743629456,-1.0,90,15.986,0,0,False,,,,0,0,3,10,0.047265347093343735,40,28.523,,39.9526384,,-113.4759754,False,0.6132139889959944,31.967,,39.9526383,,-113.4759755,3.443,,39.9526383,,-113.4759755,-3.4797990322113037,0.04483036696910858,0.03501110151410103,-1,MISSION,,,,,,ACTIVE,173.178156375885,0.0,0.04,-1.43,12,1,15,0,17760384,128,2
1733421882.4214723,0.0,True,0.0027607548981904984,-0.005216423887759447,0.7114230990409851,-1.0,90,15.98,0,0,False,,,,0,0,3,10,0.04503967985510826,40,28.523,,39.9526384,,-113.4759754,False,0.7201703940081643,32.104,,39.9526383,,-113.4759755,3.58,,39.9526383,,-113.4759755,-3.6166417598724365,0.04882515221834183,0.0345720537006855,-1,MISSION,,,,,,ACTIVE,1733421709.243316,0.0,0.04,-1.43,12,1,15,0,17760384,128,2
1733421882.5214205,0.0,True,0.0032829460687935352,-0.0051368847489356995,0.7116360068321228,-1.0,90,15.98,0,0,False,,,,0,0,3,10,0.04073964059352875,40,28.523,,39.9526384,,-113.4759754,False,0.8179683930065949,32.253,,39.9526383,,-113.4759754,3.729,,39.9526383,,-113.4759754,-3.7310686111450195,0.05196460336446762,0.03445262461900711,-1,MISSION,,,,,,ACTIVE,173.2781045436859,0.0,0.03,-1.44,12,1,15,0,17760384,128,2
1733421882.6250675,0.0,True,0.0030325648840516806,-0.004946719855070114,0.711616039276123,-1.0,90,15.974,0,0,False,,,,0,0,3,10,0.036262840032577515,40,28.523,,39.9526384,,-113.4759754,False,0.9199676240095869,32.367,,39.9526383,,-113.4759754,3.844,,39.9526383,,-113.4759754,-3.8801369667053223,0.0554664321243763,0.034468140453100204,-1,MISSION,,,,,,ACTIVE,1733421709.346963,0.0,0.03,-1.44,12,1,15,0,17760384,128,2
1733421882.7325656,0.0,True,0.003383819479495287,-0.004723760299384594,0.7116689085960388,-1.0,89,15.971,0,0,False,,,,0,0,3,10,0.030965380370616913,40,28.523,,39.9526384,,-113.4759754,False,0.025975986005505547,32.517,,39.9526383,,-113.4759754,3.993,,39.9526383,,-113.4759754,-4.01814079284668,0.05794249102473259,0.034745953977108,-1,MISSION,,,,,,ACTIVE,173.38560271263123,0.0,0.02,-1.44,12,1,15,0,17760384,128,2
1733421882.8258924,0.0,True,0.003382418304681778,-0.0045152208767831326,0.7116866111755371,-1.0,89,15.968,0,0,False,,,,0,0,3,10,0.027965614572167397,40,28.523,,39.9526384,,-113.4759754,False,0.013565533998189494,32.621,,39.9526383,,-113.4759754,4.097,,39.9526383,,-113.4759754,-4.133542060852051,0.059661317616701126,0.035008981823921204,-1,MISSION,,,,,,ACTIVE,1733421709.4402897,0.0,0.02,-1.45,12,1,15,0,17760384,128,2
1733421882.9260993,0.0,True,0.003307537641376257,-0.004219197202473879,0.7117214202880859,-1.0,89,15.968,0,0,False,,,,0,0,3,10,0.024750612676143646,40,28.523,,39.9526384,,-113.4759754,False,0.11290149900014512,32.771,,39.9526383,,-113.4759753,4.247,,39.9526383,,-113.4759753,-4.26084041595459,0.06126902252435684,0.03522828593850136,-1,MISSION,,,,,,ACTIVE,173.48580956459045,0.0,0.02,-1.45,12,1,15,0,17760384,128,2
1733421883.0265026,0.0,True,0.0031924766954034567,-0.0039537036791443825,0.7116214036941528,-1.0,89,15.968,0,0,False,,,,0,0,3,10,0.022003982216119766,40,28.523,,39.9526384,,-113.4759754,False,0.21325369100668468,32.887,,39.9526383,,-113.4759753,4.363,,39.9526383,,-113.4759753,-4.400063991546631,0.06254208087921143,0.03524206951260567,-1,MISSION,,,,,,ACTIVE,1733421709.540693,0.01,0.01,-1.45,12,1,15,0,17760384,128,2
1733421883.1288788,0.0,True,0.0031750884372740984,-0.003581106662750244,0.711302638053894,-1.0,89,15.962,0,0,False,,,,0,0,3,10,0.020770806819200516,40,28.523,,39.9526384,,-113.4759754,False,0.3160944620030932,33.027,,39.9526383,,-113.4759753,4.503,,39.9526383,,-113.4759753,-4.539826393127441,0.06354425847530365,0.035226643085479736,-1,MISSION,,,,,,ACTIVE,173.58818578720093,0.01,0.01,-1.46,12,1,15,0,17760384,128,2
1733421883.2316794,0.0,True,0.0032032232265919447,-0.0031259404495358467,0.7105859518051147,-1.0,89,15.962,0,0,False,,,,0,0,3,10,0.018383946269750595,40,28.523,,39.9526384,,-113.4759754,False,0.41826860400033183,33.179,,39.9526383,,-113.4759753,4.655,,39.9526383,,-113.4759753,-4.6566667556762695,0.06404342502355576,0.03498449921607971,-1,MISSION,,,,,,ACTIVE,1733421709.6434937,0.01,0.01,-1.46,12,1,15,0,17760384,128,2
1733421883.3325145,0.0,True,0.002774349180981517,-0.0028113643638789654,0.7102805972099304,-1.0,89,15.956,0,0,False,,,,0,0,3,10,0.014012494124472141,40,28.523,,39.9526384,,-113.4759754,False,0.5202552279952215,33.296,,39.9526383,,-113.4759753,4.772,,39.9526383,,-113.4759753,-4.809120178222656,0.06419706344604492,0.03439001366496086,-1,MISSION,,,,,,ACTIVE,173.6890208721161,0.0,0.0,-1.46,12,1,15,0,17760384,128,2
1733421883.4322004,0.0,True,0.002034213859587908,-0.0025393865071237087,0.7097271680831909,-1.0,89,15.956,0,0,False,,,,0,0,3,10,0.00989484041929245,40,28.523,,39.9526384,,-113.4759754,False,0.6185987430071691,33.437,,39.9526383,,-113.4759753,4.914,,39.9526383,,-113.4759753,-4.9386372566223145,0.06403256952762604,0.03359654173254967,-1,MISSION,,,,,,ACTIVE,1733421709.7431796,0.0,0.0,-1.47,12,1,15,0,17760384,128,2
1733421883.5324361,0.0,True,0.001852298271842301,-0.0025526757817715406,0.7090518474578857,-1.0,88,15.95,0,0,False,,,,0,0,3,10,0.01055761706084013,40,28.523,,39.9526384,,-113.4759754,False,0.7159964940074133,33.555,,39.9526382,,-113.4759753,5.031,,39.9526382,,-113.4759753,-5.068448066711426,0.0638454332947731,0.03273911029100418,-1,MISSION,,,,,,ACTIVE,173.7892565727234,0.0,0.0,-1.47,12,1,15,0,17760384,128,2
1733421883.6326244,0.0,True,0.0013727362966164947,-0.0026321392506361008,0.7088165879249573,-1.0,88,15.95,0,0,False,,,,0,0,3,10,0.008395847864449024,40,28.523,,39.9526384,,-113.4759754,False,0.8181225640000775,33.709,,39.9526382,,-113.4759753,5.185,,39.9526382,,-113.4759753,-5.186726093292236,0.06352227181196213,0.03200579062104225,-1,MISSION,,,,,,ACTIVE,1733421709.8433678,0.0,0.0,-1.47,12,1,15,0,17760384,128,2
1733421883.734787,0.0,True,0.0011464768322184682,-0.002372396644204855,0.7091208696365356,-1.0,88,15.944,0,0,False,,,,0,0,3,10,0.009062550961971283,40,28.523,,39.9526384,,-113.4759754,False,0.9161305760062532,33.827,,39.9526382,,-113.4759753,5.304,,39.9526382,,-113.4759753,-5.340712070465088,0.06281275302171707,0.031091613695025444,-1,MISSION,,,,,,ACTIVE,173.891419172287,0.0,0.0,-1.48,12,1,15,0,17760384,128,2
1733421883.8356543,0.0,True,0.0008253692067228258,-0.002304829191416502,0.7088208198547363,-1.0,88,15.941,0,0,False,,,,0,0,3,10,0.008778530173003674,40,28.523,,39.9526384,,-113.4759754,False,0.013538794999476522,33.97,,39.9526382,,-113.4759753,5.446,,39.9526382,,-113.4759753,-5.482996463775635,0.06198102608323097,0.0301066804677248,-1,MISSION,,,,,,ACTIVE,1733421709.944235,0.0,0.0,-1.48,12,1,15,0,17760384,128,2
1733421883.934201,0.0,True,0.0006856844411231577,-0.002370681380853057,0.7086928486824036,-1.0,88,15.938,0,0,False,,,,0,0,3,10,0.009887037798762321,40,28.523,,39.9526384,,-113.4759754,False,0.008525572004145943,34.089,,39.9526382,,-113.4759753,5.565,,39.9526382,,-113.4759753,-5.60181188583374,0.06137024611234665,0.028951989486813545,-1,MISSION,,,,,,ACTIVE,173.98996591567993,0.0,0.0,-1.48,12,1,15,0,17760384,128,2
1733421884.0344584,0.0,True,0.0005359646747820079,-0.00236811232753098,0.7085275650024414,-1.0,88,15.938,0,0,False,,,,0,0,3,10,0.009887037798762321,40,28.523,,39.9526384,,-113.4759754,False,0.10670396499335766,34.243,,39.9526382,,-113.4759753,5.719,,39.9526382,,-113.4759753,-5.732688903808594,0.06082712858915329,0.027604907751083374,-1,MISSION,,,,,,ACTIVE,1733421710.0444925,0.0,0.0,-1.48,12,1,15,0,17760384,128,2
1733421884.1369781,0.0,True,0.0005347649566829205,-0.0025077371392399073,0.7089264988899231,-1.0,88,15.938,0,0,False,,,,0,0,3,10,0.010285535827279091,40,28.523,,39.9526384,,-113.4759754,False,0.21301416600181255,34.362,,39.9526382,,-113.4759753,5.839,,39.9526382,,-113.4759753,-5.875670433044434,0.060126759111881256,0.026229949668049812,-1,MISSION,,,,,,ACTIVE,174.09248566627502,0.01,0.0,-1.48,12,1,15,0,17760384,128,2
1733421884.2358148,0.0,True,0.0005189437069930136,-0.0025210902094841003,0.7089996933937073,-1.0,87,15.932,0,0,False,,,,0,0,3,10,0.010848541744053364,40,28.523,,39.9526384,,-113.4759754,False,0.31174092000583187,34.506,,39.9526382,,-113.4759754,5.982,,39.9526382,,-113.4759754,-5.994968414306641,0.05950968712568283,0.025277165696024895,-1,MISSION,,,,,,ACTIVE,1733421710.1433291,0.01,0.0,-1.48,12,1,15,0,17760384,128,2
1733421884.3346307,0.0,True,0.000511969905346632,-0.002692221663892269,0.7089692950248718,-1.0,87,15.932,0,0,False,,,,0,0,3,10,0.012853186577558517,40,28.523,,39.9526384,,-113.4759754,False,0.4094985489937244,34.625,,39.9526382,,-113.4759754,6.101,,39.9526382,,-113.4759754,-6.138445854187012,0.05884344503283501,0.02423582412302494,-1,MISSION,,,,,,ACTIVE,174.19130158424377,0.01,0.0,-1.49,12,1,15,0,17760384,128,2
1733421884.435057,0.0,True,0.0001357455039396882,-0.002405704464763403,0.7092306613922119,-1.0,87,15.926,0,0,False,,,,0,0,3,10,0.012761054560542107,40,28.523,,39.9526384,,-113.4759754,False,0.5067862260038964,34.781,,39.9526382,,-113.4759754,6.257,,39.9526382,,-113.4759754,-6.282193660736084,0.05826530233025551,0.0232363510876894,-1,MISSION,,,,,,ACTIVE,1733421710.2437553,0.01,0.0,-1.49,12,1,15,0,17760384,128,2
1733421884.5350325,0.0,True,0.00012815522495657206,-0.0028482817579060793,0.7094407677650452,-1.0,87,15.926,0,0,False,,,,0,0,3,10,0.011853898875415325,40,28.523,,39.9526384,,-113.4759754,False,0.6085803919995669,34.901,,39.9526382,,-113.4759754,6.377,,39.9526382,,-113.4759754,-6.413928985595703,0.058056823909282684,0.022281261160969734,-1,MISSION,,,,,,ACTIVE,174.29127717018127,0.01,0.0,-1.49,12,1,15,0,17760384,128,2
1733421884.6387684,0.0,True,2.924178261309862e-05,-0.0028203309047967196,0.7096778750419617,-1.0,87,15.92,0,0,False,,,,0,0,3,10,0.013570357114076614,40,28.523,,39.9526384,,-113.4759754,False,0.711054058992886,35.044,,39.9526381,,-113.4759754,6.52,,39.9526381,,-113.4759754,-6.533511161804199,0.05810103937983513,0.021497400477528572,-1,MISSION,,,,,,ACTIVE,1733421710.3474913,0.01,0.0,-1.49,12,1,15,0,17760384,128,2
1733421884.7368557,0.0,True,-0.0002862582332454622,-0.0026465386617928743,0.7101565599441528,-1.0,87,15.92,0,0,False,,,,0,0,3,10,0.013908498920500278,40,28.523,,39.9526384,,-113.4759754,False,0.8129392010014271,35.164,,39.9526381,,-113.4759754,6.64,,39.9526381,,-113.4759754,-6.6770920753479,0.05833851546049118,0.0206921324133873,-1,MISSION,,,,,,ACTIVE,174.3893644809723,0.01,0.0,-1.49,12,1,15,0,17760384,128,2
1733421884.836062,0.0,True,-0.00034057028824463487,-0.002798413159325719,0.7108315229415894,-1.0,86,15.914,0,0,False,,,,0,0,3,10,0.014256615191698074,40,28.523,,39.9526384,,-113.4759754,False,0.9117531270021573,35.32,,39.9526381,,-113.4759754,6.796,,39.9526381,,-113.4759754,-6.820897102355957,0.05893220752477646,0.02016719989478588,-1,MISSION,,,,,,ACTIVE,1733421710.4466975,0.01,0.0,-1.49,12,1,15,0,17760384,128,2
1733421884.936438,0.0,True,-0.00020206463523209095,-0.003261303761973977,0.7111983895301819,-1.0,86,15.911,0,0,False,,,,0,0,3,10,0.015225572511553764,40,28.523,,39.9526384,,-113.4759754,False,0.004377471006591804,35.44,,39.9526381,,-113.4759754,6.916,,39.9526381,,-113.4759754,-6.95289945602417,0.059507668018341064,0.019883854314684868,-1,MISSION,,,,,,ACTIVE,174.48974061012268,0.01,0.0,-1.49,12,1,15,0,17760384,128,2
1733421885.0382395,0.0,True,-0.00017704290803521872,-0.0030974128749221563,0.7115796804428101,-1.0,86,15.908,0,0,False,,,,0,0,3,10,0.01690022088587284,40,28.523,,39.9526384,,-113.4759754,False,0.002821886009769514,35.584,,39.9526381,,-113.4759753,7.06,,39.9526381,,-113.4759753,-7.072904109954834,0.05979902669787407,0.019901461899280548,-1,MISSION,,,,,,ACTIVE,1733421710.5484989,0.01,0.0,-1.49,12,1,15,0,17760384,128,2
1733421885.1380339,0.0,True,0.0001282859011553228,-0.0028342255391180515,0.7116344571113586,-1.0,86,15.908,0,0,False,,,,0,0,3,10,0.01690022088587284,40,28.523,,39.9526384,,-113.4759754,False,0.10228482600359712,35.704,,39.9526381,,-113.4759753,7.18,,39.9526381,,-113.4759753,-7.229018211364746,0.0599985271692276,0.020143136382102966,-1,MISSION,,,,,,ACTIVE,174.58953499794006,0.01,0.0,-1.49,12,1,15,0,17760384,128,2
1733421885.239998,0.0,True,0.0001260362332686782,-0.002582490211352706,0.7116525769233704,-1.0,86,15.908,0,0,False,,,,0,0,3,10,0.01782541163265705,40,28.523,,39.9526384,,-113.4759754,False,0.20488155601196922,35.86,,39.9526381,,-113.4759753,7.336,,39.9526381,,-113.4759753,-7.373358249664307,0.05993357300758362,0.020141784101724625,-1,MISSION,,,,,,ACTIVE,1733421710.650463,0.01,0.0,-1.5,12,1,15,0,17760384,128,2
1733421885.3400705,0.0,True,8.459354285150766e-05,-0.0029647229239344597,0.7114306092262268,-1.0,86,15.902,0,0,False,,,,0,0,3,10,0.017607441172003746,40,28.523,,39.9526384,,-113.4759754,False,0.3027750150067732,35.98,,39.9526381,,-113.4759753,7.457,,39.9526381,,-113.4759753,-7.493727207183838,0.059885941445827484,0.01999427191913128,-1,MISSION,,,,,,ACTIVE,174.68960738182068,0.01,0.0,-1.5,12,1,15,0,17760384,128,2
1733421885.4403486,0.0,True,0.00010820419993251562,-0.002956248354166746,0.7112184762954712,-1.0,86,15.902,0,0,False,,,,0,0,3,10,0.01707061566412449,40,28.523,,39.9526384,,-113.4759754,False,0.404630190008902,36.125,,39.9526381,,-113.4759754,7.601,,39.9526381,,-113.4759754,-7.638278961181641,0.059628669172525406,0.0194565299898386,-1,MISSION,,,,,,ACTIVE,1733421710.7507412,0.01,0.0,-1.5,12,1,15,0,17760384,128,2
1733421885.5440567,0.0,True,-0.0002825033152475953,-0.0026749148964881897,0.7111191153526306,-1.0,85,15.896,0,0,False,,,,0,0,3,10,0.01751428283751011,40,28.523,,39.9526384,,-113.4759754,False,0.5076039750128984,36.282,,39.9526381,,-113.4759754,7.758,,39.9526381,,-113.4759754,-7.782910346984863,0.05907011777162552,0.018847748637199402,-1,MISSION,,,,,,ACTIVE,174.793315410614,0.01,0.0,-1.5,12,1,15,0,17760384,128,2
1733421885.6448355,0.0,True,-0.0005389834404923022,-0.0023517918307334185,0.710813045501709,-1.0,85,15.896,0,0,False,,,,0,0,3,10,0.017803499475121498,40,28.523,,39.9526384,,-113.4759754,False,0.6097683240077458,36.402,,39.9526381,,-113.4759754,7.878,,39.9526381,,-113.4759754,-7.915412902832031,0.058407679200172424,0.01819923147559166,-1,MISSION,,,,,,ACTIVE,1733421710.85152,0.01,0.0,-1.5,12,1,15,0,17760384,128,2
1733421885.7443635,0.0,True,-0.0007431640988215804,-0.002152610570192337,0.7104593515396118,-1.0,85,15.89,0,0,False,,,,0,0,3,10,0.017609383910894394,40,28.523,,39.9526384,,-113.4759754,False,0.7067785649996949,36.546,,39.9526381,,-113.4759754,8.023,,39.9526381,,-113.4759754,-8.035826683044434,0.057777076959609985,0.017471427097916603,-1,MISSION,,,,,,ACTIVE,174.89284348487854,0.01,0.0,-1.5,12,1,15,0,17760384,128,2
1733421885.8470938,0.0,True,-0.000998469884507358,-0.0024007419124245644,0.7103738784790039,-1.0,85,15.89,0,0,False,,,,0,0,3,10,0.01754373125731945,40,28.523,,39.9526384,,-113.4759754,False,0.8087647800130071,36.667,,39.9526381,,-113.4759754,8.143,,39.9526381,,-113.4759754,-8.18035888671875,0.05686135217547417,0.016792740672826767,-1,MISSION,,,,,,ACTIVE,1733421710.9542503,0.01,0.0,-1.5,12,1,15,0,17760384,128,2
1733421885.947193,0.0,True,-0.0009546714718453586,-0.002788282698020339,0.7103837132453918,-1.0,85,15.884,0,0,False,,,,0,0,3,10,0.017814211547374725,40,28.523,,39.9526384,,-113.4759754,False,0.9121213380130939,36.824,,39.9526381,,-113.4759754,8.3,,39.9526381,,-113.4759754,-8.324930191040039,0.0559052899479866,0.016372157260775566,-1,MISSION,,,,,,ACTIVE,174.99294257164001,0.01,0.0,-1.5,12,1,15,0,17760384,128,2
1733421886.0484066,0.0,True,-0.0010728518245741725,-0.0027264056261628866,0.710209846496582,-1.0,84,15.881,0,0,False,,,,0,0,3,10,0.020759539678692818,40,28.523,,39.9526384,,-113.4759754,False,0.009286594999139197,36.944,,39.9526381,,-113.4759754,8.42,,39.9526381,,-113.4759754,-8.457509994506836,0.055019229650497437,0.016123682260513306,-1,MISSION,,,,,,ACTIVE,1733421711.055464,0.01,0.0,-1.5,12,1,15,0,17760384,128,2
1733421886.150343,0.0,True,-0.001114953774958849,-0.0020537341479212046,0.7100898027420044,-1.0,84,15.878,0,0,False,,,,0,0,3,10,0.021135253831744194,40,28.523,,39.9526384,,-113.4759754,False,0.0024030930071603507,37.089,,39.9526381,,-113.4759754,8.565,,39.9526381,,-113.4759754,-8.602103233337402,0.053980421274900436,0.015980558469891548,-1,MISSION,,,,,,ACTIVE,175.09487891197205,0.02,0.0,-1.5,12,1,15,0,17760384,128,2
1733421886.2508695,0.0,True,-0.0009564297506585717,-0.0018330905586481094,0.710263729095459,-1.0,84,15.878,0,0,False,,,,0,0,3,10,0.021135253831744194,40,28.523,,39.9526384,,-113.4759754,False,0.1026489720097743,37.209,,39.9526381,,-113.4759754,8.685,,39.9526381,,-113.4759754,-8.734686851501465,0.053146760910749435,0.01597399264574051,-1,MISSION,,,,,,ACTIVE,1733421711.1559906,0.02,0.0,-1.5,12,1,15,0,17760384,128,2
1733421886.3511238,0.0,True,-0.0009709661244414747,-0.002214902313426137,0.7104426026344299,-1.0,84,15.878,0,0,False,,,,0,0,3,10,0.020591633394360542,40,28.523,,39.9526384,,-113.4759754,False,0.2010905010101851,37.366,,39.9526381,,-113.4759754,8.842,,39.9526381,,-113.4759754,-8.843266487121582,0.05262945592403412,0.016116557642817497,-1,MISSION,,,,,,ACTIVE,175.19513320922852,0.02,0.0,-1.5,12,1,15,0,17760384,128,2
1733421886.4513557,0.0,True,-0.001018131384626031,-0.0020820300560444593,0.7111129760742188,-1.0,84,15.872,0,0,False,,,,0,0,3,10,0.022357681766152382,40,28.523,,39.9526384,,-113.4759754,False,0.3027843780000694,37.487,,39.9526381,,-113.4759754,8.963,,39.9526381,,-113.4759754,-9.00034236907959,0.051897767931222916,0.016576826572418213,-1,MISSION,,,,,,ACTIVE,1733421711.2562225,0.02,0.0,-1.5,12,1,15,0,17760384,128,2
1733421886.5508428,0.0,True,-0.001009327475912869,-0.0017592423828318715,0.7110072374343872,-1.0,84,15.872,0,0,False,,,,0,0,3,10,0.023582087829709053,40,28.523,,39.9526384,,-113.4759754,False,0.4049260100000538,37.632,,39.9526381,,-113.4759754,9.108,,39.9526381,,-113.4759754,-9.145526885986328,0.05125580355525017,0.017503641545772552,-1,MISSION,,,,,,ACTIVE,175.29462027549744,0.02,0.0,-1.5,12,1,15,0,17760384,128,2
1733421886.6547153,0.0,True,-0.0007898265612311661,-0.001371688791550696,0.7111449241638184,-1.0,84,15.866,0,0,False,,,,0,0,3,10,0.02384699322283268,40,28.523,,39.9526384,,-113.4759754,False,0.5079048040061025,37.789,,39.9526381,,-113.4759755,9.266,,39.9526381,,-113.4759755,-9.29084300994873,0.05058877915143967,0.018856778740882874,-1,MISSION,,,,,,ACTIVE,1733421711.360095,0.02,0.0,-1.5,12,1,15,0,17760384,128,2
1733421886.7514024,0.0,True,-0.0006467061466537416,-0.0010863550705835223,0.7113561034202576,-1.0,84,15.866,0,0,False,,,,0,0,3,10,0.024989420548081398,40,28.523,,39.9526384,,-113.4759754,False,0.6050809510052204,37.911,,39.9526381,,-113.4759755,9.387,,39.9526381,,-113.4759755,-9.424271583557129,0.04994989559054375,0.02035149745643139,-1,MISSION,,,,,,ACTIVE,175.3913073539734,0.02,0.0,-1.51,12,1,15,0,17760384,128,2
1733421886.8518333,0.0,True,-0.0003915054548997432,-0.0009676629560999572,0.7116970419883728,-1.0,83,15.86,0,0,False,,,,0,0,3,10,0.025777848437428474,40,28.523,,39.9526384,,-113.4759754,False,0.7025726569991093,38.032,,39.9526381,,-113.4759755,9.508,,39.9526381,,-113.4759755,-9.545673370361328,0.049522463232278824,0.021806996315717697,-1,MISSION,,,,,,ACTIVE,1733421711.460526,0.02,0.0,-1.51,12,1,15,0,17760384,128,2
1733421886.9522204,0.0,True,-6.59725337754935e-05,-0.0006616181344725192,0.7116650938987732,-1.0,83,15.86,0,0,False,,,,0,0,3,10,0.027560165151953697,40,28.523,,39.9526384,,-113.4759754,False,0.8051068979984848,38.178,,39.9526382,,-113.4759755,9.654,,39.9526382,,-113.4759755,-9.691469192504883,0.04933615028858185,0.02362687513232231,-1,MISSION,,,,,,ACTIVE,175.49169445037842,0.02,0.0,-1.51,12,1,15,0,17760384,128,2
1733421887.0535376,0.0,True,0.0003179835039190948,-0.0004513749445322901,0.7116394639015198,-1.0,83,15.854,0,0,False,,,,0,0,3,10,0.02647211402654648,40,28.523,,39.9526384,,-113.4759754,False,0.907613654009765,38.336,,39.9526382,,-113.4759755,9.812,,39.9526382,,-113.4759755,-9.812923431396484,0.049198076128959656,0.025286495685577393,-1,MISSION,,,,,,ACTIVE,1733421711.5618432,0.02,0.0,-1.51,12,1,15,0,17760384,128,2
1733421887.1536913,0.0,True,7.210074545582756e-05,-4.946972330799326e-05,0.7118811011314392,-1.0,83,15.851,0,0,False,,,,0,0,3,10,0.026508022099733353,40,28.523,,39.9526384,,-113.4759754,False,0.001971406993106939,38.457,,39.9526382,,-113.4759755,9.933,,39.9526382,,-113.4759755,-9.970671653747559,0.048900336027145386,0.02752133272588253,-1,MISSION,,,,,,ACTIVE,175.5918481349945,0.02,0.0,-1.51,12,1,15,0,17760384,128,2
1733421887.2537827,0.0,True,0.00026934134075418115,0.00014700174506288022,0.7119005918502808,-1.0,83,15.851,0,0,False,,,,0,0,3,10,0.026508022099733353,40,28.523,,39.9526384,,-113.4759754,False,0.10176828499243129,38.603,,39.9526382,,-113.4759755,10.079,,39.9526382,,-113.4759755,-10.091912269592285,0.04859595000743866,0.02947375550866127,-1,MISSION,,,,,,ACTIVE,1733421711.6619346,0.02,0.0,-1.51,12,1,15,0,17760384,128,2
1733421887.354003,0.0,True,0.0009466084302403033,0.0002879732346627861,0.7114236950874329,-1.0,83,15.848,0,0,False,,,,0,0,3,10,0.02585073933005333,40,28.523,,39.9526384,,-113.4759754,False,0.09151816100347787,38.724,,39.9526382,,-113.4759755,10.2,,39.9526382,,-113.4759755,-10.237881660461426,0.04834551364183426,0.03206997737288475,-1,MISSION,,,,,,ACTIVE,175.69206833839417,0.02,0.0,-1.53,12,1,15,0,17760384,128,2
1733421887.4566803,0.0,True,0.0010952389566227794,0.0004968224093317986,0.7110311388969421,-1.0,83,15.848,0,0,False,,,,0,0,3,10,0.024554835632443428,40,28.523,,39.9526384,,-113.4759754,False,0.19364424899686128,38.886,,39.9526383,,-113.4759755,10.362,,39.9526383,,-113.4759755,-10.362049102783203,0.04823552072048187,0.03437288478016853,-1,MISSION,,,,,,ACTIVE,1733421711.764612,0.02,0.0,-1.59,12,1,15,0,17760384,128,2
1733421887.55494,0.0,True,0.0014401653315871954,0.000451555970357731,0.7108492851257324,-1.0,82,15.842,0,0,False,,,,0,0,3,10,0.02386375144124031,40,28.523,,39.9526384,,-113.4759754,False,0.29596805799519643,39.016,,39.9526383,,-113.4759755,10.492,,39.9526383,,-113.4759755,-10.53089427947998,0.04824725538492203,0.03733992949128151,-1,MISSION,,,,,,ACTIVE,175.79032802581787,0.02,0.0,-1.67,12,1,15,0,17760384,128,2
1733421887.6542008,0.0,True,0.0017423786921426654,0.0005212514661252499,0.7108439207077026,-1.0,82,15.842,0,0,False,,,,0,0,3,10,0.0233746450394392,40,28.523,,39.9526384,,-113.4759754,False,0.3941454820014769,39.182,,39.9526383,,-113.4759755,10.658,,39.9526383,,-113.4759755,-10.683538436889648,0.048447031527757645,0.03978106006979942,-1,MISSION,,,,,,ACTIVE,1733421711.8638728,0.02,0.0,-1.8,12,1,15,0,17760384,128,2
1733421887.7548835,0.0,True,0.001875002053566277,0.0008957518730312586,0.7107972502708435,-1.0,82,15.836,0,0,False,,,,0,0,3,10,0.021667206659913063,40,28.523,,39.9526384,,-113.4759754,False,0.4958644479920622,39.331,,39.9526383,,-113.4759755,10.807,,39.9526383,,-113.4759755,-10.848012924194336,0.04889077693223953,0.04204869270324707,-1,MISSION,,,,,,ACTIVE,175.891010761261,0.02,0.0,-1.95,12,1,15,0,17760384,128,2
1733421887.854469,0.0,True,0.0021664744708687067,0.0006859578425064683,0.7107492685317993,-1.0,82,15.836,0,0,False,,,,0,0,3,10,0.019649583846330643,40,28.523,,39.9526384,,-113.4759754,False,0.5936926080030389,39.542,,39.9526383,,-113.4759755,11.019,,39.9526383,,-113.4759755,-11.009913444519043,0.04933341592550278,0.043860796838998795,-1,MISSION,,,,,,ACTIVE,1733421711.9634583,0.01,0.0,-2.17,12,1,15,0,17760384,128,2
1733421887.955053,0.0,True,0.002428371226415038,0.0007988681900314987,0.7107865810394287,-1.0,82,15.83,0,0,False,,,,0,0,3,10,0.017577968537807465,40,28.523,,39.9526384,,-113.4759754,False,0.6957994690019405,39.721,,39.9526384,,-113.4759755,11.197,,39.9526384,,-113.4759755,-11.241063117980957,0.050115279853343964,0.0456453301012516,-1,MISSION,,,,,,ACTIVE,175.99159479141235,0.01,0.0,-2.36,12,1,15,0,17760384,128,2
1733421888.0548604,0.0,True,0.002419936703518033,0.0004356580029707402,0.7107658386230469,-1.0,82,15.83,0,0,False,,,,0,0,3,10,0.012921538203954697,40,28.523,,39.9526384,,-113.4759754,False,0.7939569849986583,39.954,,39.9526384,,-113.4759754,11.43,,39.9526384,,-113.4759754,-11.435214042663574,0.05106382071971893,0.04660796746611595,-1,MISSION,,,,,,ACTIVE,1733421712.0632656,0.01,0.0,-2.58,12,1,15,0,17760384,128,2
1733421888.1560845,0.0,True,0.0020547581370919943,1.0041308087238576e-05,0.7108097076416016,-1.0,81,15.824,0,0,False,,,,0,0,3,10,0.009482091292738914,40,28.523,,39.9526384,,-113.4759754,False,0.8957319869950879,40.161,,39.9526384,,-113.4759754,11.637,,39.9526384,,-113.4759754,-11.683731079101562,0.05252458155155182,0.04740637168288231,-1,MISSION,,,,,,ACTIVE,176.0928189754486,0.0,0.0,-2.72,12,1,15,0,17760384,128,2
1733421888.2562258,0.0,True,0.0017321765189990401,-0.00018063720199279487,0.7106131315231323,-1.0,81,15.824,0,0,False,,,,0,0,3,10,0.009482091292738914,40,28.523,,39.9526384,,-113.4759754,False,0.9938465029990766,40.444,,39.9526384,,-113.4759754,11.921,,39.9526384,,-113.4759754,-11.923492431640625,0.05401382967829704,0.04772139713168144,-1,MISSION,,,,,,ACTIVE,1733421712.1634068,0.0,0.0,-2.87,12,1,15,0,17760384,128,2
1733421888.3562894,0.0,True,0.0016011198749765754,-0.00033178055309690535,0.7104721069335938,-1.0,81,15.821,0,0,False,,,,0,0,3,10,0.007153273560106754,40,28.523,,39.9526384,,-113.4759754,False,0.0937678489863174,40.671,,39.9526384,,-113.4759754,12.147,,39.9526384,,-113.4759754,-12.195096015930176,0.0560174323618412,0.048004645854234695,-1,MISSION,,,,,,ACTIVE,176.1928825378418,0.0,0.0,-2.95,12,1,15,0,17760384,128,2
1733421888.457587,0.0,True,0.0021175993606448174,-0.0005723740323446691,0.7105116248130798,-1.0,81,15.818,0,0,False,,,,0,0,3,10,0.006566836033016443,40,28.523,,39.9526384,,-113.4759754,False,0.08453906900831498,40.949,,39.9526384,,-113.4759754,12.426,,39.9526384,,-113.4759754,-12.427271842956543,0.05807345733046532,0.0484432727098465,-1,MISSION,,,,,,ACTIVE,1733421712.2647045,0.0,0.0,-3.01,12,1,15,0,17760384,128,2
1733421888.557081,0.0,True,0.0025667641311883926,-0.001031949301250279,0.7099367380142212,-1.0,81,15.818,0,0,False,,,,0,0,3,10,0.007140224799513817,40,28.523,,39.9526384,,-113.4759754,False,0.18145573799847625,41.185,,39.9526384,,-113.4759753,12.661,,39.9526384,,-113.4759753,-12.709575653076172,0.060763537883758545,0.04901336878538132,-1,MISSION,,,,,,ACTIVE,176.2923765182495,0.0,0.0,-3.03,12,1,15,0,17760384,128,2
1733421888.6584327,0.0,True,0.003207886591553688,-0.0015380146214738488,0.7097430229187012,-1.0,81,15.812,0,0,False,,,,0,0,3,10,0.007347926963120699,40,28.523,,39.9526384,,-113.4759754,False,0.2843864710011985,41.491,,39.9526384,,-113.4759753,12.967,,39.9526384,,-113.4759753,-12.992303848266602,0.06365019828081131,0.04942742735147476,-1,MISSION,,,,,,ACTIVE,1733421712.3660562,0.0,0.0,-3.01,12,1,15,0,17760384,128,2
1733421888.7583613,0.0,True,0.0037052882835268974,-0.002294003963470459,0.7097588181495667,-1.0,81,15.812,0,0,False,,,,0,0,3,10,0.008509334176778793,40,28.523,,39.9526384,,-113.4759754,False,0.38141957300831564,41.726,,39.9526384,,-113.4759753,13.202,,39.9526384,,-113.4759753,-13.250884056091309,0.0665351003408432,0.04959733784198761,-1,MISSION,,,,,,ACTIVE,176.39230513572693,0.0,0.0,-3.0,12,1,15,0,17760384,128,2
1733421888.8580966,0.0,True,0.004179697483778,-0.0030473286751657724,0.7095945477485657,-1.0,80,15.806,0,0,False,,,,0,0,3,10,0.00797337293624878,40,28.523,,39.9526384,,-113.4759754,False,0.4841605859983247,42.008,,39.9526384,,-113.4759752,13.484,,39.9526384,,-113.4759752,-13.485921859741211,0.06941898167133331,0.04981997236609459,-1,MISSION,,,,,,ACTIVE,1733421712.4657915,0.0,0.0,-2.99,12,1,15,0,17760384,128,2
1733421888.9610848,0.0,True,0.004372456111013889,-0.003510056296363473,0.7095077037811279,-1.0,80,15.806,0,0,False,,,,0,0,3,10,0.007197612430900335,40,28.523,,39.9526384,,-113.4759754,False,0.5859122520050732,42.244,,39.9526384,,-113.4759752,13.72,,39.9526384,,-113.4759752,-13.768601417541504,0.07288467139005661,0.050258927047252655,-1,MISSION,,,,,,ACTIVE,176.49529337882996,0.0,0.0,-2.98,12,1,15,0,17760384,128,2
