timestamp,airspeed,armed,attitude.pitch,attitude.roll,attitude.yaw,battery.current,battery.level,battery.voltage,commands.count,commands.next,ekf_ok,gimbal.pitch,gimbal.roll,gimbal.yaw,gps_0.eph,gps_0.epv,gps_0.fix_type,gps_0.satellites_visible,groundspeed,heading,home_location.alt,home_location.global_frame,home_location.lat,home_location.local_frame,home_location.lon,is_armable,last_heartbeat,location.global_frame.alt,location.global_frame.global_frame,location.global_frame.lat,location.global_frame.local_frame,location.global_frame.lon,location.global_relative_frame.alt,location.global_relative_frame.global_frame,location.global_relative_frame.lat,location.global_relative_frame.local_frame,location.global_relative_frame.lon,location.local_frame.down,location.local_frame.east,location.local_frame.north,ml_verdict,mode.name,mount_status[0],mount_status[1],mount_status[2],rangefinder.distance,rangefinder.voltage,system_status.state,timedelta,velocity[0],velocity[1],velocity[2],version.autopilot_type,version.major,version.minor,version.patch,version.raw_version,version.release,version.vehicle_type
1733398394.7216766,0.0,True,0.0055814883671700954,0.0030998773872852325,0.15694580972194672,-1.0,100,16.186,0,0,False,,,,0,0,3,10,0.024079928174614906,8,28.493,,39.952638,,-113.475976,False,0.022998843000095803,28.497,,39.9526379,,-113.4759758,0.0,,39.9526379,,-113.4759758,0.0011941957054659724,0.023368891328573227,-0.01020820438861847,-1,MISSION,,,,,,ACTIVE,1733398389.1970148,-0.02,0.01,0.0,12,1,15,0,17760384,128,2
1733398394.8223767,0.0,True,0.005552741698920727,0.0029915701597929,0.15738634765148163,-1.0,100,16.183,0,0,False,,,,0,0,3,10,0.026288103312253952,9,28.493,,39.952638,,-113.475976,False,0.01782367000123486,28.497,,39.9526379,,-113.4759758,0.0,,39.9526379,,-113.4759758,0.0013483228394761682,0.023622728884220123,-0.010564161464571953,-1,MISSION,,,,,,ACTIVE,5.625361919403076,-0.02,0.01,0.0,12,1,15,0,17760384,128,2
1733398394.9232512,0.0,True,0.005427123513072729,0.0030017532408237457,0.1575232446193695,-1.0,100,16.183,0,0,False,,,,0,0,3,10,0.02490154467523098,9,28.493,,39.952638,,-113.475976,False,0.11519390600005863,28.497,,39.9526379,,-113.4759758,0.0,,39.9526379,,-113.4759758,0.0015395630616694689,0.02394779399037361,-0.010667340829968452,-1,MISSION,,,,,,ACTIVE,1733398389.2978892,-0.02,0.01,0.0,12,1,15,0,17760384,128,2
1733398395.0240662,0.0,True,0.004899752326309681,0.0031219522934406996,0.15793444216251373,-1.0,100,16.183,0,0,False,,,,0,0,3,10,0.026343656703829765,9,28.493,,39.952638,,-113.475976,False,0.21788477699737996,28.497,,39.9526379,,-113.4759758,0.0,,39.9526379,,-113.4759758,0.0015223708469420671,0.024425914511084557,-0.010742182843387127,-1,MISSION,,,,,,ACTIVE,5.726176977157593,-0.02,0.01,0.0,12,1,15,0,17760384,128,2
1733398395.125133,0.0,True,0.004830451682209969,0.0031169678550213575,0.15797008574008942,-1.0,100,16.177,0,0,False,,,,0,0,3,10,0.026319000869989395,9,28.493,,39.952638,,-113.475976,False,0.3197013699973468,28.497,,39.9526379,,-113.4759758,0.0,,39.9526379,,-113.4759758,0.001453641802072525,0.02497565746307373,-0.010927926748991013,-1,MISSION,,,,,,ACTIVE,1733398389.398956,-0.02,0.01,0.0,12,1,15,0,17760384,128,2
1733398395.2265344,0.0,True,0.004664123523980379,0.002905837958678603,0.1582970917224884,-1.0,100,16.177,0,0,False,,,,0,0,3,10,0.02550463005900383,9,28.493,,39.952638,,-113.475976,False,0.4223980129972915,28.497,,39.9526378,,-113.4759757,0.0,,39.9526378,,-113.4759757,0.0012963911285623908,0.025552356615662575,-0.011184771545231342,-1,MISSION,,,,,,ACTIVE,5.82757830619812,-0.02,0.01,0.0,12,1,15,0,17760384,128,2
1733398395.325391,0.0,True,0.0043680910021066666,0.0028391943778842688,0.15832683444023132,-1.0,100,16.171,0,0,False,,,,0,0,3,10,0.026162121444940567,9,28.493,,39.952638,,-113.475976,False,0.5151840789985727,28.498,,39.9526378,,-113.4759757,0.0,,39.9526378,,-113.4759757,0.0010864164214581251,0.026145968586206436,-0.01159017812460661,-1,MISSION,,,,,,ACTIVE,1733398389.4978127,-0.02,0.01,0.0,12,1,15,0,17760384,128,2
1733398395.4268568,0.0,True,0.0042182281613349915,0.003011235035955906,0.1584388166666031,-1.0,100,16.171,0,0,False,,,,0,0,3,10,0.026341993361711502,9,28.497,,39.9526379,,-113.4759758,False,0.6222777139992104,28.498,,39.9526378,,-113.4759757,0.0,,39.9526378,,-113.4759757,0.000920151942409575,0.0264743585139513,-0.01195684913545847,-1,MISSION,,,,,,ACTIVE,5.929044008255005,-0.02,0.01,0.0,12,1,15,0,17760384,128,2
1733398395.5274014,0.0,True,0.004129911307245493,0.0028675778303295374,0.15841805934906006,-1.0,100,16.165,0,0,False,,,,0,0,3,10,0.027386972680687904,9,28.497,,39.9526379,,-113.4759758,False,0.7200974629959092,28.498,,39.9526378,,-113.4759757,0.0,,39.9526378,,-113.4759757,0.000775872846134007,0.026795824989676476,-0.012356583029031754,-1,MISSION,,,,,,ACTIVE,1733398389.5983574,-0.02,0.01,0.0,12,1,15,0,17760384,128,2
1733398395.6271849,0.0,True,0.0039017433300614357,0.002413775073364377,0.15860123932361603,-1.0,100,16.165,0,0,False,,,,0,0,3,10,0.02664881758391857,9,28.497,,39.9526379,,-113.4759758,False,0.8224596549989656,28.498,,39.9526378,,-113.4759757,0.0,,39.9526378,,-113.4759757,0.0007239483529701829,0.026840999722480774,-0.012664621695876122,-1,MISSION,,,,,,ACTIVE,6.028827428817749,-0.02,0.01,0.0,12,1,15,0,17760384,128,2
1733398395.727207,0.0,True,0.004119395278394222,0.0023641057778149843,0.1587585061788559,-1.0,99,16.159,0,0,False,,,,0,0,3,10,0.02357800118625164,9,28.497,,39.9526379,,-113.4759758,False,0.9198240650002845,28.498,,39.9526378,,-113.4759757,0.0,,39.9526378,,-113.4759757,0.0007422929629683495,0.026767561212182045,-0.012719345279037952,-1,MISSION,,,,,,ACTIVE,1733398389.6983795,-0.01,0.01,0.0,12,1,15,0,17760384,128,2
1733398395.8275905,0.0,True,0.003869399894028902,0.0022784085012972355,0.1587415337562561,-1.0,99,16.156,0,0,False,,,,0,0,3,10,0.022889839485287666,9,28.497,,39.9526379,,-113.4759758,False,0.018679328000871465,28.498,,39.9526378,,-113.4759757,0.0,,39.9526378,,-113.4759757,0.0008344522793777287,0.026645494624972343,-0.012609550729393959,-1,MISSION,,,,,,ACTIVE,6.129210948944092,-0.01,0.01,0.0,12,1,15,0,17760384,128,2
1733398395.927721,0.0,True,0.00358355650678277,0.002247448544949293,0.15901078283786774,-1.0,99,16.153,0,0,False,,,,0,0,3,10,0.021162470802664757,9,28.497,,39.9526379,,-113.4759758,False,0.009161483001662418,28.498,,39.9526378,,-113.4759757,0.0,,39.9526378,,-113.4759757,0.0008950412156991661,0.026521524414420128,-0.012363615445792675,-1,MISSION,,,,,,ACTIVE,1733398389.79851,-0.01,0.0,0.0,12,1,15,0,17760384,128,2
1733398396.0291138,0.0,True,0.0037606139667332172,0.0025422926992177963,0.15931332111358643,-1.0,99,16.153,0,0,False,,,,0,0,3,10,0.019141456112265587,9,28.497,,39.9526379,,-113.4759758,False,0.11348681899835356,28.498,,39.9526378,,-113.4759757,0.0,,39.9526378,,-113.4759757,0.0009404431330040097,0.026394754648208618,-0.012085610069334507,-1,MISSION,,,,,,ACTIVE,6.2306036949157715,-0.01,0.0,0.0,12,1,15,0,17760384,128,2
1733398396.129277,0.0,True,0.004031593911349773,0.002337318379431963,0.15955422818660736,-1.0,99,16.153,0,0,False,,,,0,0,3,10,0.0180716123431921,9,28.497,,39.9526379,,-113.4759758,False,0.21349988000292797,28.498,,39.9526378,,-113.4759757,0.0,,39.9526378,,-113.4759757,0.0009879646822810173,0.026096196845173836,-0.011651268228888512,-1,MISSION,,,,,,ACTIVE,1733398389.8986733,-0.01,0.0,0.0,12,1,15,0,17760384,128,2
1733398396.231662,0.0,True,0.004033904988318682,0.0022862101905047894,0.15953710675239563,-1.0,99,16.147,0,0,False,,,,0,0,3,10,0.01757565140724182,9,28.497,,39.9526379,,-113.4759758,False,0.3075625260025845,28.498,,39.9526378,,-113.4759757,0.0,,39.9526378,,-113.4759757,0.0008784639067016542,0.025875046849250793,-0.01131260022521019,-1,MISSION,,,,,,ACTIVE,6.332988739013672,-0.01,0.0,0.0,12,1,15,0,17760384,128,2
1733398396.3294313,0.0,True,0.0038506293203681707,0.0020290229003876448,0.159645214676857,-1.0,99,16.147,0,0,False,,,,0,0,3,10,0.017436038702726364,9,28.497,,39.9526379,,-113.4759758,False,0.4137121940002544,28.498,,39.9526378,,-113.4759757,0.0,,39.9526378,,-113.4759757,0.0007639220566488802,0.025794941931962967,-0.0111081562936306,-1,MISSION,,,,,,ACTIVE,1733398389.9964426,-0.01,0.0,0.0,12,1,15,0,17760384,128,2
1733398396.4296455,0.0,True,0.003802000544965267,0.002187765436246991,0.15995240211486816,-1.0,99,16.141,0,0,False,,,,0,0,3,10,0.016327453777194023,9,28.497,,39.9526379,,-113.4759758,False,0.5115163630034658,28.498,,39.9526379,,-113.4759757,0.0,,39.9526379,,-113.4759757,0.0007189582102000713,0.02579961158335209,-0.011120113544166088,-1,MISSION,,,,,,ACTIVE,6.4332029819488525,-0.01,0.0,0.0,12,1,15,0,17760384,128,2
1733398396.530146,0.0,True,0.0038527133874595165,0.0019554852042347193,0.16008810698986053,-1.0,99,16.141,0,0,False,,,,0,0,3,10,0.015429820865392685,9,28.497,,39.9526379,,-113.4759758,False,0.6149502390035195,28.498,,39.9526378,,-113.4759757,0.0,,39.9526378,,-113.4759757,0.0006567128584720194,0.025671610608696938,-0.011251025833189487,-1,MISSION,,,,,,ACTIVE,1733398390.096943,-0.01,0.0,0.0,12,1,15,0,17760384,128,2
1733398396.6315367,0.0,True,0.003635093569755554,0.0020526580046862364,0.1601506769657135,-1.0,98,16.135,0,0,False,,,,0,0,3,10,0.015205880627036095,9,28.497,,39.9526379,,-113.4759758,False,0.7162650120008038,28.498,,39.9526378,,-113.4759758,0.0,,39.9526378,,-113.4759758,0.00031234105699695647,0.025308437645435333,-0.011393342167139053,-1,MISSION,,,,,,ACTIVE,6.534593820571899,-0.01,0.0,0.0,12,1,15,0,17760384,128,2
1733398396.731815,0.0,True,0.0036471616476774216,0.00233806436881423,0.16052433848381042,-1.0,98,16.135,0,0,False,,,,0,0,3,10,0.013869794085621834,9,28.497,,39.9526379,,-113.4759758,False,0.8144646200016723,28.499,,39.9526378,,-113.4759758,0.001,,39.9526378,,-113.4759758,-4.860982880927622e-05,0.02492653764784336,-0.011501927860081196,-1,MISSION,,,,,,ACTIVE,1733398390.1972213,-0.01,0.0,0.0,12,1,15,0,17760384,128,2
1733398396.831894,0.0,True,0.0038411542773246765,0.0022608148865401745,0.16068945825099945,-1.0,98,16.129,0,0,False,,,,0,0,3,10,0.014170666225254536,9,28.497,,39.9526379,,-113.4759758,False,0.9115433629995096,28.499,,39.9526378,,-113.4759758,0.001,,39.9526378,,-113.4759758,-0.0005554569652304053,0.02455904148519039,-0.011615795083343983,-1,MISSION,,,,,,ACTIVE,6.63467264175415,-0.01,0.0,0.0,12,1,15,0,17760384,128,2
1733398396.9318008,0.0,True,0.0038183555006980896,0.002618656260892749,0.1607496589422226,-1.0,98,16.129,0,0,False,,,,0,0,3,10,0.013141211122274399,9,28.497,,39.9526379,,-113.4759758,False,1.015504636001424,28.5,,39.9526378,,-113.4759758,0.001,,39.9526378,,-113.4759758,-0.0009098044829443097,0.024297140538692474,-0.011627479456365108,-1,MISSION,,,,,,ACTIVE,1733398390.2971282,-0.01,0.0,0.0,12,1,15,0,17760384,128,2
1733398397.0333784,0.0,True,0.0037644649855792522,0.002538790227845311,0.16086292266845703,-1.0,98,16.126,0,0,False,,,,0,0,3,10,0.013470218516886234,9,28.497,,39.9526379,,-113.4759758,False,0.09617103599885013,28.5,,39.9526378,,-113.4759758,0.002,,39.9526378,,-113.4759758,-0.0012450211215764284,0.023927116766572,-0.011809277348220348,-1,MISSION,,,,,,ACTIVE,6.736250162124634,-0.01,0.0,0.0,12,1,15,0,17760384,128,2
1733398397.1334584,0.0,True,0.0037964966613799334,0.0022397323045879602,0.16088303923606873,-1.0,98,16.123,0,0,False,,,,0,0,3,10,0.013454281724989414,9,28.497,,39.9526379,,-113.4759758,False,0.09368937100225594,28.5,,39.9526378,,-113.4759758,0.002,,39.9526378,,-113.4759758,-0.0018854067893698812,0.023360317572951317,-0.01222172100096941,-1,MISSION,,,,,,ACTIVE,1733398390.3972082,-0.01,0.0,0.0,12,1,15,0,17760384,128,2
1733398397.2334793,0.0,True,0.0037843219470232725,0.0024717634078115225,0.16090364754199982,-1.0,98,16.123,0,0,False,,,,0,0,3,10,0.013301711529493332,9,28.497,,39.9526379,,-113.4759758,False,0.19125982800323982,28.501,,39.9526378,,-113.4759758,0.003,,39.9526378,,-113.4759758,-0.00252129347063601,0.022533660754561424,-0.012789818458259106,-1,MISSION,,,,,,ACTIVE,6.836271047592163,-0.01,0.0,0.0,12,1,15,0,17760384,128,2
1733398397.3377986,0.0,True,0.003962535876780748,0.0026985346339643,0.16128019988536835,-1.0,97,16.117,0,0,False,,,,0,0,3,10,0.014807294122874737,9,28.497,,39.9526379,,-113.4759758,False,0.29879584399895975,28.502,,39.9526378,,-113.4759758,0.003,,39.9526378,,-113.4759758,-0.0029876800253987312,0.02156546711921692,-0.013713225722312927,-1,MISSION,,,,,,ACTIVE,1733398390.5015275,-0.01,0.0,0.0,12,1,15,0,17760384,128,2
1733398397.4339237,0.0,True,0.0040631662122905254,0.0023475124035030603,0.16154083609580994,-1.0,97,16.117,0,0,False,,,,0,0,3,10,0.014127514325082302,9,28.497,,39.9526379,,-113.4759758,False,0.39146405800420325,28.502,,39.9526378,,-113.4759758,0.004,,39.9526378,,-113.4759758,-0.0032690211664885283,0.02092614583671093,-0.014385856688022614,-1,MISSION,,,,,,ACTIVE,6.932396173477173,-0.01,0.0,0.0,12,1,15,0,17760384,128,2
1733398397.5340445,0.0,True,0.0040960609912872314,0.002209520898759365,0.16170193254947662,-1.0,97,16.111,0,0,False,,,,0,0,3,10,0.012914896942675114,9,28.497,,39.9526379,,-113.4759758,False,0.4944569560029777,28.502,,39.9526378,,-113.4759758,0.004,,39.9526378,,-113.4759758,-0.0036948728375136852,0.020042946562170982,-0.015126235783100128,-1,MISSION,,,,,,ACTIVE,1733398390.6016483,-0.01,0.0,0.0,12,1,15,0,17760384,128,2
1733398397.6340365,0.0,True,0.004084812942892313,0.0020498097874224186,0.1617044359445572,-1.0,97,16.111,0,0,False,,,,0,0,3,10,0.013810079544782639,9,28.497,,39.9526379,,-113.4759758,False,0.5924123450022307,28.503,,39.9526378,,-113.4759758,0.004,,39.9526378,,-113.4759758,-0.0040940409526228905,0.019416825845837593,-0.015604984015226364,-1,MISSION,,,,,,ACTIVE,7.032388210296631,-0.01,0.0,0.0,12,1,15,0,17760384,128,2
1733398397.7376888,0.0,True,0.003925723023712635,0.0021248343400657177,0.16193866729736328,-1.0,97,16.105,0,0,False,,,,0,0,3,10,0.014480176381766796,9,28.498,,39.9526378,,-113.4759757,False,0.698430405005638,28.503,,39.9526378,,-113.4759758,0.005,,39.9526378,,-113.4759758,-0.004441425204277039,0.01909547485411167,-0.015947746112942696,-1,MISSION,,,,,,ACTIVE,1733398390.7053006,-0.01,0.0,0.0,12,1,15,0,17760384,128,2
1733398397.8345146,0.0,True,0.0037708741147071123,0.0022732936777174473,0.1624380648136139,-1.0,97,16.105,0,0,False,,,,0,0,3,10,0.014119893312454224,9,28.498,,39.9526378,,-113.4759757,False,0.7915465140031301,28.503,,39.9526378,,-113.4759758,0.005,,39.9526378,,-113.4759758,-0.0047052763402462006,0.018995841965079308,-0.01587017998099327,-1,MISSION,,,,,,ACTIVE,7.12921404838562,-0.01,0.0,0.0,12,1,15,0,17760384,128,2
1733398397.9371345,0.0,True,0.0035173266660422087,0.0021000325214117765,0.16283275187015533,-1.0,97,16.099,0,0,False,,,,0,0,3,10,0.013248352333903313,9,28.498,,39.9526378,,-113.4759757,False,0.893926251999801,28.503,,39.9526378,,-113.4759758,0.005,,39.9526378,,-113.4759758,-0.0048280018381774426,0.01889740116894245,-0.015227558091282845,-1,MISSION,,,,,,ACTIVE,1733398390.8079205,-0.01,0.0,0.0,12,1,15,0,17760384,128,2
1733398398.0410583,0.0,True,0.0032602306455373764,0.002123676473274827,0.16292065382003784,-1.0,97,16.099,0,0,False,,,,0,0,3,10,0.009422355331480503,9,28.498,,39.9526378,,-113.4759757,False,1.001882900003693,28.503,,39.9526378,,-113.4759758,0.005,,39.9526378,,-113.4759758,-0.004667213652282953,0.018554776906967163,-0.014477130025625229,-1,MISSION,,,,,,ACTIVE,7.233137845993042,0.0,0.0,0.0,12,1,15,0,17760384,128,2
1733398398.138899,0.0,True,0.0033018907997757196,0.0020089205354452133,0.16301220655441284,-1.0,96,16.096,0,0,False,,,,0,0,3,10,0.009538844227790833,9,28.498,,39.9526378,,-113.4759757,False,0.09369075599533971,28.503,,39.9526378,,-113.4759758,0.005,,39.9526378,,-113.4759758,-0.004570896737277508,0.017868420109152794,-0.01369745098054409,-1,MISSION,,,,,,ACTIVE,1733398390.9057612,0.0,0.0,0.0,12,1,15,0,17760384,128,2
1733398398.2382069,0.0,True,0.0030106690246611834,0.0021922695450484753,0.16277873516082764,-1.0,96,16.093,0,0,False,,,,0,0,3,10,0.008677813224494457,9,28.498,,39.9526378,,-113.4759757,False,0.08161222199851181,28.503,,39.9526378,,-113.4759759,0.005,,39.9526378,,-113.4759759,-0.004519076552242041,0.017064988613128662,-0.012981470674276352,-1,MISSION,,,,,,ACTIVE,7.3324456214904785,0.0,0.0,0.0,12,1,15,0,17760384,128,2
1733398398.3431835,0.0,True,-0.0023930605966597795,-0.0004211431951262057,0.1626158505678177,-1.0,96,16.093,0,0,False,,,,0,0,3,10,0.005660517606884241,9,28.498,,39.9526378,,-113.4759757,False,0.18942235600115964,28.503,,39.9526378,,-113.4759759,0.005,,39.9526378,,-113.4759759,-0.004617810714989901,0.015952806919813156,-0.011806031689047813,-1,MISSION,,,,,,ACTIVE,1733398391.010738,0.0,0.0,0.0,12,1,15,0,17760384,128,2
1733398398.4411168,0.0,True,-0.007529175374656916,-0.0031720513943582773,0.1625141203403473,-1.0,96,16.087,0,0,False,,,,0,0,3,10,0.0025779076386243105,9,28.498,,39.9526378,,-113.4759757,False,0.28759063799952855,28.505,,39.9526379,,-113.4759759,0.006,,39.9526379,,-113.4759759,-0.005607580300420523,0.015258296392858028,-0.010734946466982365,-1,MISSION,,,,,,ACTIVE,7.4303789138793945,0.0,0.0,-0.03,12,1,15,0,17760384,128,2
1733398398.5394566,0.0,True,-0.008207028731703758,-0.0036468880716711283,0.1625390648841858,-1.0,96,16.087,0,0,False,,,,0,0,3,10,0.009415960870683193,9,28.498,,39.9526378,,-113.4759757,False,0.38376157700258773,28.509,,39.9526379,,-113.4759759,0.01,,39.9526379,,-113.4759759,-0.010496551170945168,0.014331020414829254,-0.008581445552408695,-1,MISSION,,,,,,ACTIVE,1733398391.1090777,0.01,0.0,-0.07,12,1,15,0,17760384,128,2
1733398398.640479,0.0,True,-0.005709709599614143,-0.0025760855060070753,0.1624748706817627,-1.0,96,16.081,0,0,False,,,,0,0,3,10,0.023305438458919525,9,28.498,,39.9526378,,-113.4759757,False,0.48689868800283875,28.518,,39.9526379,,-113.4759759,0.02,,39.9526379,,-113.4759759,-0.01906360313296318,0.013405853882431984,-0.005987610202282667,-1,MISSION,,,,,,ACTIVE,7.5314013957977295,0.02,0.0,-0.13,12,1,15,0,17760384,128,2
1733398398.7396648,0.0,True,-0.002968925517052412,-0.0009069342631846666,0.16287566721439362,-1.0,96,16.081,0,0,False,,,,0,0,3,10,0.033303745090961456,9,28.498,,39.9526378,,-113.4759757,False,0.5839322850006283,28.53,,39.9526379,,-113.4759759,0.032,,39.9526379,,-113.4759759,-0.0326162725687027,0.01220603659749031,-0.0027560677845031023,-1,MISSION,,,,,,ACTIVE,1733398391.2082634,0.03,-0.01,-0.2,12,1,15,0,17760384,128,2
1733398398.840418,0.0,True,0.0002448944724164903,0.0011215661652386189,0.16295036673545837,-1.0,95,16.075,0,0,False,,,,0,0,3,10,0.040136948227882385,9,28.498,,39.9526378,,-113.4759757,False,0.6864900799992029,28.555,,39.952638,,-113.4759759,0.057,,39.952638,,-113.4759759,-0.05193464085459709,0.011128773912787437,0.0004889219999313354,-1,MISSION,,,,,,ACTIVE,7.632154703140259,0.03,-0.01,-0.31,12,1,15,0,17760384,128,2
1733398398.9434683,0.0,True,0.0021316963247954845,0.0025944598019123077,0.1628689467906952,-1.0,95,16.075,0,0,False,,,,0,0,3,10,0.04124360531568527,9,28.498,,39.9526378,,-113.4759757,False,0.7884604749997379,28.582,,39.952638,,-113.4759759,0.084,,39.952638,,-113.4759759,-0.0867805927991867,0.009876856580376625,0.004389689303934574,-1,MISSION,,,,,,ACTIVE,1733398391.3113136,0.03,-0.01,-0.39,12,1,15,0,17760384,128,2
1733398399.04226,0.0,True,0.0038994017522782087,0.0032093427143990993,0.16265258193016052,-1.0,95,16.069,0,0,False,,,,0,0,3,10,0.042169902473688126,9,28.498,,39.9526378,,-113.4759757,False,0.888074679998681,28.622,,39.952638,,-113.4759759,0.124,,39.952638,,-113.4759759,-0.12746784090995789,0.009092513471841812,0.0076659321784973145,-1,MISSION,,,,,,ACTIVE,7.73094630241394,0.04,-0.01,-0.48,12,1,15,0,17760384,128,2
1733398399.144743,0.0,True,0.0054573980160057545,0.003249538829550147,0.16259782016277313,-1.0,95,16.069,0,0,False,,,,0,0,3,10,0.042169902473688126,9,28.498,,39.9526378,,-113.4759757,False,0.9879462800017791,28.661,,39.952638,,-113.4759759,0.163,,39.952638,,-113.4759759,-0.1669541746377945,0.008565620519220829,0.010285363532602787,-1,MISSION,,,,,,ACTIVE,1733398391.4137967,0.03,0.0,-0.55,12,1,15,0,17760384,128,2
1733398399.2422118,0.0,True,0.006295826286077499,0.003586646169424057,0.16239376366138458,-1.0,95,16.066,0,0,False,,,,0,0,3,10,0.04026317968964577,9,28.498,,39.9526378,,-113.4759757,False,0.08497278000140795,28.72,,39.9526381,,-113.475976,0.221,,39.9526381,,-113.475976,-0.2161986380815506,0.00805943738669157,0.01300754863768816,-1,MISSION,,,,,,ACTIVE,7.828415155410767,0.03,0.0,-0.64,12,1,15,0,17760384,128,2
1733398399.3442335,0.0,True,0.006587756797671318,0.003296295879408717,0.16228190064430237,-1.0,95,16.063,0,0,False,,,,0,0,3,10,0.03508390486240387,9,28.498,,39.9526378,,-113.4759757,False,0.07802925299620256,28.77,,39.9526381,,-113.475976,0.272,,39.9526381,,-113.475976,-0.2765082120895386,0.007634065113961697,0.01569155976176262,-1,MISSION,,,,,,ACTIVE,1733398391.5158184,0.03,0.0,-0.7,12,1,15,0,17760384,128,2
1733398399.4442248,0.0,True,0.0071296049281954765,0.0031868359073996544,0.16186688840389252,-1.0,95,16.063,0,0,False,,,,0,0,3,10,0.025870710611343384,9,28.498,,39.9526378,,-113.4759757,False,0.17646646799403243,28.836,,39.9526381,,-113.475976,0.338,,39.9526381,,-113.475976,-0.33196476101875305,0.0071812644600868225,0.017718585208058357,-1,MISSION,,,,,,ACTIVE,7.928406476974487,0.02,0.0,-0.77,12,1,15,0,17760384,128,2
1733398399.5471623,0.0,True,0.007021447643637657,0.0036883761640638113,0.16141490638256073,-1.0,94,16.057,0,0,False,,,,0,0,3,10,0.023978596553206444,9,28.498,,39.9526378,,-113.4759757,False,0.2830975979959476,28.916,,39.9526381,,-113.475976,0.418,,39.9526381,,-113.475976,-0.40473097562789917,0.006447385996580124,0.02006680518388748,-1,MISSION,,,,,,ACTIVE,1733398391.6187558,0.02,0.0,-0.84,12,1,15,0,17760384,128,2
1733398399.6461604,0.0,True,0.007105889730155468,0.003941506613045931,0.1612539291381836,-1.0,94,16.057,0,0,False,,,,0,0,3,10,0.019385235384106636,9,28.498,,39.9526378,,-113.4759757,False,0.38126033199660014,28.983,,39.9526382,,-113.475976,0.484,,39.9526382,,-113.475976,-0.49085524678230286,0.005782268010079861,0.022429341450333595,-1,MISSION,,,,,,ACTIVE,8.027404546737671,0.01,0.0,-0.9,12,1,15,0,17760384,128,2
1733398399.748694,0.0,True,0.007290665525943041,0.004370570182800293,0.16099706292152405,-1.0,94,16.051,0,0,False,,,,0,0,3,10,0.014877023175358772,9,28.498,,39.9526378,,-113.4759757,False,0.48262264100048924,29.068,,39.9526382,,-113.475976,0.57,,39.9526382,,-113.475976,-0.5697752833366394,0.005309322848916054,0.024175390601158142,-1,MISSION,,,,,,ACTIVE,1733398391.7212894,0.01,0.0,-0.97,12,1,15,0,17760384,128,2
1733398399.8469386,0.0,True,0.007408493664115667,0.004292009864002466,0.16068719327449799,-1.0,94,16.051,0,0,False,,,,0,0,3,10,0.010359608568251133,9,28.498,,39.9526378,,-113.4759757,False,0.5803997549955966,29.145,,39.9526382,,-113.475976,0.646,,39.9526382,,-113.475976,-0.6539346575737,0.0046678027138113976,0.025553226470947266,-1,MISSION,,,,,,ACTIVE,8.125649213790894,0.0,0.0,-1.02,12,1,15,0,17760384,128,2
1733398399.946983,0.0,True,0.007434058003127575,0.004423311445862055,0.1604771465063095,-1.0,94,16.045,0,0,False,,,,0,0,3,10,0.005211709998548031,9,28.498,,39.9526378,,-113.4759757,False,0.6826420579964179,29.25,,39.9526382,,-113.475976,0.752,,39.9526382,,-113.475976,-0.7350331544876099,0.003845177823677659,0.0265814196318388,-1,MISSION,,,,,,ACTIVE,1733398391.821334,0.0,0.0,-1.09,12,1,15,0,17760384,128,2
1733398400.0496645,0.0,True,0.007156668230891228,0.00461324118077755,0.16020308434963226,-1.0,94,16.045,0,0,False,,,,0,0,3,10,0.003232166636735201,9,28.498,,39.9526378,,-113.4759757,False,0.7845362719963305,29.337,,39.9526382,,-113.475976,0.839,,39.9526382,,-113.475976,-0.8469487428665161,0.0029497083742171526,0.027424341067671776,-1,MISSION,,,,,,ACTIVE,8.228330612182617,0.0,0.0,-1.14,12,1,15,0,17760384,128,2
1733398400.147496,0.0,True,0.007269186899065971,0.0042759813368320465,0.16015447676181793,-1.0,94,16.045,0,0,False,,,,0,0,3,10,0.003232166636735201,9,28.498,,39.9526378,,-113.4759757,False,0.8831905419938266,29.446,,39.9526382,,-113.475976,0.948,,39.9526382,,-113.475976,-0.938073992729187,0.002573088277131319,0.027720466256141663,-1,MISSION,,,,,,ACTIVE,1733398391.9191654,0.0,0.0,-1.21,12,1,15,0,17760384,128,2
1733398400.2491384,0.0,True,0.007094013504683971,0.0038623700384050608,0.16009096801280975,-1.0,93,16.039,0,0,False,,,,0,0,3,10,0.0072286236099898815,9,28.498,,39.9526378,,-113.4759757,False,0.9847175569957471,29.542,,39.9526382,,-113.475976,1.044,,39.9526382,,-113.475976,-1.0529732704162598,0.002329654525965452,0.027739081531763077,-1,MISSION,,,,,,ACTIVE,8.329972982406616,0.0,0.0,-1.26,12,1,15,0,17760384,128,2
1733398400.3495004,0.0,True,0.006943828426301479,0.0036308919079601765,0.15993419289588928,-1.0,93,16.036,0,0,False,,,,0,0,3,10,0.011070632375776768,9,28.498,,39.9526378,,-113.4759757,False,0.0803009800001746,29.672,,39.9526382,,-113.475976,1.174,,39.9526382,,-113.475976,-1.1629825830459595,0.002352349692955613,0.027658237144351006,-1,MISSION,,,,,,ACTIVE,1733398392.0195274,0.0,0.01,-1.3,12,1,15,0,17760384,128,2
1733398400.4493582,0.0,True,0.006945030763745308,0.003289433429017663,0.16005204617977142,-1.0,93,16.033,0,0,False,,,,0,0,3,10,0.014593811705708504,9,28.498,,39.9526378,,-113.4759757,False,0.07154870300291805,29.774,,39.9526382,,-113.475976,1.276,,39.9526382,,-113.475976,-1.2853642702102661,0.002327226335182786,0.02738001197576523,-1,MISSION,,,,,,ACTIVE,8.42983078956604,-0.01,0.01,-1.31,12,1,15,0,17760384,128,2
1733398400.5496342,0.0,True,0.006566324271261692,0.003355558030307293,0.15979903936386108,-1.0,93,16.033,0,0,False,,,,0,0,3,10,0.017007146030664444,9,28.498,,39.9526378,,-113.4759757,False,0.1691436100009014,29.876,,39.9526382,,-113.475976,1.378,,39.9526382,,-113.475976,-1.3880659341812134,0.0022940109483897686,0.027040768414735794,-1,MISSION,,,,,,ACTIVE,1733398392.1198034,-0.01,0.01,-1.32,12,1,15,0,17760384,128,2
1733398400.6520784,0.0,True,0.006186116952449083,0.0030622880440205336,0.15958869457244873,-1.0,93,16.027,0,0,False,,,,0,0,3,10,0.019808229058980942,9,28.498,,39.9526378,,-113.4759757,False,0.27565171899914276,30.001,,39.9526382,,-113.475976,1.503,,39.9526382,,-113.475976,-1.512519359588623,0.0025299673434346914,0.0265693087130785,-1,MISSION,,,,,,ACTIVE,8.532274961471558,-0.01,0.01,-1.33,12,1,15,0,17760384,128,2
1733398400.7496543,0.0,True,0.005877697374671698,0.0032608613837510347,0.15952129662036896,-1.0,93,16.027,0,0,False,,,,0,0,3,10,0.022373881191015244,9,28.498,,39.9526378,,-113.4759757,False,0.37539581899909535,30.137,,39.9526382,,-113.475976,1.639,,39.9526382,,-113.475976,-1.6280406713485718,0.0028413371182978153,0.02625959739089012,-1,MISSION,,,,,,ACTIVE,1733398392.2173793,-0.01,0.01,-1.34,12,1,15,0,17760384,128,2
1733398400.8497581,0.0,True,0.005862203426659107,0.0030279781203716993,0.14978322386741638,-1.0,92,16.021,0,0,False,,,,0,0,3,10,0.02384638413786888,9,28.498,,39.9526378,,-113.4759757,False,0.47552505600469885,30.243,,39.9526382,,-113.475976,1.745,,39.9526382,,-113.475976,-1.755428433418274,0.0034020442981272936,0.026221612468361855,-1,MISSION,,,,,,ACTIVE,8.632378816604614,-0.02,0.01,-1.35,12,1,15,0,17760384,128,2
1733398400.951793,0.0,True,0.005508145783096552,0.0029776543378829956,0.15064559876918793,-1.0,92,16.021,0,0,False,,,,0,0,3,10,0.026290202513337135,8,28.498,,39.9526378,,-113.4759757,False,0.5783831779990578,30.372,,39.9526382,,-113.475976,1.874,,39.9526382,,-113.475976,-1.862703561782837,0.0042500486597418785,0.026132583618164062,-1,MISSION,,,,,,ACTIVE,1733398392.3194141,-0.02,0.01,-1.36,12,1,15,0,17760384,128,2
1733398401.0518973,0.0,True,0.00533449649810791,0.0026431307196617126,0.15257413685321808,-1.0,92,16.015,0,0,False,,,,0,0,3,10,0.02838854119181633,8,28.498,,39.9526378,,-113.4759757,False,0.6771054499986349,30.48,,39.9526382,,-113.475976,1.982,,39.9526382,,-113.475976,-1.9925192594528198,0.005647216457873583,0.026045337319374084,-1,MISSION,,,,,,ACTIVE,8.732483148574829,-0.02,0.01,-1.36,12,1,15,0,17760384,128,2
1733398401.1534054,0.0,True,0.005308386404067278,0.002415446098893881,0.1543850153684616,-1.0,92,16.015,0,0,False,,,,0,0,3,10,0.029474306851625443,8,28.498,,39.9526378,,-113.4759757,False,0.7799772360012867,30.622,,39.9526382,,-113.475976,2.124,,39.9526382,,-113.475976,-2.123464584350586,0.0074244034476578236,0.02600501850247383,-1,MISSION,,,,,,ACTIVE,1733398392.4209223,-0.02,0.01,-1.37,12,1,15,0,17760384,128,2
1733398401.254019,0.0,True,0.0053350962698459625,0.0019339506980031729,0.15513309836387634,-1.0,92,16.015,0,0,False,,,,0,0,3,10,0.029474306851625443,8,28.498,,39.9526378,,-113.4759757,False,0.8807033560005948,30.732,,39.9526382,,-113.4759759,2.234,,39.9526382,,-113.4759759,-2.2442076206207275,0.00928422249853611,0.02579963579773903,-1,MISSION,,,,,,ACTIVE,8.833096742630005,-0.02,0.01,-1.38,12,1,15,0,17760384,128,2
1733398401.3540766,0.0,True,0.005503567401319742,0.00141791976056993,0.1552245318889618,-1.0,92,16.009,0,0,False,,,,0,0,3,10,0.030281027778983116,8,28.498,,39.9526378,,-113.4759757,False,0.9779576020009699,30.864,,39.9526382,,-113.4759759,2.366,,39.9526382,,-113.4759759,-2.3544633388519287,0.011056248098611832,0.02552768774330616,-1,MISSION,,,,,,ACTIVE,1733398392.52098,-0.02,0.01,-1.38,12,1,15,0,17760384,128,2
1733398401.4538805,0.0,True,0.00558461481705308,0.0010707736946642399,0.15495291352272034,-1.0,91,16.006,0,0,False,,,,0,0,3,10,0.030752617865800858,8,28.498,,39.9526378,,-113.4759757,False,0.07617052600107854,30.975,,39.9526382,,-113.4759759,2.477,,39.9526382,,-113.4759759,-2.4984829425811768,0.01334289088845253,0.024882245808839798,-1,MISSION,,,,,,ACTIVE,8.932900667190552,-0.02,0.01,-1.39,12,1,15,0,17760384,128,2
1733398401.5555093,0.0,True,0.0055350628681480885,0.0009512790711596608,0.1546695977449417,-1.0,91,16.003,0,0,False,,,,0,0,3,10,0.030670281499624252,8,28.498,,39.9526378,,-113.4759757,False,0.07117547700181603,31.12,,39.9526382,,-113.4759759,2.621,,39.9526382,,-113.4759759,-2.6322124004364014,0.015229813754558563,0.023943239822983742,-1,MISSION,,,,,,ACTIVE,1733398392.6226087,-0.02,0.01,-1.4,12,1,15,0,17760384,128,2
1733398401.6557615,0.0,True,0.0050445138476789,0.00045710476115345955,0.15399640798568726,-1.0,91,16.003,0,0,False,,,,0,0,3,10,0.0325673371553421,8,28.498,,39.9526378,,-113.4759757,False,0.16870977899816353,31.232,,39.9526382,,-113.4759759,2.733,,39.9526382,,-113.4759759,-2.744178533554077,0.016716087237000465,0.022847656160593033,-1,MISSION,,,,,,ACTIVE,9.03315281867981,-0.02,0.01,-1.4,12,1,15,0,17760384,128,2
1733398401.7559059,0.0,True,0.00470199016854167,0.0005326273385435343,0.15331296622753143,-1.0,91,15.997,0,0,False,,,,0,0,3,10,0.03393390029668808,8,28.498,,39.9526378,,-113.4759757,False,0.27121318999707,31.367,,39.9526381,,-113.4759758,2.868,,39.9526381,,-113.4759758,-2.879267930984497,0.01850062794983387,0.021198201924562454,-1,MISSION,,,,,,ACTIVE,1733398392.722753,-0.03,0.01,-1.41,12,1,15,0,17760384,128,2
1733398401.8566961,0.0,True,0.004240813665091991,0.00034213735489174724,0.15275399386882782,-1.0,91,15.997,0,0,False,,,,0,0,3,10,0.03467218950390816,8,28.498,,39.9526378,,-113.4759757,False,0.3691999719958403,31.48,,39.9526381,,-113.4759758,2.981,,39.9526381,,-113.4759758,-3.003710985183716,0.02004353702068329,0.019461078569293022,-1,MISSION,,,,,,ACTIVE,9.1339430809021,-0.03,0.01,-1.41,12,1,15,0,17760384,128,2
1733398401.956474,0.0,True,0.0039003684651106596,-4.601612818078138e-05,0.15224561095237732,-1.0,91,15.991,0,0,False,,,,0,0,3,10,0.03475501388311386,8,28.498,,39.9526378,,-113.4759757,False,0.47216622699488653,31.627,,39.9526381,,-113.4759758,3.129,,39.9526381,,-113.4759758,-3.140277147293091,0.02171899937093258,0.017427431419491768,-1,MISSION,,,,,,ACTIVE,1733398392.822531,-0.03,0.01,-1.42,12,1,15,0,17760384,128,2
1733398402.0565722,0.0,True,0.0038400404155254364,-0.0002636058197822422,0.15199320018291473,-1.0,91,15.991,0,0,False,,,,0,0,3,10,0.03304962068796158,8,28.498,,39.9526378,,-113.4759757,False,0.5688687669971841,31.742,,39.9526381,,-113.4759758,3.244,,39.9526381,,-113.4759758,-3.2547919750213623,0.022845983505249023,0.015585917979478836,-1,MISSION,,,,,,ACTIVE,9.234041213989258,-0.03,0.01,-1.42,12,1,15,0,17760384,128,2
1733398402.159653,0.0,True,0.003460504813119769,-0.00015102318138815463,0.15167827904224396,-1.0,90,15.985,0,0,False,,,,0,0,3,10,0.03129076212644577,8,28.498,,39.9526378,,-113.4759757,False,0.6756020149987307,31.88,,39.9526381,,-113.4759758,3.382,,39.9526381,,-113.4759758,-3.3928322792053223,0.023839253932237625,0.013255548663437366,-1,MISSION,,,,,,ACTIVE,1733398392.9256117,-0.02,0.0,-1.43,12,1,15,0,17760384,128,2
1733398402.256933,0.0,True,0.003364134579896927,0.00012309852172620595,0.15114828944206238,-1.0,90,15.985,0,0,False,,,,0,0,3,10,0.03080233745276928,8,28.498,,39.9526378,,-113.4759757,False,0.7693310510003357,31.995,,39.9526381,,-113.4759758,3.497,,39.9526381,,-113.4759758,-3.508288621902466,0.024471502751111984,0.011118669994175434,-1,MISSION,,,,,,ACTIVE,9.331321239471436,-0.03,0.0,-1.43,12,1,15,0,17760384,128,2
1733398402.3569942,0.0,True,0.0030271937139332294,0.00042148056672886014,0.15095409750938416,-1.0,90,15.985,0,0,False,,,,0,0,3,10,0.031167922541499138,8,28.498,,39.9526378,,-113.4759757,False,0.8721268109948142,32.146,,39.952638,,-113.4759758,3.648,,39.952638,,-113.4759758,-3.635620355606079,0.025244200602173805,0.00876958854496479,-1,MISSION,,,,,,ACTIVE,1733398393.025673,-0.02,0.0,-1.44,12,1,15,0,17760384,128,2
1733398402.4577243,0.0,True,0.0027703859377652407,0.00033699869527481496,0.15071703493595123,-1.0,90,15.979,0,0,False,,,,0,0,3,10,0.02909456565976143,8,28.498,,39.9526378,,-113.4759757,False,0.9731734509987291,32.262,,39.952638,,-113.4759757,3.764,,39.952638,,-113.4759757,-3.7749686241149902,0.026202086359262466,0.006364206317812204,-1,MISSION,,,,,,ACTIVE,9.432051420211792,-0.02,0.0,-1.44,12,1,15,0,17760384,128,2
1733398402.5571444,0.0,True,0.0024561076425015926,0.0005199767183512449,0.15124596655368805,-1.0,90,15.976,0,0,False,,,,0,0,3,10,0.02851642295718193,8,28.498,,39.9526378,,-113.4759757,False,0.06314253799791913,32.402,,39.952638,,-113.4759757,3.904,,39.952638,,-113.4759757,-3.891523599624634,0.026967911049723625,0.004446647595614195,-1,MISSION,,,,,,ACTIVE,1733398393.125093,-0.02,0.0,-1.45,12,1,15,0,17760384,128,2
1733398402.6579063,0.0,True,0.002243687165901065,0.0002030533505603671,0.1514279693365097,-1.0,90,15.973,0,0,False,,,,0,0,3,10,0.0279387179762125,8,28.498,,39.9526378,,-113.4759757,False,0.05726050100201974,32.519,,39.952638,,-113.4759757,4.021,,39.952638,,-113.4759757,-4.031883716583252,0.028092671185731888,0.002253372222185135,-1,MISSION,,,,,,ACTIVE,9.532813310623169,-0.02,0.0,-1.45,12,1,15,0,17760384,128,2
1733398402.760448,0.0,True,0.0017849727300927043,-0.00018326210556551814,0.1519434005022049,-1.0,90,15.973,0,0,False,,,,0,0,3,10,0.026577100157737732,8,28.498,,39.9526378,,-113.4759757,False,0.15978183900006115,32.671,,39.952638,,-113.4759757,4.173,,39.952638,,-113.4759757,-4.1844940185546875,0.029314996674656868,2.4217588361352682e-05,-1,MISSION,,,,,,ACTIVE,1733398393.2276347,-0.02,0.0,-1.45,12,1,15,0,17760384,128,2
1733398402.860564,0.0,True,0.0017830217257142067,-0.0002637728175614029,0.15213622152805328,-1.0,89,15.967,0,0,False,,,,0,0,3,10,0.025099214166402817,8,28.498,,39.9526378,,-113.4759757,False,0.25755670700164046,32.789,,39.9526379,,-113.4759757,4.291,,39.9526379,,-113.4759757,-4.314112186431885,0.030319731682538986,-0.0018014496890828013,-1,MISSION,,,,,,ACTIVE,9.63292932510376,-0.02,0.0,-1.45,12,1,15,0,17760384,128,2
1733398402.9640045,0.0,True,0.0016646254807710648,-0.0005447887815535069,0.1523403823375702,-1.0,89,15.967,0,0,False,,,,0,0,3,10,0.022889895364642143,8,28.498,,39.9526378,,-113.4759757,False,0.3640031329996418,32.931,,39.9526379,,-113.4759757,4.433,,39.9526379,,-113.4759757,-4.443892478942871,0.03136784955859184,-0.0036355885677039623,-1,MISSION,,,,,,ACTIVE,1733398393.3310752,-0.02,0.0,-1.46,12,1,15,0,17760384,128,2
1733398403.060563,0.0,True,0.0016647059237584472,-0.0006087532383389771,0.15234509110450745,-1.0,89,15.961,0,0,False,,,,0,0,3,10,0.02179909311234951,8,28.498,,39.9526378,,-113.4759757,False,0.4572166440048022,33.049,,39.9526379,,-113.4759757,4.551,,39.9526379,,-113.4759757,-4.561999797821045,0.03218994662165642,-0.00520909670740366,-1,MISSION,,,,,,ACTIVE,9.729487895965576,-0.02,0.0,-1.46,12,1,15,0,17760384,128,2
1733398403.1609025,0.0,True,0.0014293364947661757,-0.00014595958054997027,0.15276703238487244,-1.0,89,15.961,0,0,False,,,,0,0,3,10,0.02140854112803936,8,28.498,,39.9526378,,-113.4759757,False,0.5596383640004206,33.203,,39.9526379,,-113.4759757,4.704,,39.9526379,,-113.4759757,-4.71572732925415,0.03269553184509277,-0.00714409165084362,-1,MISSION,,,,,,ACTIVE,1733398393.4314146,-0.02,0.0,-1.46,12,1,15,0,17760384,128,2
1733398403.2610366,0.0,True,0.0013078355696052313,0.0002494084765203297,0.15280292928218842,-1.0,89,15.961,0,0,False,,,,0,0,3,10,0.02140854112803936,8,28.498,,39.9526378,,-113.4759757,False,0.6572760640046909,33.321,,39.9526379,,-113.4759757,4.823,,39.9526379,,-113.4759757,-4.834195613861084,0.03289525955915451,-0.008371109142899513,-1,MISSION,,,,,,ACTIVE,9.829622030258179,-0.01,0.0,-1.47,12,1,15,0,17760384,128,2
1733398403.3641086,0.0,True,0.0011815109755843878,0.00029755072318948805,0.15241865813732147,-1.0,89,15.955,0,0,False,,,,0,0,3,10,0.018004894256591797,8,28.498,,39.9526378,,-113.4759757,False,0.7600652629989781,33.463,,39.9526379,,-113.4759757,4.965,,39.9526379,,-113.4759757,-4.976715087890625,0.0332576185464859,-0.009679600596427917,-1,MISSION,,,,,,ACTIVE,1733398393.5344865,-0.01,0.0,-1.47,12,1,15,0,17760384,128,2
1733398403.4642048,0.0,True,0.0014530132757499814,0.00020394500461407006,0.15253691375255585,-1.0,89,15.955,0,0,False,,,,0,0,3,10,0.01665191724896431,8,28.498,,39.9526378,,-113.4759757,False,0.8621155290020397,33.618,,39.9526379,,-113.4759757,5.12,,39.9526379,,-113.4759757,-5.107799053192139,0.03361332789063454,-0.010775474831461906,-1,MISSION,,,,,,ACTIVE,9.929718255996704,-0.01,0.0,-1.47,12,1,15,0,17760384,128,2
1733398403.565352,0.0,True,0.0014814060414209962,0.0003293764020781964,0.1521054208278656,-1.0,88,15.949,0,0,False,,,,0,0,3,10,0.01622011885046959,8,28.498,,39.9526378,,-113.4759757,False,0.9648900180036435,33.738,,39.9526378,,-113.4759757,5.24,,39.9526378,,-113.4759757,-5.25129508972168,0.03414108231663704,-0.011924627237021923,-1,MISSION,,,,,,ACTIVE,1733398393.6356337,-0.01,0.0,-1.48,12,1,15,0,17760384,128,2
1733398403.6657078,0.0,True,0.0011708593228831887,0.00037532069836743176,0.1518505960702896,-1.0,88,15.946,0,0,False,,,,0,0,3,10,0.01615358144044876,8,28.498,,39.9526378,,-113.4759757,False,0.05442777799908072,33.882,,39.9526378,,-113.4759756,5.384,,39.9526378,,-113.4759756,-5.3711934089660645,0.034597884863615036,-0.012889591045677662,-1,MISSION,,,,,,ACTIVE,10.030074119567871,-0.01,0.0,-1.48,12,1,15,0,17760384,128,2
1733398403.7657115,0.0,True,0.0011752196587622166,0.000564530142582953,0.15190517902374268,-1.0,88,15.943,0,0,False,,,,0,0,3,10,0.015414437279105186,8,28.498,,39.9526378,,-113.4759757,False,0.053833758996916004,34.002,,39.9526378,,-113.4759756,5.504,,39.9526378,,-113.4759756,-5.515300273895264,0.0350431427359581,-0.014215431176126003,-1,MISSION,,,,,,ACTIVE,1733398393.7356374,-0.01,0.0,-1.48,12,1,15,0,17760384,128,2
1733398403.8671348,0.0,True,0.0015213991282507777,0.0003436045371927321,0.15192434191703796,-1.0,88,15.943,0,0,False,,,,0,0,3,10,0.012339451350271702,8,28.498,,39.9526378,,-113.4759757,False,0.1566699620016152,34.158,,39.9526378,,-113.4759756,5.66,,39.9526378,,-113.4759756,-5.647510528564453,0.035450175404548645,-0.015432597137987614,-1,MISSION,,,,,,ACTIVE,10.131497383117676,0.0,0.0,-1.48,12,1,15,0,17760384,128,2
1733398403.965923,0.0,True,0.001477123354561627,-4.621255357051268e-05,0.15180830657482147,-1.0,88,15.937,0,0,False,,,,0,0,3,10,0.013276122510433197,8,28.498,,39.9526378,,-113.4759757,False,0.25376283699733904,34.278,,39.9526378,,-113.4759756,5.78,,39.9526378,,-113.4759756,-5.791718006134033,0.035826899111270905,-0.01707862690091133,-1,MISSION,,,,,,ACTIVE,1733398393.8344257,-0.01,0.0,-1.48,12,1,15,0,17760384,128,2
1733398404.0670362,0.0,True,0.0010685829911381006,0.000112566449388396,0.15162573754787445,-1.0,88,15.937,0,0,False,,,,0,0,3,10,0.012084998190402985,8,28.498,,39.9526378,,-113.4759757,False,0.35608460399816977,34.423,,39.9526378,,-113.4759756,5.924,,39.9526378,,-113.4759756,-5.9119439125061035,0.03610805422067642,-0.01843767985701561,-1,MISSION,,,,,,ACTIVE,10.23261046409607,0.0,0.0,-1.48,12,1,15,0,17760384,128,2
1733398404.1688066,0.0,True,0.0008898293017409742,5.710916229872964e-05,0.15192173421382904,-1.0,87,15.931,0,0,False,,,,0,0,3,10,0.012735770083963871,8,28.498,,39.9526378,,-113.4759757,False,0.45834086099785054,34.543,,39.9526378,,-113.4759756,6.045,,39.9526378,,-113.4759756,-6.056228160858154,0.03650692477822304,-0.01968402788043022,-1,MISSION,,,,,,ACTIVE,1733398393.936196,0.0,0.0,-1.48,12,1,15,0,17760384,128,2
1733398404.2691324,0.0,True,0.000784869771450758,9.42982587730512e-05,0.15242408215999603,-1.0,87,15.931,0,0,False,,,,0,0,3,10,0.012605157680809498,8,28.498,,39.9526378,,-113.4759757,False,0.5583885320011177,34.699,,39.9526378,,-113.4759756,6.201,,39.9526378,,-113.4759756,-6.200387477874756,0.036787133663892746,-0.020594315603375435,-1,MISSION,,,,,,ACTIVE,10.33293628692627,0.0,-0.01,-1.48,12,1,15,0,17760384,128,2
1733398404.3696232,0.0,True,0.0007749446667730808,0.00021241795911919326,0.15289410948753357,-1.0,87,15.931,0,0,False,,,,0,0,3,10,0.012605157680809498,8,28.498,,39.9526378,,-113.4759757,False,0.6579970539969509,34.819,,39.9526378,,-113.4759756,6.321,,39.9526378,,-113.4759756,-6.332626819610596,0.0370757132768631,-0.020975612103939056,-1,MISSION,,,,,,ACTIVE,1733398394.036687,0.0,-0.01,-1.49,12,1,15,0,17760384,128,2
1733398404.4716694,0.0,True,0.0010406456422060728,3.7959067412884906e-05,0.1532963514328003,-1.0,87,15.925,0,0,False,,,,0,0,3,10,0.011549207381904125,8,28.498,,39.9526378,,-113.4759757,False,0.7606569169947761,34.964,,39.9526378,,-113.4759756,6.466,,39.9526378,,-113.4759756,-6.477148056030273,0.03749530017375946,-0.020994441583752632,-1,MISSION,,,,,,ACTIVE,10.434982538223267,0.0,-0.01,-1.49,12,1,15,0,17760384,128,2
1733398404.5718176,0.0,True,0.0011204468319192529,0.00013228566967882216,0.1531592756509781,-1.0,87,15.925,0,0,False,,,,0,0,3,10,0.011499051935970783,8,28.498,,39.9526378,,-113.4759757,False,0.8582444439962273,35.084,,39.9526378,,-113.4759756,6.586,,39.9526378,,-113.4759756,-6.609601974487305,0.03771849349141121,-0.02105787955224514,-1,MISSION,,,,,,ACTIVE,1733398394.136835,0.0,-0.01,-1.49,12,1,15,0,17760384,128,2
1733398404.6720483,0.0,True,0.0013143961550667882,0.0004906539106741548,0.15326863527297974,-1.0,87,15.919,0,0,False,,,,0,0,3,10,0.011820657178759575,8,28.498,,39.9526378,,-113.4759757,False,0.9611325949954335,35.241,,39.9526378,,-113.4759756,6.742,,39.9526378,,-113.4759756,-6.717862129211426,0.03780714049935341,-0.021086234599351883,-1,MISSION,,,,,,ACTIVE,10.535213232040405,0.0,-0.01,-1.49,12,1,15,0,17760384,128,2
1733398404.7722394,0.0,True,0.0013120289659127593,0.0004423983918968588,0.1532997488975525,-1.0,86,15.916,0,0,False,,,,0,0,3,10,0.012417891062796116,8,28.498,,39.9526378,,-113.4759757,False,0.04864874099439476,35.361,,39.9526378,,-113.4759756,6.863,,39.9526378,,-113.4759756,-6.874270915985107,0.037672579288482666,-0.021090233698487282,-1,MISSION,,,,,,ACTIVE,1733398394.2370262,0.0,-0.01,-1.49,12,1,15,0,17760384,128,2
1733398404.8746698,0.0,True,0.0015268474817276,0.0003874959656968713,0.15342029929161072,-1.0,86,15.913,0,0,False,,,,0,0,3,10,0.012243697419762611,8,28.498,,39.9526378,,-113.4759757,False,0.04531113099801587,35.505,,39.9526378,,-113.4759756,7.007,,39.9526378,,-113.4759756,-7.006638526916504,0.03749140724539757,-0.021206503733992577,-1,MISSION,,,,,,ACTIVE,10.637643575668335,0.0,-0.01,-1.49,12,1,15,0,17760384,128,2
1733398404.980812,0.0,True,0.0013852205593138933,0.0006659546052105725,0.15321943163871765,-1.0,86,15.913,0,0,False,,,,0,0,3,10,0.013757457956671715,8,28.498,,39.9526378,,-113.4759757,False,0.1516292300002533,35.662,,39.9526378,,-113.4759756,7.164,,39.9526378,,-113.4759756,-7.151459217071533,0.03724988177418709,-0.021427096799016,-1,MISSION,,,,,,ACTIVE,1733398394.3431685,0.0,-0.01,-1.49,12,1,15,0,17760384,128,2
1733398405.0744734,0.0,True,0.0015464533353224397,0.0006663324311375618,0.15332753956317902,-1.0,86,15.907,0,0,False,,,,0,0,3,10,0.014091347344219685,8,28.498,,39.9526378,,-113.4759757,False,0.24671542499709176,35.783,,39.9526378,,-113.4759756,7.285,,39.9526378,,-113.4759756,-7.260271072387695,0.03702516108751297,-0.02146993577480316,-1,MISSION,,,,,,ACTIVE,10.73130488395691,0.0,-0.01,-1.49,12,1,15,0,17760384,128,2
1733398405.1754136,0.0,True,0.0018767255824059248,0.0009895184775814414,0.1529582142829895,-1.0,86,15.907,0,0,False,,,,0,0,3,10,0.015614203177392483,8,28.498,,39.9526378,,-113.4759757,False,0.34768055199674563,35.904,,39.9526378,,-113.4759756,7.406,,39.9526378,,-113.4759756,-7.417654991149902,0.036501090973615646,-0.021335266530513763,-1,MISSION,,,,,,ACTIVE,1733398394.4441087,0.0,-0.01,-1.5,12,1,15,0,17760384,128,2
1733398405.2760725,0.0,True,0.001965520903468132,0.0015130980173125863,0.1527133733034134,-1.0,86,15.901,0,0,False,,,,0,0,3,10,0.016893327236175537,8,28.498,,39.9526378,,-113.4759757,False,0.44930366100015817,36.05,,39.9526378,,-113.4759756,7.551,,39.9526378,,-113.4759756,-7.563068389892578,0.035601355135440826,-0.021044522523880005,-1,MISSION,,,,,,ACTIVE,10.831963777542114,0.0,-0.01,-1.5,12,1,15,0,17760384,128,2
1733398405.3784244,0.0,True,0.002036069054156542,0.0017129054758697748,0.15248937904834747,-1.0,86,15.901,0,0,False,,,,0,0,3,10,0.016893327236175537,8,28.498,,39.9526378,,-113.4759757,False,0.5517977170020458,36.207,,39.9526378,,-113.4759756,7.709,,39.9526378,,-113.4759756,-7.684291362762451,0.034804075956344604,-0.0206313319504261,-1,MISSION,,,,,,ACTIVE,1733398394.5464606,0.0,-0.01,-1.5,12,1,15,0,17760384,128,2
1733398405.4791532,0.0,True,0.0021457551047205925,0.001771627808921039,0.1523057222366333,-1.0,86,15.901,0,0,False,,,,0,0,3,10,0.01693597249686718,8,28.498,,39.9526378,,-113.4759757,False,0.6494024179992266,36.329,,39.9526378,,-113.4759757,7.83,,39.9526378,,-113.4759757,-7.842082500457764,0.0337631031870842,-0.01989654265344143,-1,MISSION,,,,,,ACTIVE,10.932692527770996,0.0,-0.01,-1.5,12,1,15,0,17760384,128,2
1733398405.5820544,0.0,True,0.002280291635543108,0.0016644200077280402,0.15211452543735504,-1.0,85,15.895,0,0,False,,,,0,0,3,10,0.016075942665338516,8,28.498,,39.9526378,,-113.4759757,False,0.7521396430020104,36.474,,39.9526378,,-113.4759757,7.976,,39.9526378,,-113.4759757,-7.963573455810547,0.032857779413461685,-0.019133642315864563,-1,MISSION,,,,,,ACTIVE,1733398394.6493618,0.0,-0.01,-1.5,12,1,15,0,17760384,128,2
1733398405.6788938,0.0,True,0.002440490759909153,0.001812039059586823,0.15198874473571777,-1.0,85,15.895,0,0,False,,,,0,0,3,10,0.016866475343704224,8,28.498,,39.9526378,,-113.4759757,False,0.8496509289980168,36.596,,39.9526378,,-113.4759757,8.098,,39.9526378,,-113.4759757,-8.109640121459961,0.03147125244140625,-0.018144279718399048,-1,MISSION,,,,,,ACTIVE,11.029531955718994,0.0,-0.01,-1.5,12,1,15,0,17760384,128,2
1733398405.7788546,0.0,True,0.0023426066618412733,0.0023988177999854088,0.1519206315279007,-1.0,85,15.889,0,0,False,,,,0,0,3,10,0.016266651451587677,8,28.498,,39.9526378,,-113.4759757,False,0.9515469489997486,36.754,,39.9526378,,-113.4759757,8.256,,39.9526378,,-113.4759757,-8.231315612792969,0.030051762238144875,-0.017351074144244194,-1,MISSION,,,,,,ACTIVE,1733398394.7493227,0.0,-0.01,-1.5,12,1,15,0,17760384,128,2
1733398405.8789363,0.0,True,0.0027552631217986345,0.002497266046702862,0.15178397297859192,-1.0,85,15.886,0,0,False,,,,0,0,3,10,0.015962840989232063,8,28.498,,39.9526378,,-113.4759757,False,0.04433231800067006,36.876,,39.9526378,,-113.4759757,8.378,,39.9526378,,-113.4759757,-8.389464378356934,0.027916453778743744,-0.016192348673939705,-1,MISSION,,,,,,ACTIVE,11.129613637924194,0.0,-0.01,-1.5,12,1,15,0,17760384,128,2
1733398405.9791877,0.0,True,0.0030621145851910114,0.002541961381211877,0.15180446207523346,-1.0,85,15.883,0,0,False,,,,0,0,3,10,0.016066664829850197,8,28.498,,39.9526378,,-113.4759757,False,0.04093207600089954,37.022,,39.9526378,,-113.4759757,8.524,,39.9526378,,-113.4759757,-8.523383140563965,0.025886937975883484,-0.015260937623679638,-1,MISSION,,,,,,ACTIVE,1733398394.849574,0.0,-0.01,-1.5,12,1,15,0,17760384,128,2
1733398406.079759,0.0,True,0.0028370770160108805,0.0029998060781508684,0.15194153785705566,-1.0,85,15.883,0,0,False,,,,0,0,3,10,0.015604707412421703,8,28.498,,39.9526378,,-113.4759757,False,0.14260003099479945,37.144,,39.9526378,,-113.4759758,8.646,,39.9526378,,-113.4759758,-8.657621383666992,0.02379591390490532,-0.01423086877912283,-1,MISSION,,,,,,ACTIVE,11.23018479347229,0.0,-0.01,-1.5,12,1,15,0,17760384,128,2
1733398406.17969,0.0,True,0.0032120984978973866,0.0032995310612022877,0.15206743776798248,-1.0,84,15.877,0,0,False,,,,0,0,3,10,0.013774530030786991,8,28.498,,39.9526378,,-113.4759757,False,0.2409863949942519,37.303,,39.9526378,,-113.4759758,8.805,,39.9526378,,-113.4759758,-8.779814720153809,0.022014424204826355,-0.013225213624536991,-1,MISSION,,,,,,ACTIVE,1733398394.949505,0.0,-0.01,-1.5,12,1,15,0,17760384,128,2
1733398406.279431,0.0,True,0.002951292786747217,0.0031841127201914787,0.15177302062511444,-1.0,84,15.877,0,0,False,,,,0,0,3,10,0.010907229036092758,8,28.498,,39.9526378,,-113.4759757,False,0.3388404889992671,37.425,,39.9526378,,-113.4759758,8.927,,39.9526378,,-113.4759758,-8.938641548156738,0.020160654559731483,-0.011850732378661633,-1,MISSION,,,,,,ACTIVE,11.329926013946533,0.0,0.0,-1.5,12,1,15,0,17760384,128,2
1733398406.3797526,0.0,True,0.0032725948840379715,0.0032825281377881765,0.15163825452327728,-1.0,84,15.877,0,0,False,,,,0,0,3,10,0.010907229036092758,8,28.498,,39.9526378,,-113.4759757,False,0.44103322199953254,37.572,,39.9526379,,-113.4759758,9.073,,39.9526379,,-113.4759758,-9.060696601867676,0.018971774727106094,-0.010711327195167542,-1,MISSION,,,,,,ACTIVE,1733398395.0498266,0.0,0.0,-1.5,12,1,15,0,17760384,128,2
1733398406.482056,0.0,True,0.0035623477306216955,0.0029131444171071053,0.15202243626117706,-1.0,84,15.871,0,0,False,,,,0,0,3,10,0.008349113166332245,8,28.498,,39.9526378,,-113.4759757,False,0.5424755089989048,37.693,,39.9526379,,-113.4759758,9.195,,39.9526379,,-113.4759758,-9.206904411315918,0.0175977423787117,-0.009238168597221375,-1,MISSION,,,,,,ACTIVE,11.432229280471802,0.0,0.0,-1.5,12,1,15,0,17760384,128,2
1733398406.5829635,0.0,True,0.0036735006142407656,0.0027765873819589615,0.1521560400724411,-1.0,84,15.871,0,0,False,,,,0,0,3,10,0.006759126670658588,8,28.498,,39.9526378,,-113.4759757,False,0.6453888559990446,37.852,,39.9526379,,-113.4759759,9.353,,39.9526379,,-113.4759759,-9.340740203857422,0.016344891861081123,-0.008014603517949581,-1,MISSION,,,,,,ACTIVE,1733398395.1507342,0.0,0.0,-1.5,12,1,15,0,17760384,128,2
1733398406.6839793,0.0,True,0.0037609245628118515,0.0031499245669692755,0.15213799476623535,-1.0,84,15.865,0,0,False,,,,0,0,3,10,0.006696765311062336,8,28.498,,39.9526378,,-113.4759757,False,0.746925576000649,37.973,,39.9526379,,-113.4759759,9.475,,39.9526379,,-113.4759759,-9.486641883850098,0.01511982548981905,-0.00668909028172493,-1,MISSION,,,,,,ACTIVE,11.533245086669922,0.0,0.0,-1.5,12,1,15,0,17760384,128,2
1733398406.7830546,0.0,True,0.004059451632201672,0.003386637195944786,0.15207254886627197,-1.0,84,15.865,0,0,False,,,,0,0,3,10,0.005409953184425831,8,28.498,,39.9526378,,-113.4759757,False,0.8451844609953696,38.119,,39.9526379,,-113.4759759,9.621,,39.9526379,,-113.4759759,-9.608160972595215,0.014155186712741852,-0.005412109196186066,-1,MISSION,,,,,,ACTIVE,1733398395.2498095,0.0,0.0,-1.51,12,1,15,0,17760384,128,2
1733398406.8833258,0.0,True,0.004170577973127365,0.003685645293444395,0.15197335183620453,-1.0,83,15.859,0,0,False,,,,0,0,3,10,0.005015299189835787,8,28.498,,39.9526378,,-113.4759757,False,0.9426731860003201,38.24,,39.9526379,,-113.4759759,9.742,,39.9526379,,-113.4759759,-9.754020690917969,0.012922480702400208,-0.003610502928495407,-1,MISSION,,,,,,ACTIVE,11.633516311645508,0.0,0.0,-1.51,12,1,15,0,17760384,128,2
1733398406.9848313,0.0,True,0.004199987277388573,0.0042022597044706345,0.15182411670684814,-1.0,83,15.856,0,0,False,,,,0,0,3,10,0.0037068191450089216,8,28.498,,39.9526378,,-113.4759757,False,0.03497667299961904,38.399,,39.9526379,,-113.4759759,9.901,,39.9526379,,-113.4759759,-9.8878812789917,0.011678118258714676,-0.0019134755712002516,-1,MISSION,,,,,,ACTIVE,1733398395.351315,0.0,0.0,-1.51,12,1,15,0,17760384,128,2
1733398407.0833862,0.0,True,0.004466196987777948,0.004088874906301498,0.15181250870227814,-1.0,83,15.853,0,0,False,,,,0,0,3,10,0.0018927279161289334,8,28.498,,39.9526378,,-113.4759757,False,0.026238318998366594,38.52,,39.9526379,,-113.4759759,10.022,,39.9526379,,-113.4759759,-10.03403377532959,0.01036596205085516,-7.938646012917161e-05,-1,MISSION,,,,,,ACTIVE,11.732071161270142,0.0,0.0,-1.51,12,1,15,0,17760384,128,2
1733398407.1851056,0.0,True,0.004388867877423763,0.003952132537961006,0.15179768204689026,-1.0,83,15.853,0,0,False,,,,0,0,3,10,0.0015039333375170827,8,28.498,,39.9526378,,-113.4759757,False,0.1289150239972514,38.667,,39.952638,,-113.4759759,10.169,,39.952638,,-113.4759759,-10.156021118164062,0.009670284576714039,0.0015425721649080515,-1,MISSION,,,,,,ACTIVE,1733398395.4530344,0.0,0.0,-1.51,12,1,15,0,17760384,128,2
1733398407.2854156,0.0,True,0.005028518848121166,0.0037581564392894506,0.15153810381889343,-1.0,83,15.847,0,0,False,,,,0,0,3,10,0.0038767922669649124,8,28.498,,39.9526378,,-113.4759757,False,0.23073674199986272,38.79,,39.952638,,-113.4759759,10.292,,39.952638,,-113.4759759,-10.304158210754395,0.009320039302110672,0.003448991570621729,-1,MISSION,,,,,,ACTIVE,11.832381248474121,0.0,0.0,-1.54,12,1,15,0,17760384,128,2
1733398407.3854775,0.0,True,0.0053782276809215546,0.003553376765921712,0.1513298898935318,-1.0,83,15.847,0,0,False,,,,0,0,3,10,0.0038767922669649124,8,28.498,,39.9526378,,-113.4759757,False,0.32890568600123515,38.956,,39.952638,,-113.4759759,10.458,,39.952638,,-113.4759759,-10.43166732788086,0.009326943196356297,0.005025024060159922,-1,MISSION,,,,,,ACTIVE,1733398395.5530963,0.0,0.0,-1.63,12,1,15,0,17760384,128,2
1733398407.485703,0.0,True,0.0057383570820093155,0.002953417832031846,0.15078672766685486,-1.0,83,15.847,0,0,False,,,,0,0,3,10,0.007607382722198963,8,28.498,,39.9526378,,-113.4759757,False,0.42627392699796474,39.091,,39.952638,,-113.4759759,10.593,,39.952638,,-113.4759759,-10.606542587280273,0.009629852138459682,0.007064726669341326,-1,MISSION,,,,,,ACTIVE,11.93260669708252,0.0,0.0,-1.72,12,1,15,0,17760384,128,2
1733398407.585578,0.0,True,0.006066726520657539,0.0025829956866800785,0.15065063536167145,-1.0,82,15.841,0,0,False,,,,0,0,3,10,0.009574159979820251,8,28.498,,39.9526378,,-113.4759757,False,0.5285686249990249,39.264,,39.952638,,-113.4759759,10.766,,39.952638,,-113.4759759,-10.75041675567627,0.009969583712518215,0.008546293713152409,-1,MISSION,,,,,,ACTIVE,1733398395.6529713,0.0,0.01,-1.87,12,1,15,0,17760384,128,2
1733398407.685747,0.0,True,0.005809818394482136,0.001962363487109542,0.15070860087871552,-1.0,82,15.841,0,0,False,,,,0,0,3,10,0.01167753804475069,8,28.498,,39.9526378,,-113.4759757,False,0.6317179449979449,39.419,,39.952638,,-113.4759759,10.921,,39.952638,,-113.4759759,-10.953142166137695,0.010744166560471058,0.01008718553930521,-1,MISSION,,,,,,ACTIVE,12.032775640487671,0.0,0.01,-2.02,12,1,15,0,17760384,128,2
1733398407.7859387,0.0,True,0.00576398428529501,0.0021995389834046364,0.15078403055667877,-1.0,82,15.835,0,0,False,,,,0,0,3,10,0.015754466876387596,8,28.498,,39.9526378,,-113.4759757,False,0.7289385269978084,39.64,,39.9526381,,-113.4759759,11.142,,39.9526381,,-113.4759759,-11.106008529663086,0.011404743418097496,0.010965898633003235,-1,MISSION,,,,,,ACTIVE,1733398395.753163,0.0,0.01,-2.26,12,1,15,0,17760384,128,2
1733398407.88634,0.0,True,0.005448639392852783,0.0016423380002379417,0.1508457511663437,-1.0,82,15.835,0,0,False,,,,0,0,3,10,0.01715405099093914,8,28.498,,39.9526378,,-113.4759757,False,0.8305588340008399,39.827,,39.9526381,,-113.4759759,11.328,,39.9526381,,-113.4759759,-11.347352027893066,0.0124406348913908,0.01195534598082304,-1,MISSION,,,,,,ACTIVE,12.133176803588867,0.0,0.01,-2.45,12,1,15,0,17760384,128,2
1733398407.987729,0.0,True,0.005791916511952877,0.0008771172142587602,0.15114906430244446,-1.0,82,15.829,0,0,False,,,,0,0,3,10,0.01913735643029213,8,28.498,,39.9526378,,-113.4759757,False,0.9338670580036705,40.068,,39.9526381,,-113.4759759,11.569,,39.9526381,,-113.4759759,-11.568899154663086,0.013376325368881226,0.012815745547413826,-1,MISSION,,,,,,ACTIVE,1733398395.8545523,-0.01,0.01,-2.65,12,1,15,0,17760384,128,2
1733398408.086208,0.0,True,0.005704848095774651,0.0005538144032470882,0.15123431384563446,-1.0,81,15.826,0,0,False,,,,0,0,3,10,0.019960809499025345,8,28.498,,39.9526378,,-113.4759757,False,0.026991752005415037,40.28,,39.9526381,,-113.4759759,11.782,,39.9526381,,-113.4759759,-11.803064346313477,0.014326509088277817,0.013666465878486633,-1,MISSION,,,,,,ACTIVE,12.231655836105347,-0.01,0.01,-2.77,12,1,15,0,17760384,128,2
1733398408.1876473,0.0,True,0.0061871702782809734,8.12236248748377e-05,0.15137211978435516,-1.0,81,15.823,0,0,False,,,,0,0,3,10,0.02137555368244648,8,28.498,,39.9526378,,-113.4759757,False,0.023240497001097538,40.568,,39.9526381,,-113.4759759,12.07,,39.9526381,,-113.4759759,-12.02447509765625,0.015391889959573746,0.014541990123689175,-1,MISSION,,,,,,ACTIVE,1733398395.9559915,-0.01,0.01,-2.9,12,1,15,0,17760384,128,2
1733398408.2882354,0.0,True,0.006072530522942543,2.0466713976929896e-05,0.1513243466615677,-1.0,81,15.823,0,0,False,,,,0,0,3,10,0.02154402621090412,8,28.498,,39.9526378,,-113.4759757,False,0.12455128000146942,40.797,,39.9526381,,-113.4759759,12.299,,39.9526381,,-113.4759759,-12.321712493896484,0.016993438825011253,0.015641169622540474,-1,MISSION,,,,,,ACTIVE,12.332243919372559,-0.01,0.01,-2.97,12,1,15,0,17760384,128,2
1733398408.3886,0.0,True,0.0060565657913684845,-0.0002890574687626213,0.1511034369468689,-1.0,81,15.817,0,0,False,,,,0,0,3,10,0.022957440465688705,8,28.498,,39.9526378,,-113.4759757,False,0.22448213899770053,41.077,,39.9526381,,-113.4759758,12.579,,39.9526381,,-113.4759758,-12.602208137512207,0.018500931560993195,0.016602689400315285,-1,MISSION,,,,,,ACTIVE,1733398396.0563562,-0.01,0.01,-3.01,12,1,15,0,17760384,128,2
1733398408.4891338,0.0,True,0.006128227338194847,-0.0004324406909290701,0.15073217451572418,-1.0,81,15.817,0,0,False,,,,0,0,3,10,0.022957440465688705,8,28.498,,39.9526378,,-113.4759757,False,0.32488287200249033,41.313,,39.9526381,,-113.4759758,12.815,,39.9526381,,-113.4759758,-12.837763786315918,0.019830122590065002,0.01723964884877205,-1,MISSION,,,,,,ACTIVE,12.432777643203735,-0.01,0.01,-3.02,12,1,15,0,17760384,128,2
1733398408.589268,0.0,True,0.0061732325702905655,-0.00012676281039603055,0.15043099224567413,-1.0,81,15.817,0,0,False,,,,0,0,3,10,0.020620260387659073,8,28.498,,39.9526378,,-113.4759757,False,0.42349202900368255,41.619,,39.9526381,,-113.4759758,13.121,,39.9526381,,-113.4759758,-13.096688270568848,0.021437397226691246,0.017882784828543663,-1,MISSION,,,,,,ACTIVE,1733398396.1564903,-0.01,0.01,-3.0,12,1,15,0,17760384,128,2
1733398408.6894577,0.0,True,0.006050744093954563,-0.00030078255804255605,0.15023280680179596,-1.0,81,15.811,0,0,False,,,,0,0,3,10,0.022284677252173424,8,28.498,,39.9526378,,-113.4759757,False,0.5248713750042953,41.854,,39.9526381,,-113.4759758,13.356,,39.9526381,,-113.4759758,-13.378920555114746,0.02344815619289875,0.018459660932421684,-1,MISSION,,,,,,ACTIVE,12.532967329025269,-0.01,0.01,-2.99,12,1,15,0,17760384,128,2
