timestamp,airspeed,armed,attitude.pitch,attitude.roll,attitude.yaw,battery.current,battery.level,battery.voltage,commands.count,commands.next,ekf_ok,gimbal.pitch,gimbal.roll,gimbal.yaw,gps_0.eph,gps_0.epv,gps_0.fix_type,gps_0.satellites_visible,groundspeed,heading,home_location.alt,home_location.global_frame,home_location.lat,home_location.local_frame,home_location.lon,is_armable,last_heartbeat,location.global_frame.alt,location.global_frame.global_frame,location.global_frame.lat,location.global_frame.local_frame,location.global_frame.lon,location.global_relative_frame.alt,location.global_relative_frame.global_frame,location.global_relative_frame.lat,location.global_relative_frame.local_frame,location.global_relative_frame.lon,location.local_frame.down,location.local_frame.east,location.local_frame.north,mode.name,mount_status[0],mount_status[1],mount_status[2],rangefinder.distance,rangefinder.voltage,system_status.state,velocity[0],velocity[1],velocity[2],version.autopilot_type,version.major,version.minor,version.patch,version.raw_version,version.release,version.vehicle_type
1732200185.6058662,0.0,True,-0.0002393508329987526,0.0014453446492552757,0.14664582908153534,-1.0,100,16.193,0,0,False,,,,0,0,3,10,0.01400825846940279,8,28.492,,39.9526378,,-113.475976,False,0.38905033800256206,28.503,,39.952638,,-113.4759759,0.002,,39.952638,,-113.4759759,-0.020322149619460106,-0.008519015274941921,0.019229529425501823,MISSION,,,,,,ACTIVE,0.01,0.0,0.0,12,1,15,0,17760384,128,2
1732200186.147526,0.0,True,-0.0005902003613300622,0.0019676077645272017,0.1464194655418396,-1.0,100,16.175,0,0,False,,,,0,0,3,10,0.008850515820086002,8,28.492,,39.9526378,,-113.475976,False,0.9307511919978424,28.503,,39.952638,,-113.475976,0.002,,39.952638,,-113.475976,-0.020234979689121246,-0.009134037420153618,0.016416272148489952,MISSION,,,,,,ACTIVE,0.0,0.0,0.0,12,1,15,0,17760384,128,2
1732200186.6514432,0.0,True,-0.0007873003487475216,0.0015073968097567558,0.14689183235168457,-1.0,100,16.163,0,0,False,,,,0,0,3,10,0.005705047398805618,8,28.492,,39.9526378,,-113.475976,False,0.32133466599771054,28.503,,39.952638,,-113.475976,0.002,,39.952638,,-113.475976,-0.02060624584555626,-0.010034224018454552,0.01188479270786047,MISSION,,,,,,ACTIVE,0.0,0.0,0.0,12,1,15,0,17760384,128,2
1732200187.156909,0.0,True,-0.0009374627261422575,0.0007761458400636911,0.14730355143547058,-1.0,99,16.151,0,0,False,,,,0,0,3,10,0.006097442004829645,8,28.501,,39.952638,,-113.4759759,False,0.827425030998711,28.503,,39.9526379,,-113.475976,0.002,,39.9526379,,-113.475976,-0.020296378061175346,-0.009266478940844536,0.010409187525510788,MISSION,,,,,,ACTIVE,0.0,0.0,0.0,12,1,15,0,17760384,128,2
1732200187.662223,0.0,True,-0.001308629522100091,0.0015532124089077115,0.1473284363746643,-1.0,99,16.139,0,0,False,,,,0,0,3,10,0.007886948063969612,8,28.501,,39.952638,,-113.4759759,False,0.2126285780032049,28.502,,39.9526379,,-113.475976,-0.001,,39.9526379,,-113.475976,-0.019132224842905998,-0.011058446019887924,0.00937705673277378,MISSION,,,,,,ACTIVE,0.0,0.0,0.0,12,1,15,0,17760384,128,2
1732200188.167973,0.0,True,-0.002205976750701666,0.0019343753810971975,0.14777934551239014,-1.0,98,16.121,0,0,False,,,,0,0,3,10,0.00989773403853178,8,28.501,,39.952638,,-113.4759759,False,0.7170651330015971,28.5,,39.9526379,,-113.475976,-0.002,,39.9526379,,-113.475976,-0.017458483576774597,-0.009584907442331314,0.010276946239173412,MISSION,,,,,,ACTIVE,0.0,0.0,0.0,12,1,15,0,17760384,128,2
1732200188.675457,0.0,True,-0.0019305648747831583,0.001967878546565771,0.14739280939102173,-1.0,97,16.109,0,0,False,,,,0,0,3,10,0.013942164368927479,8,28.501,,39.952638,,-113.4759759,False,0.11522580600285437,28.5,,39.952638,,-113.4759759,-0.003,,39.952638,,-113.4759759,-0.016937650740146637,-0.008125688880681992,0.01359351072460413,MISSION,,,,,,ACTIVE,0.01,0.0,0.0,12,1,15,0,17760384,128,2
1732200189.1800048,0.0,True,-0.0016464194050058722,0.0024353142362087965,0.1474459171295166,-1.0,96,16.097,0,0,False,,,,0,0,3,10,0.01712777093052864,8,28.503,,39.9526379,,-113.475976,False,0.6220446279985481,28.501,,39.952638,,-113.4759759,-0.002,,39.952638,,-113.4759759,-0.01801273413002491,-0.005600254982709885,0.016077617183327675,MISSION,,,,,,ACTIVE,0.01,0.0,0.0,12,1,15,0,17760384,128,2
1732200189.684271,0.0,True,0.005587016697973013,-0.0038615623489022255,0.1472119390964508,-1.0,95,16.079,0,0,False,,,,0,0,3,10,0.014168202877044678,8,28.503,,39.9526379,,-113.475976,False,0.010570173995802179,28.519,,39.952638,,-113.4759759,0.016,,39.952638,,-113.4759759,-0.0376129187643528,-0.007136966101825237,0.013416899368166924,MISSION,,,,,,ACTIVE,0.0,-0.01,-0.13,12,1,15,0,17760384,128,2
1732200190.1933277,0.0,True,-0.0019534057937562466,0.0026748680975288153,0.146696075797081,-1.0,95,16.067,0,0,False,,,,0,0,3,10,0.03075612336397171,8,28.503,,39.9526379,,-113.475976,False,0.5204810770010226,28.679,,39.9526379,,-113.475976,0.176,,39.9526379,,-113.475976,-0.20547282695770264,-0.016806475818157196,0.003330584615468979,MISSION,,,,,,ACTIVE,-0.01,-0.02,-0.57,12,1,15,0,17760384,128,2
1732200190.6964417,0.0,True,-0.00482648890465498,0.0038642992731183767,0.14648380875587463,-1.0,94,16.052,0,0,False,,,,0,0,3,10,0.020062848925590515,8,28.503,,39.9526379,,-113.475976,False,0.0314207159972284,29.009,,39.9526378,,-113.4759762,0.505,,39.9526378,,-113.4759762,-0.5258161425590515,-0.02809574268758297,-0.009593837894499302,MISSION,,,,,,ACTIVE,0.0,-0.01,-0.92,12,1,15,0,17760384,128,2
1732200191.2022011,0.0,True,-0.005236868280917406,0.0049145277589559555,0.1464724838733673,-1.0,93,16.043,0,0,False,,,,0,0,3,10,0.009148526936769485,8,28.503,,39.9526379,,-113.475976,False,0.4180913780000992,29.476,,39.9526377,,-113.4759763,0.972,,39.9526377,,-113.4759763,-0.9927744269371033,-0.03859555721282959,-0.016978586092591286,MISSION,,,,,,ACTIVE,0.0,0.0,-1.22,12,1,15,0,17760384,128,2
1732200191.7130737,0.0,True,-0.004934628028422594,0.007021854165941477,0.146234929561615,-1.0,92,16.025,0,0,False,,,,0,0,3,10,0.018447045236825943,8,28.503,,39.9526379,,-113.475976,False,0.9289613049986656,30.058,,39.9526377,,-113.4759764,1.555,,39.9526377,,-113.4759764,-1.5752449035644531,-0.05067528411746025,-0.020116429775953293,MISSION,,,,,,ACTIVE,0.01,0.0,-1.32,12,1,15,0,17760384,128,2
1732200192.2164316,0.0,True,-0.003909613471478224,0.006616915110498667,0.1772039532661438,-1.0,92,16.013,0,0,False,,,,0,0,3,10,0.029922548681497574,10,28.503,,39.9526379,,-113.475976,False,0.31854681899858406,30.642,,39.9526377,,-113.4759765,2.138,,39.9526377,,-113.4759765,-2.158848524093628,-0.05913400277495384,-0.015973933041095734,MISSION,,,,,,ACTIVE,0.02,0.01,-1.37,12,1,15,0,17760384,128,2
1732200192.7220526,0.0,True,-0.0007436549640260637,0.005762150045484304,0.18170645833015442,-1.0,91,16.001,0,0,False,,,,0,0,3,10,0.04282292723655701,10,28.503,,39.9526379,,-113.475976,False,0.8256396199940355,31.27,,39.9526378,,-113.4759766,2.766,,39.9526378,,-113.4759766,-2.787020444869995,-0.06024918705224991,-0.0007388684316538274,MISSION,,,,,,ACTIVE,0.03,0.02,-1.4,12,1,15,0,17760384,128,2
1732200193.2254605,0.0,True,0.002440482145175338,0.005127004347741604,0.17836637794971466,-1.0,90,15.989,0,0,False,,,,0,0,3,10,0.048018958419561386,10,28.503,,39.9526379,,-113.475976,False,0.21689982099633198,31.93,,39.952638,,-113.4759765,3.426,,39.952638,,-113.4759765,-3.446988344192505,-0.056615281850099564,0.018153095617890358,MISSION,,,,,,ACTIVE,0.02,0.03,-1.43,12,1,15,0,17760384,128,2
1732200193.7413225,0.0,True,0.004958136938512325,0.004376062657684088,0.17702531814575195,-1.0,89,15.971,0,0,False,,,,0,0,3,10,0.04303953796625137,10,28.503,,39.9526379,,-113.475976,False,0.7341594799945597,32.592,,39.9526382,,-113.4759765,4.089,,39.9526382,,-113.4759765,-4.109726428985596,-0.05177508667111397,0.03808467835187912,MISSION,,,,,,ACTIVE,0.01,0.03,-1.45,12,1,15,0,17760384,128,2
1732200194.2459826,0.0,True,0.006541772745549679,0.0024528263602405787,0.17792023718357086,-1.0,89,15.959,0,0,False,,,,0,0,3,10,0.04216945916414261,10,28.503,,39.9526379,,-113.475976,False,0.12870479700359283,33.278,,39.9526384,,-113.4759763,4.774,,39.9526384,,-113.4759763,-4.794802188873291,-0.040954459458589554,0.0564611591398716,MISSION,,,,,,ACTIVE,0.0,0.04,-1.46,12,1,15,0,17760384,128,2
1732200194.7522771,0.0,True,0.006107057444751263,0.001085959142073989,0.18056617677211761,-1.0,88,15.947,0,0,False,,,,0,0,3,10,0.03931853175163269,10,28.503,,39.9526379,,-113.475976,False,0.6311134140050854,33.936,,39.9526384,,-113.4759762,5.432,,39.9526384,,-113.4759762,-5.465157985687256,-0.029513537883758545,0.0657787099480629,MISSION,,,,,,ACTIVE,-0.01,0.03,-1.48,12,1,15,0,17760384,128,2
1732200195.258065,0.0,True,0.0032206550240516663,0.0008847175049595535,0.18150562047958374,-1.0,87,15.929,0,0,False,,,,0,0,3,10,0.04204437881708145,10,28.503,,39.9526379,,-113.475976,False,0.022525787993799895,34.621,,39.9526384,,-113.4759761,6.118,,39.9526384,,-113.4759761,-6.13873291015625,-0.02108725905418396,0.06335427612066269,MISSION,,,,,,ACTIVE,-0.03,0.02,-1.48,12,1,15,0,17760384,128,2
1732200195.7639775,0.0,True,0.001900646835565567,0.0008426390122622252,0.18014177680015564,-1.0,86,15.917,0,0,False,,,,0,0,3,10,0.03952079266309738,10,28.503,,39.9526379,,-113.475976,False,0.5334418169950368,35.322,,39.9526383,,-113.475976,6.818,,39.9526383,,-113.475976,-6.8389410972595215,-0.012956999242305756,0.05558400601148605,MISSION,,,,,,ACTIVE,-0.03,0.01,-1.49,12,1,15,0,17760384,128,2
1732200196.2709398,0.0,True,-0.0001417542080162093,0.0004863257345277816,0.18002651631832123,-1.0,86,15.902,0,0,False,,,,0,0,3,10,0.03622895106673241,10,28.503,,39.9526379,,-113.475976,False,0.04839915400225436,36.014,,39.9526382,,-113.4759759,7.51,,39.9526382,,-113.4759759,-7.530935287475586,-0.007151544559746981,0.04216930270195007,MISSION,,,,,,ACTIVE,-0.03,0.0,-1.5,12,1,15,0,17760384,128,2
1732200196.7791526,0.0,True,-0.002363842912018299,-0.0002644711348693818,0.17936697602272034,-1.0,85,15.893,0,0,False,,,,0,0,3,10,0.030566299334168434,10,28.503,,39.9526379,,-113.475976,False,0.44006976099626627,36.718,,39.9526381,,-113.4759759,8.215,,39.9526381,,-113.4759759,-8.235501289367676,-0.0014166102046146989,0.024378128349781036,MISSION,,,,,,ACTIVE,-0.03,0.0,-1.5,12,1,15,0,17760384,128,2
1732200197.282405,0.0,True,-0.0050270045176148415,0.00034359138226136565,0.17901389300823212,-1.0,84,15.875,0,0,False,,,,0,0,3,10,0.025078246369957924,10,28.503,,39.9526379,,-113.475976,False,0.941653233996476,37.391,,39.9526379,,-113.4759759,8.887,,39.9526379,,-113.4759759,-8.907951354980469,-0.0016589142614975572,0.00413420470431447,MISSION,,,,,,ACTIVE,-0.02,0.0,-1.5,12,1,15,0,17760384,128,2
1732200197.791956,0.0,True,-0.005996392574161291,0.0015422264114022255,0.17899207770824432,-1.0,83,15.863,0,0,False,,,,0,0,3,10,0.013904372230172157,10,28.503,,39.9526379,,-113.475976,False,0.3422509129959508,38.087,,39.9526377,,-113.4759759,9.584,,39.9526377,,-113.4759759,-9.616877555847168,-0.003920355811715126,-0.011726384051144123,MISSION,,,,,,ACTIVE,0.0,-0.01,-1.51,12,1,15,0,17760384,128,2
1732200198.2961664,0.0,True,-0.005025433376431465,0.0023699263110756874,0.1773494929075241,-1.0,83,15.851,0,0,False,,,,0,0,3,10,0.013386737555265427,10,28.503,,39.9526379,,-113.475976,False,0.845507997997629,38.796,,39.9526377,,-113.475976,10.292,,39.9526377,,-113.475976,-10.312795639038086,-0.009532297030091286,-0.018181977793574333,MISSION,,,,,,ACTIVE,0.01,0.0,-1.55,12,1,15,0,17760384,128,2
1732200198.8044257,0.0,True,-0.003993330057710409,0.002839031396433711,0.177427276968956,-1.0,82,15.833,0,0,False,,,,0,0,3,10,0.023098204284906387,10,28.503,,39.9526379,,-113.475976,False,0.24034620100428583,39.637,,39.9526377,,-113.475976,11.134,,39.9526377,,-113.475976,-11.15462875366211,-0.016409875825047493,-0.020583845674991608,MISSION,,,,,,ACTIVE,0.02,0.0,-2.28,12,1,15,0,17760384,128,2
1732200199.3137434,0.0,True,-0.002567774150520563,0.0030259506311267614,0.17913244664669037,-1.0,81,15.821,0,0,False,,,,0,0,3,10,0.029639406129717827,10,28.503,,39.9526379,,-113.475976,False,0.7519345309992786,40.87,,39.9526377,,-113.4759761,12.367,,39.9526377,,-113.4759761,-12.387600898742676,-0.021524203941226006,-0.017761792987585068,MISSION,,,,,,ACTIVE,0.03,0.0,-2.99,12,1,15,0,17760384,128,2
1732200199.8234007,0.0,True,-0.002491212449967861,0.0021927838679403067,0.17992842197418213,-1.0,80,15.809,0,0,False,,,,0,0,3,10,0.02924369089305401,10,28.503,,39.9526379,,-113.475976,False,0.1506406929984223,42.211,,39.9526377,,-113.4759761,13.708,,39.9526377,,-113.4759761,-13.728360176086426,-0.02462078630924225,-0.016926908865571022,MISSION,,,,,,ACTIVE,0.02,0.0,-2.98,12,1,15,0,17760384,128,2
1732200200.3369746,0.0,True,-0.0029479283839464188,0.0029015219770371914,0.1798246055841446,-1.0,80,15.797,0,0,False,,,,0,0,3,10,0.02765624411404133,10,28.503,,39.9526379,,-113.475976,False,0.6637180999969132,43.589,,39.9526377,,-113.4759762,15.086,,39.9526377,,-113.4759762,-15.10622501373291,-0.025771794840693474,-0.016732271760702133,MISSION,,,,,,ACTIVE,0.02,0.0,-2.98,12,1,15,0,17760384,128,2
1732200200.8484495,0.0,True,-0.002030856441706419,0.002673627343028784,0.17993293702602386,-1.0,79,15.779,0,0,False,,,,0,0,3,10,0.031214619055390358,10,28.503,,39.9526379,,-113.475976,False,0.06210622600337956,44.95,,39.9526377,,-113.4759761,16.447,,39.9526377,,-113.4759761,-16.467451095581055,-0.02390243485569954,-0.013595111668109894,MISSION,,,,,,ACTIVE,0.02,0.01,-2.98,12,1,15,0,17760384,128,2
1732200201.358573,0.0,True,-0.0005838152719661593,0.00114311499055475,0.18082308769226074,-1.0,78,15.767,0,0,False,,,,0,0,3,10,0.033757925033569336,10,28.503,,39.9526379,,-113.475976,False,0.5712149840037455,46.34,,39.9526378,,-113.4759761,17.837,,39.9526378,,-113.4759761,-17.857221603393555,-0.017055004835128784,-0.006916703190654516,MISSION,,,,,,ACTIVE,0.02,0.01,-2.98,12,1,15,0,17760384,128,2
1732200201.8689547,0.0,True,0.0013817768776789308,-0.0001378430606564507,0.1803215593099594,-1.0,77,15.752,0,0,False,,,,0,0,3,10,0.034725122153759,10,28.503,,39.9526379,,-113.475976,False,0.0921528200051398,47.707,,39.9526379,,-113.475976,19.204,,39.9526379,,-113.475976,-19.224536895751953,-0.008898653090000153,0.0036511726211756468,MISSION,,,,,,ACTIVE,0.03,0.01,-2.98,12,1,15,0,17760384,128,2
1732200202.3808036,0.0,True,0.003374143037945032,-0.0013955689501017332,0.17982745170593262,-1.0,76,15.737,0,0,False,,,,0,0,3,10,0.028851596638560295,10,28.503,,39.9526379,,-113.475976,False,0.48398601000371855,49.1,,39.952638,,-113.4759758,20.597,,39.952638,,-113.4759758,-20.617671966552734,0.0028902599588036537,0.01719360239803791,MISSION,,,,,,ACTIVE,0.02,0.01,-2.98,12,1,15,0,17760384,128,2
1732200202.8919284,0.0,True,0.004176319111138582,-0.0015823404537513852,0.18000397086143494,-1.0,76,15.722,0,0,False,,,,0,0,3,10,0.01289435662329197,10,28.503,,39.9526379,,-113.475976,False,0.0051181450035073794,50.473,,39.9526381,,-113.4759757,21.969,,39.9526381,,-113.4759757,-21.989818572998047,0.012956896796822548,0.03132135048508644,MISSION,,,,,,ACTIVE,0.01,0.0,-2.98,12,1,15,0,17760384,128,2
1732200203.400186,0.0,True,0.005543637089431286,-0.0026802304200828075,0.179022416472435,-1.0,75,15.713,0,0,False,,,,0,0,3,10,0.006859955843538046,10,28.503,,39.9526379,,-113.475976,False,0.38641924699913943,51.868,,39.9526382,,-113.4759756,23.365,,39.9526382,,-113.4759756,-23.38545036315918,0.024010898545384407,0.04185495153069496,MISSION,,,,,,ACTIVE,0.0,0.0,-2.98,12,1,15,0,17760384,128,2
1732200203.913031,0.0,True,0.004120055586099625,-0.0025978677440434694,0.17820356786251068,-1.0,74,15.695,0,0,False,,,,0,0,3,10,0.019515980035066605,10,28.503,,39.9526379,,-113.475976,False,0.9072794569947291,53.24,,39.9526383,,-113.4759755,24.736,,39.9526383,,-113.4759755,-24.75682258605957,0.03273651376366615,0.04537101835012436,MISSION,,,,,,ACTIVE,-0.01,-0.01,-2.98,12,1,15,0,17760384,128,2
1732200204.4170947,0.0,True,0.0024300722870975733,-0.002625460037961602,0.17772050201892853,-1.0,73,15.683,0,0,False,,,,0,0,3,10,0.03190169110894203,10,28.503,,39.9526379,,-113.475976,False,0.2953371440016781,54.562,,39.9526382,,-113.4759754,26.059,,39.9526382,,-113.4759754,-26.127317428588867,0.03726708143949509,0.04183971509337425,MISSION,,,,,,ACTIVE,-0.01,-0.02,-2.97,12,1,15,0,17760384,128,2
1732200204.9214556,0.0,True,0.0018044590251520276,-0.002772433450445533,0.17725533246994019,-1.0,73,15.671,0,0,False,,,,0,0,3,10,0.03212200850248337,10,28.503,,39.9526379,,-113.475976,False,0.80041980399983,55.956,,39.9526382,,-113.4759754,27.453,,39.9526382,,-113.4759754,-27.473556518554688,0.037747181951999664,0.03655785694718361,MISSION,,,,,,ACTIVE,-0.01,-0.02,-2.98,12,1,15,0,17760384,128,2
1732200205.4277134,0.0,True,-0.00016966057592071593,-0.002470281207934022,0.17678549885749817,-1.0,72,15.659,0,0,False,,,,0,0,3,10,0.03971658647060394,10,28.503,,39.9526379,,-113.475976,False,0.19403619300283026,57.325,,39.9526381,,-113.4759754,28.821,,39.9526381,,-113.4759754,-28.84187126159668,0.03852921351790428,0.0250815711915493,MISSION,,,,,,ACTIVE,-0.02,-0.03,-2.97,12,1,15,0,17760384,128,2
1732200205.9318576,0.0,True,-0.0023942093830555677,-0.00148323446046561,0.17840813100337982,-1.0,71,15.641,0,0,False,,,,0,0,3,10,0.04287801310420036,10,28.503,,39.9526379,,-113.475976,False,0.6992142430026433,58.643,,39.9526379,,-113.4759755,30.14,,39.9526379,,-113.4759755,-30.160436630249023,0.03311474621295929,0.010770576074719429,MISSION,,,,,,ACTIVE,-0.01,-0.03,-2.97,12,1,15,0,17760384,128,2
1732200206.4362113,0.0,True,-0.0029905892442911863,0.0014006061246618629,0.18000958859920502,-1.0,70,15.629,0,0,False,,,,0,0,3,10,0.045756518840789795,10,28.503,,39.9526379,,-113.475976,False,0.08883653699740535,60.034,,39.9526379,,-113.4759756,31.53,,39.9526379,,-113.4759756,-31.550769805908203,0.0194148700684309,0.0023127777967602015,MISSION,,,,,,ACTIVE,0.0,-0.04,-2.98,12,1,15,0,17760384,128,2
1732200206.941987,0.0,True,-0.0031579709611833096,0.003685799427330494,0.18089330196380615,-1.0,70,15.617,0,0,False,,,,0,0,3,10,0.038212843239307404,10,28.503,,39.9526379,,-113.475976,False,0.5955694329968537,61.398,,39.9526378,,-113.4759758,32.895,,39.9526378,,-113.4759758,-32.915626525878906,0.0015784200513735414,-0.0017140342388302088,MISSION,,,,,,ACTIVE,0.0,-0.03,-2.98,12,1,15,0,17760384,128,2
1732200207.4505205,0.0,True,-0.002882723929360509,0.004178219474852085,0.1793048083782196,-1.0,69,15.602,0,0,False,,,,0,0,3,10,0.02679002471268177,10,28.503,,39.9526379,,-113.475976,False,0.11411173299711663,62.787,,39.9526378,,-113.475976,34.283,,39.9526378,,-113.475976,-34.30384063720703,-0.012139514088630676,-0.001483603147789836,MISSION,,,,,,ACTIVE,0.0,-0.02,-2.98,12,1,15,0,17760384,128,2
1732200207.9560208,0.0,True,-0.0011340409982949495,0.004428344313055277,0.17914004623889923,-1.0,68,15.587,0,0,False,,,,0,0,3,10,0.01707691140472889,10,28.503,,39.9526379,,-113.475976,False,0.49701556999934837,64.104,,39.9526379,,-113.4759761,35.601,,39.9526379,,-113.4759761,-35.6212272644043,-0.021013114601373672,0.004402215126901865,MISSION,,,,,,ACTIVE,0.01,-0.01,-2.98,12,1,15,0,17760384,128,2
1732200208.4787006,0.0,True,0.0007047778344713151,0.0044036447070539,0.17946049571037292,-1.0,67,15.572,0,0,False,,,,0,0,3,10,0.013781518675386906,10,28.503,,39.9526379,,-113.475976,False,0.029459871002472937,65.538,,39.952638,,-113.4759762,37.035,,39.952638,,-113.4759762,-37.0552978515625,-0.02863732911646366,0.01593097299337387,MISSION,,,,,,ACTIVE,0.01,0.0,-2.97,12,1,15,0,17760384,128,2
1732200208.9847908,0.0,True,0.0033649990800768137,0.003096803557127714,0.17812661826610565,-1.0,67,15.563,0,0,False,,,,0,0,3,10,0.019359666854143143,10,28.503,,39.9526379,,-113.475976,False,0.41847041599976365,66.898,,39.9526381,,-113.4759762,38.395,,39.9526381,,-113.4759762,-38.41525650024414,-0.030851304531097412,0.03192368149757385,MISSION,,,,,,ACTIVE,0.01,0.01,-2.97,12,1,15,0,17760384,128,2
1732200209.5002503,0.0,True,0.005263873375952244,0.0018192037241533399,0.1763256937265396,-1.0,66,15.545,0,0,False,,,,0,0,3,10,0.02597763203084469,10,28.503,,39.9526379,,-113.475976,False,0.9337989870036836,68.276,,39.9526383,,-113.4759762,39.773,,39.9526383,,-113.4759762,-39.79376220703125,-0.027480170130729675,0.045976538211107254,MISSION,,,,,,ACTIVE,0.0,0.02,-2.96,12,1,15,0,17760384,128,2
1732200210.0040812,0.0,True,0.007414774503558874,3.4401906304992735e-05,0.17526526749134064,-1.0,65,15.533,0,0,False,,,,0,0,3,10,0.02751803770661354,10,28.503,,39.9526379,,-113.475976,False,0.3265662150006392,69.629,,39.9526384,,-113.475976,41.126,,39.9526384,,-113.475976,-41.14664840698242,-0.015663281083106995,0.06263842433691025,MISSION,,,,,,ACTIVE,0.0,0.02,-2.95,12,1,15,0,17760384,128,2
1732200210.5118482,0.0,True,0.008111690171062946,-0.002794398693367839,0.17643757164478302,-1.0,64,15.521,0,0,False,,,,0,0,3,10,0.03091311827301979,10,28.503,,39.9526379,,-113.475976,False,0.8308372440005769,70.93,,39.9526385,,-113.4759758,42.427,,39.9526385,,-113.4759758,-42.44736862182617,0.00040828221244737506,0.07295762747526169,MISSION,,,,,,ACTIVE,-0.02,0.02,-2.93,12,1,15,0,17760384,128,2
1732200211.0265784,0.0,True,0.007303731981664896,-0.005395448300987482,0.17682474851608276,-1.0,63,15.503,0,0,False,,,,0,0,3,10,0.040233880281448364,10,28.503,,39.9526379,,-113.475976,False,0.23734983900067164,72.33,,39.9526385,,-113.4759756,43.826,,39.9526385,,-113.4759756,-43.846805572509766,0.0198894701898098,0.07574404776096344,MISSION,,,,,,ACTIVE,-0.03,0.01,-2.79,12,1,15,0,17760384,128,2
1732200211.5333035,0.0,True,0.006718709599226713,-0.007016866002231836,0.1776091754436493,-1.0,63,15.491,0,0,False,,,,0,0,3,10,0.04026101529598236,10,28.503,,39.9526379,,-113.475976,False,0.7438711770009832,73.468,,39.9526385,,-113.4759754,44.965,,39.9526385,,-113.4759754,-45.023193359375,0.03745101019740105,0.07524283975362778,MISSION,,,,,,ACTIVE,-0.04,0.0,-2.33,12,1,15,0,17760384,128,2
1732200212.0460145,0.0,True,0.006231593433767557,-0.006876892875880003,0.17961491644382477,-1.0,62,15.479,0,0,False,,,,0,0,3,10,0.04507020488381386,10,28.503,,39.9526379,,-113.475976,False,0.14208744599454803,74.477,,39.9526385,,-113.4759753,45.974,,39.9526385,,-113.4759753,-45.994380950927734,0.04887808486819267,0.07196670770645142,MISSION,,,,,,ACTIVE,-0.04,-0.01,-1.9,12,1,15,0,17760384,128,2
1732200212.556216,0.0,True,0.004694677423685789,-0.005927585531026125,0.18122459948062897,-1.0,61,15.467,0,0,False,,,,0,0,3,10,0.05014083907008171,10,28.503,,39.9526379,,-113.475976,False,0.6539299719952396,75.287,,39.9526384,,-113.4759753,46.783,,39.9526384,,-113.4759753,-46.80397033691406,0.04911205172538757,0.06357768923044205,MISSION,,,,,,ACTIVE,-0.04,-0.02,-1.53,12,1,15,0,17760384,128,2
1732200213.075291,0.0,True,0.0028593039605766535,-0.0034113817382603884,0.1806347370147705,-1.0,60,15.449,0,0,False,,,,0,0,3,10,0.056125253438949585,10,28.503,,39.9526379,,-113.475976,False,0.06398883299698355,75.968,,39.9526383,,-113.4759754,47.465,,39.9526383,,-113.4759754,-47.485538482666016,0.040494054555892944,0.05193755403161049,MISSION,,,,,,ACTIVE,-0.04,-0.03,-1.21,12,1,15,0,17760384,128,2
1732200213.5910416,0.0,True,0.00025525453384034336,-0.001475111348554492,0.18055127561092377,-1.0,60,15.437,0,0,False,,,,0,0,3,10,0.05224563181400299,10,28.503,,39.9526379,,-113.475976,False,0.5784862899963628,76.491,,39.9526382,,-113.4759755,47.987,,39.9526382,,-113.4759755,-48.0078010559082,0.02579606883227825,0.03484238684177399,MISSION,,,,,,ACTIVE,-0.03,-0.03,-0.96,12,1,15,0,17760384,128,2
1732200214.1181164,0.0,True,-0.0004748547507915646,-0.0006739389500580728,0.18053297698497772,-1.0,59,15.422,0,0,False,,,,0,0,3,10,0.040049247443675995,10,28.503,,39.9526379,,-113.475976,False,0.1156201220001094,76.916,,39.952638,,-113.4759757,48.412,,39.952638,,-113.4759757,-48.433074951171875,0.013089661486446857,0.02076910063624382,MISSION,,,,,,ACTIVE,-0.02,-0.02,-0.75,12,1,15,0,17760384,128,2
1732200214.6213229,0.0,True,-0.00032686529448255897,-0.0007561059901490808,0.18037012219429016,-1.0,58,15.407,0,0,False,,,,0,0,3,10,0.022470926865935326,10,28.503,,39.9526379,,-113.475976,False,0.4976814490000834,77.222,,39.952638,,-113.4759758,48.718,,39.952638,,-113.4759758,-48.73909378051758,0.003813318908214569,0.011637084186077118,MISSION,,,,,,ACTIVE,-0.01,-0.01,-0.61,12,1,15,0,17760384,128,2
1732200215.1274436,0.0,True,0.0007824391941539943,-0.0016542532248422503,0.1806960552930832,-1.0,57,15.392,0,0,False,,,,0,0,3,10,0.0068894485011696815,10,28.503,,39.9526379,,-113.475976,False,0.01329716599866515,77.477,,39.9526379,,-113.4759759,48.973,,39.9526379,,-113.4759759,-48.99802780151367,-0.00016097079787869006,0.006178755778819323,MISSION,,,,,,ACTIVE,0.0,0.0,-0.49,12,1,15,0,17760384,128,2
1732200215.6347194,0.0,True,0.0013169619487598538,-0.002565740840509534,0.18138694763183594,-1.0,57,15.383,0,0,False,,,,0,0,3,10,0.006073122378438711,10,28.503,,39.9526379,,-113.475976,False,0.40058822900027735,77.684,,39.9526379,,-113.4759758,49.18,,39.9526379,,-113.4759758,-49.20085144042969,8.646093920106068e-05,0.005079794209450483,MISSION,,,,,,ACTIVE,0.0,0.0,-0.39,12,1,15,0,17760384,128,2
1732200216.1400714,0.0,True,0.015925969928503036,-0.11124791949987411,0.07527052611112595,-1.0,56,15.365,0,1,False,,,,0,0,3,10,0.12946949899196625,4,28.503,,39.9526379,,-113.475976,False,0.9070398360054241,77.844,,39.9526378,,-113.475976,49.341,,39.9526378,,-113.475976,-49.36131286621094,-0.013202267698943615,-0.0011849015718325973,MISSION,,,,,,ACTIVE,-0.01,-0.13,-0.32,12,1,15,0,17760384,128,2
1732200216.643374,0.0,True,-0.08551844954490662,-0.2564457654953003,-0.38319793343544006,-1.0,55,15.353,0,1,False,,,,0,0,3,10,0.8098111152648926,342,28.503,,39.9526379,,-113.475976,False,0.29806752799777314,77.969,,39.9526377,,-113.4759782,49.466,,39.9526377,,-113.4759782,-49.490623474121094,-0.21744897961616516,-0.02114126831293106,MISSION,,,,,,ACTIVE,-0.06,-0.92,-0.27,12,1,15,0,17760384,128,2
1732200217.1498299,0.0,True,-0.2575613856315613,-0.19383178651332855,-0.9004077315330505,-1.0,54,15.341,0,1,False,,,,0,0,3,10,2.1945080757141113,310,28.503,,39.9526379,,-113.475976,False,0.8052935500018066,78.07,,39.9526369,,-113.4759859,49.567,,39.9526369,,-113.4759859,-49.58751678466797,-0.8583531379699707,-0.1001104936003685,MISSION,,,,,,ACTIVE,-0.19,-2.23,-0.18,12,1,15,0,17760384,128,2
1732200217.654075,0.0,True,-0.32680410146713257,-0.06073908507823944,-1.267911672592163,-1.0,54,15.329,0,1,False,,,,0,0,3,10,3.4807188510894775,288,28.503,,39.9526379,,-113.475976,False,0.19464814600360114,78.13,,39.9526355,,-113.4760002,49.627,,39.9526355,,-113.4760002,-49.64753341674805,-2.074129343032837,-0.2664244472980499,MISSION,,,,,,ACTIVE,-0.24,-3.53,-0.09,12,1,15,0,17760384,128,2
1732200218.1625814,0.0,True,-0.22422008216381073,0.0587153322994709,-1.5639358758926392,-1.0,53,15.311,0,1,False,,,,0,0,3,10,4.623605251312256,271,28.503,,39.9526379,,-113.475976,False,0.7060184529982507,78.145,,39.952634,,-113.476022,49.641,,39.952634,,-113.476022,-49.662044525146484,-3.93168044090271,-0.42764517664909363,MISSION,,,,,,ACTIVE,-0.14,-4.67,0.0,12,1,15,0,17760384,128,2
1732200218.6654665,0.0,True,-0.02639644220471382,0.0961725041270256,-1.7568447589874268,-1.0,52,15.3,0,1,False,,,,0,0,3,10,5.123446941375732,259,28.503,,39.9526379,,-113.475976,False,0.09749338199617341,78.114,,39.9526335,,-113.4760479,49.611,,39.9526335,,-113.4760479,-49.631446838378906,-6.142690181732178,-0.4821259677410126,MISSION,,,,,,ACTIVE,0.13,-5.16,0.01,12,1,15,0,17760384,128,2
1732200219.169216,0.0,True,0.03312003239989281,0.01317328866571188,-1.6603647470474243,-1.0,52,15.3,0,1,False,,,,0,0,3,10,5.137226104736328,264,28.503,,39.9526379,,-113.475976,False,0.5999215569972876,78.077,,39.9526343,,-113.476077,49.573,,39.9526343,,-113.476077,-49.5941276550293,-8.623570442199707,-0.39771053194999695,MISSION,,,,,,ACTIVE,0.33,-5.12,-0.03,12,1,15,0,17760384,128,2
1732200219.677505,0.0,True,0.043583061546087265,-0.0161123089492321,-1.553909182548523,-1.0,51,15.3,0,1,False,,,,0,0,3,10,5.002337455749512,270,28.503,,39.9526379,,-113.475976,False,0.1148512470026617,78.069,,39.9526356,,-113.4761062,49.565,,39.9526356,,-113.4761062,-49.58600616455078,-11.111621856689453,-0.24940916895866394,MISSION,,,,,,ACTIVE,0.33,-4.94,-0.08,12,1,15,0,17760384,128,2
1732200220.1994379,0.0,True,0.01930096186697483,-0.024900933727622032,-1.542489767074585,-1.0,51,15.3,0,1,False,,,,0,0,3,10,4.756143093109131,271,28.503,,39.9526379,,-113.475976,False,0.517132869004854,78.089,,39.9526368,,-113.476133,49.586,,39.9526368,,-113.476133,-49.60731887817383,-13.474655151367188,-0.11302704364061356,MISSION,,,,,,ACTIVE,0.25,-4.72,-0.08,12,1,15,0,17760384,128,2
1732200220.7067788,0.0,True,-0.02304287813603878,-0.026318291202187538,-1.5622117519378662,-1.0,51,15.3,0,1,False,,,,0,0,3,10,4.6021928787231445,270,28.503,,39.9526379,,-113.475976,False,0.038187446996744256,78.119,,39.9526375,,-113.4761585,49.615,,39.9526375,,-113.4761585,-49.636085510253906,-15.57275104522705,-0.03624437004327774,MISSION,,,,,,ACTIVE,0.15,-4.59,-0.06,12,1,15,0,17760384,128,2
1732200221.2114336,0.0,True,-0.05824603885412216,-0.02310924232006073,-1.5711902379989624,-1.0,51,15.3,0,1,False,,,,0,0,3,10,4.606068134307861,270,28.503,,39.9526379,,-113.475976,False,0.4223853110015625,78.142,,39.9526378,,-113.4761828,49.638,,39.9526378,,-113.4761828,-49.65882110595703,-17.640226364135742,-0.006731990724802017,MISSION,,,,,,ACTIVE,0.05,-4.61,-0.03,12,1,15,0,17760384,128,2
1732200221.7169626,0.0,True,-0.0758465975522995,-0.015324408188462257,-1.5718631744384766,-1.0,51,15.3,0,1,False,,,,0,0,3,10,4.7375874519348145,269,28.503,,39.9526379,,-113.475976,False,0.9285586979967775,78.156,,39.9526377,,-113.4762075,49.652,,39.9526377,,-113.4762075,-49.67311477661133,-19.749217987060547,-0.017077894881367683,MISSION,,,,,,ACTIVE,-0.01,-4.74,-0.01,12,1,15,0,17760384,128,2
1732200222.226518,0.0,True,-0.062447939068078995,-0.008604029193520546,-1.571778655052185,-1.0,51,15.3,0,1,False,,,,0,0,3,10,4.865088939666748,269,28.503,,39.9526379,,-113.475976,False,0.3261536529971636,78.16,,39.9526375,,-113.4762325,49.656,,39.9526375,,-113.4762325,-49.677093505859375,-21.880481719970703,-0.043785955756902695,MISSION,,,,,,ACTIVE,-0.05,-4.88,0.0,12,1,15,0,17760384,128,2
1732200222.7306685,0.0,True,-0.04957086220383644,-0.002850144635885954,-1.5727715492248535,-1.0,51,15.3,0,1,False,,,,0,0,3,10,4.964621543884277,269,28.503,,39.9526379,,-113.475976,False,0.8303162230004091,78.162,,39.9526372,,-113.4762573,49.658,,39.9526372,,-113.4762573,-49.67909240722656,-23.988819122314453,-0.07715756446123123,MISSION,,,,,,ACTIVE,-0.06,-4.96,0.0,12,1,15,0,17760384,128,2
1732200223.2346056,0.0,True,-0.039115872234106064,0.0004295416292734444,-1.573905110359192,-1.0,51,15.3,0,1,False,,,,0,0,3,10,5.013831615447998,269,28.503,,39.9526379,,-113.475976,False,0.21499198099627392,78.164,,39.9526368,,-113.4762839,49.66,,39.9526368,,-113.4762839,-49.68115234375,-26.29534339904785,-0.11482324451208115,MISSION,,,,,,ACTIVE,-0.06,-5.01,0.0,12,1,15,0,17760384,128,2
1732200223.7450156,0.0,True,-0.03225533664226532,0.0018476853147149086,-1.5742347240447998,-1.0,51,15.3,0,1,False,,,,0,0,3,10,5.0496344566345215,269,28.503,,39.9526379,,-113.475976,False,0.7304048119985964,78.168,,39.9526366,,-113.4763104,49.664,,39.9526366,,-113.4763104,-49.68490219116211,-28.514036178588867,-0.1419447958469391,MISSION,,,,,,ACTIVE,-0.05,-5.05,0.0,12,1,15,0,17760384,128,2
1732200224.251594,0.0,True,-0.0278670284897089,0.001937883091159165,-1.5743041038513184,-1.0,51,15.3,0,1,False,,,,0,0,3,10,5.066215515136719,269,28.503,,39.9526379,,-113.475976,False,0.12934071900235722,78.167,,39.9526364,,-113.4763375,49.663,,39.9526364,,-113.4763375,-49.683815002441406,-30.827550888061523,-0.16652800142765045,MISSION,,,,,,ACTIVE,-0.04,-5.06,0.0,12,1,15,0,17760384,128,2
1732200224.7617388,0.0,True,-0.026268189772963524,0.0016038360772654414,-1.5748436450958252,-1.0,51,15.3,0,1,False,,,,0,0,3,10,5.063051700592041,269,28.503,,39.9526379,,-113.475976,False,0.6402412620009272,78.166,,39.9526362,,-113.4763643,49.663,,39.9526362,,-113.4763643,-49.68351745605469,-33.10868453979492,-0.186168372631073,MISSION,,,,,,ACTIVE,-0.03,-5.06,0.0,12,1,15,0,17760384,128,2
1732200225.267053,0.0,True,-0.030180828645825386,-0.0005310855340212584,-1.5752620697021484,-1.0,51,15.3,0,1,False,,,,0,0,3,10,5.033717632293701,269,28.503,,39.9526379,,-113.475976,False,0.03149039899290074,78.166,,39.9526361,,-113.47639,49.663,,39.9526361,,-113.47639,-49.68375778198242,-35.305084228515625,-0.19889554381370544,MISSION,,,,,,ACTIVE,-0.02,-5.03,0.0,12,1,15,0,17760384,128,2
1732200225.7719939,0.0,True,-0.035634368658065796,-0.00487114954739809,-1.5751687288284302,-1.0,51,15.3,0,1,False,,,,0,0,3,10,5.0125250816345215,269,28.503,,39.9526379,,-113.475976,False,0.5380132579957717,78.169,,39.952636,,-113.4764171,49.665,,39.952636,,-113.4764171,-49.686038970947266,-37.61032485961914,-0.20216822624206543,MISSION,,,,,,ACTIVE,0.0,-5.0,0.0,12,1,15,0,17760384,128,2
1732200226.2752702,0.0,True,-0.039396077394485474,-0.008089818991720676,-1.5753934383392334,-1.0,51,15.3,0,1,False,,,,0,0,3,10,4.999204635620117,269,28.503,,39.9526379,,-113.475976,False,0.05059566899581114,78.171,,39.9526361,,-113.4764436,49.667,,39.9526361,,-113.4764436,-49.687782287597656,-39.869598388671875,-0.19917291402816772,MISSION,,,,,,ACTIVE,0.0,-4.99,0.0,12,1,15,0,17760384,128,2
1732200226.7840922,0.0,True,-0.04110844060778618,-0.009523877874016762,-1.5758209228515625,-1.0,51,15.3,0,1,False,,,,0,0,3,10,5.004550933837891,269,28.503,,39.9526379,,-113.475976,False,0.43991457000083756,78.172,,39.9526361,,-113.4764705,49.669,,39.9526361,,-113.4764705,-49.68955993652344,-42.16658401489258,-0.19727420806884766,MISSION,,,,,,ACTIVE,-0.02,-5.0,0.0,12,1,15,0,17760384,128,2
1732200227.2873578,0.0,True,-0.036790695041418076,-0.009070425294339657,-1.5761487483978271,-1.0,51,15.3,0,1,False,,,,0,0,3,10,5.016756534576416,269,28.503,,39.9526379,,-113.475976,False,0.9415575520033599,78.175,,39.952636,,-113.4764962,49.672,,39.952636,,-113.4764962,-49.692230224609375,-44.355281829833984,-0.20073339343070984,MISSION,,,,,,ACTIVE,-0.03,-5.01,0.0,12,1,15,0,17760384,128,2
1732200227.7917168,0.0,True,-0.03718148544430733,-0.009024657309055328,-1.5761255025863647,-1.0,51,15.3,0,1,False,,,,0,0,3,10,5.012839317321777,269,28.503,,39.9526379,,-113.475976,False,0.3360697850002907,78.177,,39.952636,,-113.4765228,49.673,,39.952636,,-113.4765228,-49.69395065307617,-46.66520690917969,-0.20959340035915375,MISSION,,,,,,ACTIVE,-0.04,-5.01,0.0,12,1,15,0,17760384,128,2
1732200228.3022382,0.0,True,-0.037456609308719635,-0.009146950207650661,-1.5761785507202148,-1.0,51,15.3,0,1,False,,,,0,0,3,10,5.011885643005371,269,28.503,,39.9526379,,-113.475976,False,0.8450367689947598,78.179,,39.9526359,,-113.47655,49.676,,39.9526359,,-113.47655,-49.696205139160156,-48.94302749633789,-0.22126136720180511,MISSION,,,,,,ACTIVE,-0.05,-5.01,0.0,12,1,15,0,17760384,128,2
1732200228.8076367,0.0,True,-0.03753373771905899,-0.008543507196009159,-1.5762451887130737,-1.0,51,15.3,0,1,False,,,,0,0,3,10,5.014369010925293,269,28.503,,39.9526379,,-113.475976,False,0.24034805900009815,78.181,,39.9526357,,-113.4765768,49.677,,39.9526357,,-113.4765768,-49.697872161865234,-51.226680755615234,-0.23570385575294495,MISSION,,,,,,ACTIVE,-0.06,-5.01,0.0,12,1,15,0,17760384,128,2
1732200229.3161745,0.0,True,-0.03354388102889061,-0.006927642971277237,-1.5760219097137451,-1.0,51,15.3,0,1,False,,,,0,0,3,10,5.028865814208984,269,28.503,,39.9526379,,-113.475976,False,0.7497129950061208,78.183,,39.9526356,,-113.4766042,49.679,,39.9526356,,-113.4766042,-49.6999397277832,-53.55877685546875,-0.2540300488471985,MISSION,,,,,,ACTIVE,-0.06,-5.02,0.0,12,1,15,0,17760384,128,2
1732200229.820406,0.0,True,-0.032508157193660736,-0.006145968567579985,-1.5763705968856812,-1.0,51,15.3,0,1,False,,,,0,0,3,10,5.022660255432129,269,28.503,,39.9526379,,-113.475976,False,0.1387819910014514,78.183,,39.9526354,,-113.4766301,49.679,,39.9526354,,-113.4766301,-49.70014953613281,-55.77129364013672,-0.2737872898578644,MISSION,,,,,,ACTIVE,-0.06,-5.02,0.0,12,1,15,0,17760384,128,2
1732200230.3308792,0.0,True,-0.028563236817717552,-0.003923559095710516,-1.5761761665344238,-1.0,51,15.3,0,1,False,,,,0,0,3,10,5.028906345367432,269,28.503,,39.9526379,,-113.475976,False,0.6535040740054683,78.184,,39.9526352,,-113.4766571,49.681,,39.9526352,,-113.4766571,-49.70151901245117,-58.067230224609375,-0.2991921901702881,MISSION,,,,,,ACTIVE,-0.06,-5.02,0.0,12,1,15,0,17760384,128,2
1732200230.8349245,0.0,True,-0.026190485805273056,-0.0017889075679704547,-1.5761613845825195,-1.0,51,15.3,0,1,False,,,,0,0,3,10,5.02467155456543,269,28.503,,39.9526379,,-113.475976,False,0.045562482002424076,78.185,,39.9526349,,-113.4766845,49.682,,39.9526349,,-113.4766845,-49.702701568603516,-60.400665283203125,-0.32754603028297424,MISSION,,,,,,ACTIVE,-0.06,-5.02,0.0,12,1,15,0,17760384,128,2
1732200231.3408542,0.0,True,-0.026933463290333748,-0.00047339347656816244,-1.5762782096862793,-1.0,51,15.3,0,1,False,,,,0,0,3,10,5.010611057281494,269,28.503,,39.9526379,,-113.475976,False,0.5512100360065233,78.186,,39.9526347,,-113.4767113,49.683,,39.9526347,,-113.4767113,-49.70375442504883,-62.68796920776367,-0.3552699387073517,MISSION,,,,,,ACTIVE,-0.05,-5.0,0.0,12,1,15,0,17760384,128,2
1732200231.8465664,0.0,True,-0.026050735265016556,0.000857920094858855,-1.5757043361663818,-1.0,51,15.3,0,1,False,,,,0,0,3,10,5.006964683532715,269,28.503,,39.9526379,,-113.475976,False,0.06209246299840743,78.19,,39.9526344,,-113.4767371,49.686,,39.9526344,,-113.4767371,-49.70683288574219,-64.88917541503906,-0.3805111050605774,MISSION,,,,,,ACTIVE,-0.04,-5.0,0.0,12,1,15,0,17760384,128,2
1732200232.363428,0.0,True,-0.026236021891236305,0.0009196698665618896,-1.576373815536499,-1.0,51,15.3,0,1,False,,,,0,0,3,10,4.999448776245117,269,28.503,,39.9526379,,-113.475976,False,0.46333721699920716,78.191,,39.9526342,,-113.4767653,49.688,,39.9526342,,-113.4767653,-49.70875549316406,-67.29010772705078,-0.40470361709594727,MISSION,,,,,,ACTIVE,-0.03,-4.99,0.0,12,1,15,0,17760384,128,2
1732200232.8780065,0.0,True,-0.02435062639415264,0.0013103863457217813,-1.5762280225753784,-1.0,51,15.3,0,1,False,,,,0,0,3,10,5.009997844696045,269,28.503,,39.9526379,,-113.475976,False,0.9650636890000897,78.191,,39.952634,,-113.4767925,49.688,,39.952634,,-113.4767925,-49.7087516784668,-69.6093978881836,-0.422577440738678,MISSION,,,,,,ACTIVE,-0.02,-5.01,0.0,12,1,15,0,17760384,128,2
1732200233.3915458,0.0,True,-0.02307562343776226,0.0008228116785176098,-1.5762102603912354,-1.0,51,15.3,0,1,False,,,,0,0,3,10,5.013926982879639,269,28.503,,39.9526379,,-113.475976,False,0.3738354529996286,78.192,,39.9526339,,-113.4768192,49.689,,39.9526339,,-113.4768192,-49.70936584472656,-71.88946533203125,-0.43699532747268677,MISSION,,,,,,ACTIVE,-0.02,-5.01,0.0,12,1,15,0,17760384,128,2
1732200233.8974023,0.0,True,-0.021639330312609673,0.0007721876609139144,-1.5760889053344727,-1.0,51,15.3,0,1,False,,,,0,0,3,10,5.017550945281982,269,28.503,,39.9526379,,-113.475976,False,0.8823568530060584,78.196,,39.9526338,,-113.4768465,49.692,,39.9526338,,-113.4768465,-49.71311569213867,-74.21027374267578,-0.4506095349788666,MISSION,,,,,,ACTIVE,-0.01,-5.01,0.0,12,1,15,0,17760384,128,2
1732200234.4051301,0.0,True,-0.022697625681757927,0.0002007899311138317,-1.5763189792633057,-1.0,51,15.3,0,1,False,,,,0,0,3,10,5.006239891052246,269,28.503,,39.9526379,,-113.475976,False,0.2729075509996619,78.199,,39.9526337,,-113.4768732,49.696,,39.9526337,,-113.4768732,-49.716392517089844,-76.4116439819336,-0.4622117578983307,MISSION,,,,,,ACTIVE,-0.01,-5.0,0.0,12,1,15,0,17760384,128,2
1732200234.9204946,0.0,True,-0.02098567597568035,0.0007278529810719192,-1.5763267278671265,-1.0,51,15.3,0,1,False,,,,0,0,3,10,5.011183738708496,269,28.503,,39.9526379,,-113.475976,False,0.7949980939956731,78.203,,39.9526336,,-113.4769005,49.7,,39.9526336,,-113.4769005,-49.72023391723633,-78.81373596191406,-0.4747079014778137,MISSION,,,,,,ACTIVE,-0.01,-5.01,0.0,12,1,15,0,17760384,128,2
1732200235.4305105,0.0,True,-0.022273816168308258,0.00014350490528158844,-1.5761953592300415,-1.0,51,15.3,0,1,False,,,,0,0,3,10,4.998814105987549,269,28.503,,39.9526379,,-113.475976,False,0.19640001399966422,78.205,,39.9526335,,-113.4769272,49.702,,39.9526335,,-113.4769272,-49.72248840332031,-81.09239959716797,-0.4876931607723236,MISSION,,,,,,ACTIVE,-0.01,-4.99,0.0,12,1,15,0,17760384,128,2
1732200235.941484,0.0,True,-0.02494235709309578,-0.0005080585251562297,-1.576115608215332,-1.0,51,15.3,0,1,False,,,,0,0,3,10,4.9917755126953125,269,28.503,,39.9526379,,-113.475976,False,0.7075030859996332,78.205,,39.9526334,,-113.4769543,49.701,,39.9526334,,-113.4769543,-49.72212600708008,-83.40316009521484,-0.49820569157600403,MISSION,,,,,,ACTIVE,0.0,-4.99,0.0,12,1,15,0,17760384,128,2
1732200236.449347,0.0,True,-0.0235524270683527,-0.0003146778035443276,-1.5756914615631104,-1.0,51,15.3,0,1,False,,,,0,0,3,10,5.00291109085083,269,28.503,,39.9526379,,-113.475976,False,0.1048601869988488,78.206,,39.9526333,,-113.476981,49.702,,39.9526333,,-113.476981,-49.72307586669922,-85.67718505859375,-0.5080075860023499,MISSION,,,,,,ACTIVE,-0.01,-5.0,0.0,12,1,15,0,17760384,128,2
1732200236.9563594,0.0,True,-0.02181740291416645,0.00023273236001841724,-1.5760104656219482,-1.0,51,15.3,0,1,False,,,,0,0,3,10,5.0122270584106445,269,28.503,,39.9526379,,-113.475976,False,0.6096954989989172,78.206,,39.9526332,,-113.4770068,49.702,,39.9526332,,-113.4770068,-49.72285842895508,-87.87803649902344,-0.5200212597846985,MISSION,,,,,,ACTIVE,-0.01,-5.01,0.0,12,1,15,0,17760384,128,2
1732200237.476578,0.0,True,-0.02217959240078926,-0.00046714337076991796,-1.5767658948898315,-1.0,51,15.3,0,1,False,,,,0,0,3,10,5.0052595138549805,269,28.503,,39.9526379,,-113.475976,False,0.017819488006352913,78.21,,39.9526331,,-113.477035,49.707,,39.9526331,,-113.477035,-49.72761154174805,-90.27997589111328,-0.5315894484519958,MISSION,,,,,,ACTIVE,-0.01,-5.0,0.0,12,1,15,0,17760384,128,2
1732200237.9836524,0.0,True,-0.02316960133612156,-0.0009717543143779039,-1.575844645500183,-1.0,51,15.3,0,1,False,,,,0,0,3,10,4.999366760253906,269,28.503,,39.9526379,,-113.475976,False,0.5273399020006764,78.216,,39.952633,,-113.4770622,49.712,,39.952633,,-113.4770622,-49.73298645019531,-92.60140991210938,-0.5412408113479614,MISSION,,,,,,ACTIVE,-0.01,-4.99,0.0,12,1,15,0,17760384,128,2
1732200238.4881418,0.0,True,-0.022569870576262474,-0.0018075297120958567,-1.5767405033111572,-1.0,51,15.3,0,1,False,,,,0,0,3,10,5.001376152038574,269,28.503,,39.9526379,,-113.475976,False,0.03795951099891681,78.216,,39.9526329,,-113.477088,49.713,,39.9526329,,-113.477088,-49.73357009887695,-94.8029556274414,-0.5486799478530884,MISSION,,,,,,ACTIVE,-0.01,-5.0,0.0,12,1,15,0,17760384,128,2
1732200238.9933105,0.0,True,-0.02305309846997261,-0.0028878948651254177,-1.575777530670166,-1.0,51,15.3,0,1,False,,,,0,0,3,10,4.994409561157227,269,28.503,,39.9526379,,-113.475976,False,0.4213750000053551,78.217,,39.9526328,,-113.4771148,49.714,,39.9526328,,-113.4771148,-49.73454666137695,-97.08489227294922,-0.5576207041740417,MISSION,,,,,,ACTIVE,-0.01,-4.99,0.0,12,1,15,0,17760384,128,2
