timestamp,airspeed,armed,attitude.pitch,attitude.roll,attitude.yaw,battery.current,battery.level,battery.voltage,commands.count,commands.next,ekf_ok,gimbal.pitch,gimbal.roll,gimbal.yaw,gps_0.eph,gps_0.epv,gps_0.fix_type,gps_0.satellites_visible,groundspeed,heading,home_location.alt,home_location.global_frame,home_location.lat,home_location.local_frame,home_location.lon,is_armable,last_heartbeat,location.global_frame.alt,location.global_frame.global_frame,location.global_frame.lat,location.global_frame.local_frame,location.global_frame.lon,location.global_relative_frame.alt,location.global_relative_frame.global_frame,location.global_relative_frame.lat,location.global_relative_frame.local_frame,location.global_relative_frame.lon,location.local_frame.down,location.local_frame.east,location.local_frame.north,ml_verdict,mode.name,mount_status[0],mount_status[1],mount_status[2],rangefinder.distance,rangefinder.voltage,system_status.state,timedelta,velocity[0],velocity[1],velocity[2],version.autopilot_type,version.major,version.minor,version.patch,version.raw_version,version.release,version.vehicle_type
1733417851.4235566,0.0,True,0.003542759455740452,0.0017238548025488853,0.2778710126876831,-1.0,100,16.181,0,0,False,,,,0,0,3,10,0.027673937380313873,15,28.498,,39.9526378,,-113.4759757,False,0.014109066993114538,28.494,,39.9526382,,-113.4759759,0.0,,39.9526382,,-113.4759759,0.004249251913279295,0.0149707505479455,0.024634765461087227,-1,MISSION,,,,,,ACTIVE,0,-0.02,-0.01,0.0,12,1,15,0,17760384,128,2
1733417851.5233686,0.0,True,0.0035963242407888174,0.0018593429122120142,0.2776831090450287,-1.0,100,16.179,0,0,False,,,,0,0,3,10,0.028961623087525368,15,28.498,,39.9526378,,-113.4759757,False,0.004944551008520648,28.494,,39.9526382,,-113.4759759,0.0,,39.9526382,,-113.4759759,0.004193377681076527,0.014188834466040134,0.023339414969086647,-1,MISSION,,,,,,ACTIVE,1733417851.5233686,-0.02,-0.01,0.0,12,1,15,0,17760384,128,2
1733417851.6274102,0.0,True,0.0034500572364777327,0.0017683154437690973,0.277543306350708,-1.0,100,16.179,0,0,False,,,,0,0,3,10,0.029197581112384796,15,28.498,,39.9526378,,-113.4759757,False,0.11304148699855432,28.495,,39.9526382,,-113.4759759,0.001,,39.9526382,,-113.4759759,0.0041299667209386826,0.013642077334225178,0.022408710792660713,-1,MISSION,,,,,,ACTIVE,0.10404157638549805,-0.02,-0.01,0.0,12,1,15,0,17760384,128,2
1733417851.7240336,0.0,True,0.0034587671980261803,0.0019198986701667309,0.27709150314331055,-1.0,100,16.179,0,0,False,,,,0,0,3,10,0.029486730694770813,15,28.498,,39.9526378,,-113.4759757,False,0.20936472700850572,28.495,,39.9526381,,-113.4759759,0.001,,39.9526381,,-113.4759759,0.003763225395232439,0.013158752582967281,0.021794570609927177,-1,MISSION,,,,,,ACTIVE,1733417851.619992,-0.02,-0.01,0.0,12,1,15,0,17760384,128,2
1733417851.8242912,0.0,True,0.003516650293022394,0.0017753151478245854,0.27720382809638977,-1.0,100,16.172,0,0,False,,,,0,0,3,10,0.030228158459067345,15,28.498,,39.9526378,,-113.4759757,False,0.3076677369972458,28.495,,39.9526381,,-113.4759759,0.001,,39.9526381,,-113.4759759,0.0032534869387745857,0.012684737332165241,0.021299518644809723,-1,MISSION,,,,,,ACTIVE,0.2042992115020752,-0.02,-0.01,0.0,12,1,15,0,17760384,128,2
1733417851.9246762,0.0,True,0.0035700839944183826,0.001954061212018132,0.27709701657295227,-1.0,100,16.172,0,0,False,,,,0,0,3,10,0.030853018164634705,15,28.498,,39.9526378,,-113.4759757,False,0.40952546399785206,28.496,,39.9526381,,-113.4759759,0.002,,39.9526381,,-113.4759759,0.002740601310506463,0.012052617967128754,0.02085893228650093,-1,MISSION,,,,,,ACTIVE,1733417851.720377,-0.02,-0.01,0.0,12,1,15,0,17760384,128,2
1733417852.0243254,0.0,True,0.003664604388177395,0.0016305656172335148,0.27716997265815735,-1.0,100,16.166,0,0,False,,,,0,0,3,10,0.031015876680612564,15,28.498,,39.9526378,,-113.4759757,False,0.5089975060109282,28.496,,39.9526381,,-113.4759759,0.002,,39.9526381,,-113.4759759,0.0023992371279746294,0.011634650640189648,0.020677950233221054,-1,MISSION,,,,,,ACTIVE,0.30394840240478516,-0.02,-0.01,0.0,12,1,15,0,17760384,128,2
1733417852.1244757,0.0,True,0.0034334168303757906,0.0016265155281871557,0.27696672081947327,-1.0,100,16.166,0,0,False,,,,0,0,3,10,0.029417645186185837,15,28.493,,39.9526382,,-113.4759758,False,0.6098135460051708,28.496,,39.9526381,,-113.4759759,0.002,,39.9526381,,-113.4759759,0.0022821538150310516,0.011563463136553764,0.020901303738355637,-1,MISSION,,,,,,ACTIVE,1733417851.8205273,-0.02,-0.01,0.0,12,1,15,0,17760384,128,2
1733417852.2247162,0.0,True,0.0034247159492224455,0.001603062148205936,0.27718186378479004,-1.0,100,16.16,0,0,False,,,,0,0,3,10,0.029369929805397987,15,28.493,,39.9526382,,-113.4759758,False,0.7073567360057496,28.496,,39.9526381,,-113.4759759,0.002,,39.9526381,,-113.4759759,0.002312637399882078,0.011708962731063366,0.021185236051678658,-1,MISSION,,,,,,ACTIVE,0.404188871383667,-0.02,-0.01,0.0,12,1,15,0,17760384,128,2
1733417852.3248527,0.0,True,0.0034508900716900826,0.001401799963787198,0.2770618200302124,-1.0,100,16.16,0,0,False,,,,0,0,3,10,0.029504358768463135,15,28.493,,39.9526382,,-113.4759758,False,0.8089403949998086,28.496,,39.9526381,,-113.4759759,0.002,,39.9526381,,-113.4759759,0.0022481242194771767,0.01198134571313858,0.021535249426960945,-1,MISSION,,,,,,ACTIVE,1733417851.9206638,-0.02,-0.01,0.0,12,1,15,0,17760384,128,2
1733417852.4276516,0.0,True,0.0035013691522181034,0.0014128695474937558,0.27715128660202026,-1.0,99,16.154,0,0,False,,,,0,0,3,10,0.029394278302788734,15,28.493,,39.9526382,,-113.4759758,False,0.911750685001607,28.497,,39.9526381,,-113.4759759,0.003,,39.9526381,,-113.4759759,0.0020419780630618334,0.012224072590470314,0.021851327270269394,-1,MISSION,,,,,,ACTIVE,0.5069878101348877,-0.02,-0.01,0.0,12,1,15,0,17760384,128,2
1733417852.5250163,0.0,True,0.0033855021465569735,0.001410648925229907,0.27727368474006653,-1.0,99,16.151,0,0,False,,,,0,0,3,10,0.028883371502161026,15,28.493,,39.9526382,,-113.4759758,False,0.0017988479958148673,28.497,,39.9526382,,-113.4759759,0.003,,39.9526382,,-113.4759759,0.0016647059237584472,0.012525239028036594,0.02247847244143486,-1,MISSION,,,,,,ACTIVE,1733417852.0180285,-0.02,-0.01,0.0,12,1,15,0,17760384,128,2
1733417852.6251504,0.0,True,0.0034222647082060575,0.0011976882815361023,0.27715346217155457,-1.0,99,16.151,0,0,False,,,,0,0,3,10,0.028883371502161026,15,28.493,,39.9526382,,-113.4759758,False,0.09999699599575251,28.497,,39.9526382,,-113.4759759,0.003,,39.9526382,,-113.4759759,0.001417173189111054,0.012671783566474915,0.023091934621334076,-1,MISSION,,,,,,ACTIVE,0.6071219444274902,-0.02,-0.02,0.0,12,1,15,0,17760384,128,2
1733417852.726223,0.0,True,0.003400486195459962,0.0011889326851814985,0.27722448110580444,-1.0,99,16.148,0,0,False,,,,0,0,3,10,0.030350644141435623,15,28.493,,39.9526382,,-113.4759758,False,0.09718782499840017,28.497,,39.9526382,,-113.4759759,0.003,,39.9526382,,-113.4759759,0.0011745477095246315,0.012561168521642685,0.02378598414361477,-1,MISSION,,,,,,ACTIVE,1733417852.119101,-0.02,-0.02,0.0,12,1,15,0,17760384,128,2
1733417852.8262734,0.0,True,0.0033261470962315798,0.0012288420693948865,0.27708202600479126,-1.0,99,16.148,0,0,False,,,,0,0,3,10,0.02897915616631508,15,28.493,,39.9526382,,-113.4759758,False,0.1989129870053148,28.498,,39.9526382,,-113.4759759,0.0,,39.9526382,,-113.4759759,0.0009569894755259156,0.012395008467137814,0.0243242047727108,-1,MISSION,,,,,,ACTIVE,0.7071723937988281,-0.01,-0.02,0.0,12,1,15,0,17760384,128,2
1733417852.9292703,0.0,True,0.0033191819675266743,0.0014539803378283978,0.27701514959335327,-1.0,99,16.143,0,0,False,,,,0,0,3,10,0.028380613774061203,15,28.493,,39.9526382,,-113.4759758,False,0.3019996780058136,28.498,,39.9526382,,-113.4759759,0.0,,39.9526382,,-113.4759759,0.0007116508204489946,0.012081642635166645,0.024805936962366104,-1,MISSION,,,,,,ACTIVE,1733417852.2220979,-0.01,-0.01,0.0,12,1,15,0,17760384,128,2
1733417853.0265274,0.0,True,0.003263046033680439,0.0013284413143992424,0.27682968974113464,-1.0,99,16.143,0,0,False,,,,0,0,3,10,0.028987688943743706,15,28.493,,39.9526382,,-113.4759758,False,0.39907663299527485,28.498,,39.9526382,,-113.4759759,0.0,,39.9526382,,-113.4759759,0.0005618645227514207,0.011619850061833858,0.024956494569778442,-1,MISSION,,,,,,ACTIVE,0.8044295310974121,-0.02,-0.02,0.0,12,1,15,0,17760384,128,2
1733417853.1267014,0.0,True,0.003244259860366583,0.0014775933232158422,0.2770059108734131,-1.0,98,16.137,0,0,False,,,,0,0,3,10,0.03005117177963257,15,28.493,,39.9526382,,-113.4759758,False,0.4972972940013278,28.498,,39.9526382,,-113.4759759,0.0,,39.9526382,,-113.4759759,0.0003599720075726509,0.011121057905256748,0.024928703904151917,-1,MISSION,,,,,,ACTIVE,1733417852.3222718,-0.02,-0.02,0.0,12,1,15,0,17760384,128,2
1733417853.227028,0.0,True,0.0030168003868311644,0.0017497234512120485,0.27651745080947876,-1.0,98,16.137,0,0,False,,,,0,0,3,10,0.029652105644345284,15,28.493,,39.9526382,,-113.4759758,False,0.5996008960064501,28.498,,39.9526382,,-113.4759759,0.0,,39.9526382,,-113.4759759,0.00020248547662049532,0.01055541168898344,0.024797718971967697,-1,MISSION,,,,,,ACTIVE,0.9047560691833496,-0.02,-0.02,0.0,12,1,15,0,17760384,128,2
1733417853.327014,0.0,True,0.003026369959115982,0.0020131319761276245,0.27645835280418396,-1.0,98,16.131,0,0,False,,,,0,0,3,10,0.030417563393712044,15,28.493,,39.9526382,,-113.4759758,False,0.6974671820062213,28.499,,39.9526382,,-113.4759759,0.001,,39.9526382,,-113.4759759,6.996901356615126e-05,0.010062584653496742,0.02485468052327633,-1,MISSION,,,,,,ACTIVE,1733417852.422258,-0.02,-0.02,0.0,12,1,15,0,17760384,128,2
1733417853.4274385,0.0,True,0.0030363579280674458,0.0017430525040253997,0.27674251794815063,-1.0,98,16.131,0,0,False,,,,0,0,3,10,0.031291231513023376,15,28.493,,39.9526382,,-113.4759758,False,0.7990140699985204,28.499,,39.9526382,,-113.4759759,0.001,,39.9526382,,-113.4759759,-0.0001483954838477075,0.009111895225942135,0.02511874958872795,-1,MISSION,,,,,,ACTIVE,1.0051805973052979,-0.01,-0.02,0.0,12,1,15,0,17760384,128,2
1733417853.5288348,0.0,True,0.002689308486878872,0.0015273739118129015,0.27668535709381104,-1.0,98,16.125,0,0,False,,,,0,0,3,10,0.030324654653668404,15,28.493,,39.9526382,,-113.4759758,False,0.9020514239964541,28.499,,39.9526382,,-113.475976,0.001,,39.9526382,,-113.475976,-0.0002947125758510083,0.008234159089624882,0.025479361414909363,-1,MISSION,,,,,,ACTIVE,1733417852.5236542,-0.01,-0.02,0.0,12,1,15,0,17760384,128,2
1733417853.630114,0.0,True,0.00255136308260262,0.0015479768626391888,0.27698636054992676,-1.0,98,16.125,0,0,False,,,,0,0,3,10,0.030324654653668404,15,28.493,,39.9526382,,-113.4759758,False,0.999643292001565,28.499,,39.9526382,,-113.475976,0.001,,39.9526382,,-113.475976,-0.0003191821160726249,0.007496970705688,0.026123128831386566,-1,MISSION,,,,,,ACTIVE,1.1064598560333252,-0.01,-0.02,0.0,12,1,15,0,17760384,128,2
1733417853.7302628,0.0,True,0.0025667892768979073,0.001465620705857873,0.27668046951293945,-1.0,98,16.121,0,0,False,,,,0,0,3,10,0.02912498265504837,15,28.493,,39.9526382,,-113.4759758,False,0.08829879498807713,28.499,,39.9526382,,-113.475976,0.001,,39.9526382,,-113.475976,-0.00033099675783887506,0.006674589589238167,0.027308547869324684,-1,MISSION,,,,,,ACTIVE,1733417852.623803,-0.01,-0.02,0.0,12,1,15,0,17760384,128,2
1733417853.830932,0.0,True,0.002607617760077119,0.001563866506330669,0.27633386850357056,-1.0,98,16.119,0,0,False,,,,0,0,3,10,0.027704473584890366,15,28.493,,39.9526382,,-113.4759758,False,0.08111198899860028,28.499,,39.9526382,,-113.475976,0.001,,39.9526382,,-113.475976,-0.00043362955329939723,0.005947149358689785,0.02846008725464344,-1,MISSION,,,,,,ACTIVE,1.2071290016174316,-0.01,-0.02,0.0,12,1,15,0,17760384,128,2
1733417853.9328566,0.0,True,0.0025472664274275303,0.001657834742218256,0.27646008133888245,-1.0,98,16.119,0,0,False,,,,0,0,3,10,0.02554784156382084,15,28.493,,39.9526382,,-113.4759758,False,0.18330548399535473,28.499,,39.9526382,,-113.475976,0.001,,39.9526382,,-113.475976,-0.0006524085183627903,0.004908032715320587,0.029798533767461777,-1,MISSION,,,,,,ACTIVE,1733417852.7257276,0.0,-0.02,0.0,12,1,15,0,17760384,128,2
1733417854.0311656,0.0,True,0.0029049660079181194,0.0016916285967454314,0.2766372263431549,-1.0,97,16.113,0,0,False,,,,0,0,3,10,0.024939266964793205,15,28.493,,39.9526382,,-113.4759758,False,0.2765305049979361,28.5,,39.9526382,,-113.475976,0.002,,39.9526382,,-113.475976,-0.0009771320037543774,0.004043362569063902,0.030861523002386093,-1,MISSION,,,,,,ACTIVE,1.3054380416870117,0.0,-0.02,0.0,12,1,15,0,17760384,128,2
1733417854.1314929,0.0,True,0.0026519226375967264,0.0016001325566321611,0.27668142318725586,-1.0,97,16.113,0,0,False,,,,0,0,3,10,0.0236866045743227,15,28.493,,39.9526382,,-113.4759758,False,0.37925795098999515,28.5,,39.9526382,,-113.475976,0.002,,39.9526382,,-113.475976,-0.0014139887643978,0.003085697302594781,0.03188001364469528,-1,MISSION,,,,,,ACTIVE,1733417852.8260548,0.0,-0.02,0.0,12,1,15,0,17760384,128,2
1733417854.2337549,0.0,True,0.0026545412838459015,0.00161698495503515,0.27687591314315796,-1.0,97,16.107,0,0,False,,,,0,0,3,10,0.022737406194210052,15,28.493,,39.9526382,,-113.4759758,False,0.4813114379940089,28.5,,39.9526382,,-113.475976,0.002,,39.9526382,,-113.475976,-0.0016743034357205033,0.00238292315043509,0.03260679915547371,-1,MISSION,,,,,,ACTIVE,1.4077000617980957,0.0,-0.02,0.0,12,1,15,0,17760384,128,2
1733417854.3321137,0.0,True,0.0025672658812254667,0.0018037754343822598,0.27686992287635803,-1.0,97,16.107,0,0,False,,,,0,0,3,10,0.021903909742832184,15,28.493,,39.9526382,,-113.4759758,False,0.5798434030002682,28.5,,39.9526382,,-113.475976,0.002,,39.9526382,,-113.475976,-0.001628375262953341,0.0018641503993421793,0.033271655440330505,-1,MISSION,,,,,,ACTIVE,1733417852.9244137,0.0,-0.02,0.0,12,1,15,0,17760384,128,2
1733417854.432196,0.0,True,0.0023295532446354628,0.001677316497080028,0.276544451713562,-1.0,97,16.101,0,0,False,,,,0,0,3,10,0.021571453660726547,15,28.497,,39.9526382,,-113.4759759,False,0.6814663479890442,28.5,,39.9526383,,-113.475976,0.002,,39.9526383,,-113.475976,-0.0014227151405066252,0.001656089792959392,0.033612463623285294,-1,MISSION,,,,,,ACTIVE,1.507782220840454,0.0,-0.02,0.0,12,1,15,0,17760384,128,2
1733417854.531933,0.0,True,0.0019370216177776456,0.001820949255488813,0.2768481373786926,-1.0,97,16.101,0,0,False,,,,0,0,3,10,0.021071186289191246,15,28.497,,39.9526382,,-113.4759759,False,0.7758382169995457,28.5,,39.9526383,,-113.475976,0.002,,39.9526383,,-113.475976,-0.001025872421450913,0.0018085009651258588,0.033829353749752045,-1,MISSION,,,,,,ACTIVE,1733417853.0241508,0.0,-0.01,0.0,12,1,15,0,17760384,128,2
1733417854.6376622,0.0,True,0.0021572380792349577,0.0017743810312822461,0.2769125998020172,-1.0,96,16.095,0,0,False,,,,0,0,3,10,0.020083321258425713,15,28.497,,39.9526382,,-113.4759759,False,0.8872681109933183,28.499,,39.9526383,,-113.475976,0.001,,39.9526383,,-113.475976,-0.0007119873771443963,0.0019964708480983973,0.033963028341531754,-1,MISSION,,,,,,ACTIVE,1.613511323928833,0.0,-0.01,0.0,12,1,15,0,17760384,128,2
1733417854.7378397,0.0,True,0.0021395341027528048,0.0017190695507451892,0.27695611119270325,-1.0,96,16.095,0,0,False,,,,0,0,3,10,0.020083321258425713,15,28.497,,39.9526382,,-113.4759759,False,0.9881160459917737,28.499,,39.9526383,,-113.475976,0.001,,39.9526383,,-113.475976,-0.0005509852198883891,0.002077716402709484,0.03421888127923012,-1,MISSION,,,,,,ACTIVE,1733417853.1243284,0.0,-0.01,0.0,12,1,15,0,17760384,128,2
1733417854.8411312,0.0,True,-0.0004832026024814695,0.0028554066084325314,0.277265727519989,-1.0,96,16.091,0,0,False,,,,0,0,3,10,0.019293101504445076,15,28.497,,39.9526382,,-113.4759759,False,0.08500609100155998,28.499,,39.9526383,,-113.475976,0.001,,39.9526383,,-113.475976,-0.0004932283191010356,0.00222978787496686,0.03449760004878044,-1,MISSION,,,,,,ACTIVE,1.7168028354644775,0.0,-0.01,0.0,12,1,15,0,17760384,128,2
1733417854.9427795,0.0,True,-0.006121096201241016,0.005886797793209553,0.2772594392299652,-1.0,96,16.089,0,0,False,,,,0,0,3,10,0.01339035015553236,15,28.497,,39.9526382,,-113.4759759,False,0.08540313599223737,28.5,,39.9526383,,-113.475976,0.002,,39.9526383,,-113.475976,-0.001497321529313922,0.00295534310862422,0.03479522839188576,-1,MISSION,,,,,,ACTIVE,1733417853.2259767,0.0,0.0,-0.02,12,1,15,0,17760384,128,2
1733417855.0418687,0.0,True,-0.007258648984134197,0.006576939951628447,0.2772916257381439,-1.0,96,16.089,0,0,False,,,,0,0,3,10,0.0063404059037566185,15,28.497,,39.9526382,,-113.4759759,False,0.18264483599341474,28.504,,39.9526383,,-113.475976,0.006,,39.9526383,,-113.475976,-0.005728015676140785,0.0046876296401023865,0.03548822179436684,-1,MISSION,,,,,,ACTIVE,1.815891981124878,0.0,0.0,-0.06,12,1,15,0,17760384,128,2
1733417855.1456604,0.0,True,-0.005750366020947695,0.0051766796968877316,0.27723929286003113,-1.0,96,16.083,0,0,False,,,,0,0,3,10,0.012245946563780308,15,28.497,,39.9526382,,-113.4759759,False,0.2863366609963123,28.513,,39.9526383,,-113.475976,0.015,,39.9526383,,-113.475976,-0.01458023302257061,0.007505723740905523,0.036670491099357605,-1,MISSION,,,,,,ACTIVE,1733417853.3297684,0.01,0.01,-0.12,12,1,15,0,17760384,128,2
1733417855.242324,0.0,True,-0.003218294121325016,0.003055840963497758,0.27733808755874634,-1.0,96,16.083,0,0,False,,,,0,0,3,10,0.024660620838403702,15,28.497,,39.9526382,,-113.4759759,False,0.38252879699575715,28.525,,39.9526383,,-113.4759759,0.027,,39.9526383,,-113.4759759,-0.027509203180670738,0.010720468126237392,0.038016028702259064,-1,MISSION,,,,,,ACTIVE,1.9125556945800781,0.01,0.02,-0.17,12,1,15,0,17760384,128,2
1733417855.3418868,0.0,True,-0.0007380302413366735,0.0007902312208898365,0.277656227350235,-1.0,95,16.077,0,0,False,,,,0,0,3,10,0.03339816629886627,15,28.497,,39.9526382,,-113.4759759,False,0.4803866079892032,28.542,,39.9526383,,-113.4759759,0.044,,39.9526383,,-113.4759759,-0.04580056294798851,0.013968734070658684,0.03932800143957138,-1,MISSION,,,,,,ACTIVE,1733417853.429331,0.01,0.03,-0.27,12,1,15,0,17760384,128,2
1733417855.4419909,0.0,True,0.0010981832165271044,-0.0011169901117682457,0.27763137221336365,-1.0,95,16.077,0,0,False,,,,0,0,3,10,0.0386764332652092,15,28.497,,39.9526382,,-113.4759759,False,0.5828104199899826,28.572,,39.9526383,,-113.4759758,0.074,,39.9526383,,-113.4759758,-0.07664965093135834,0.018054751679301262,0.041252024471759796,-1,MISSION,,,,,,ACTIVE,2.012659788131714,0.02,0.03,-0.37,12,1,15,0,17760384,128,2
1733417855.542779,0.0,True,0.0030316137708723545,-0.0021821672562509775,0.27743303775787354,-1.0,95,16.071,0,0,False,,,,0,0,3,10,0.04065804183483124,15,28.497,,39.9526382,,-113.4759759,False,0.6848968679987593,28.614,,39.9526383,,-113.4759758,0.116,,39.9526383,,-113.4759758,-0.10839603841304779,0.02140643075108528,0.04327613115310669,-1,MISSION,,,,,,ACTIVE,1733417853.5301192,0.02,0.03,-0.47,12,1,15,0,17760384,128,2
1733417855.642297,0.0,True,0.004355421755462885,-0.003250598907470703,0.2775336503982544,-1.0,95,16.071,0,0,False,,,,0,0,3,10,0.042515065521001816,15,28.497,,39.9526382,,-113.4759759,False,0.7823835239978507,28.652,,39.9526384,,-113.4759757,0.154,,39.9526384,,-113.4759757,-0.15711529552936554,0.025952251628041267,0.04619283601641655,-1,MISSION,,,,,,ACTIVE,2.112177848815918,0.02,0.03,-0.53,12,1,15,0,17760384,128,2
1733417855.7424333,0.0,True,0.005552651360630989,-0.004149732645601034,0.27728453278541565,-1.0,95,16.071,0,0,False,,,,0,0,3,10,0.042515065521001816,15,28.497,,39.9526382,,-113.4759759,False,0.8848355359950801,28.704,,39.9526384,,-113.4759757,0.206,,39.9526384,,-113.4759757,-0.20488053560256958,0.029692500829696655,0.048527006059885025,-1,MISSION,,,,,,ACTIVE,1733417853.6302555,0.01,0.03,-0.61,12,1,15,0,17760384,128,2
1733417855.8450756,0.0,True,0.006153578404337168,-0.004832288715988398,0.27723032236099243,-1.0,95,16.065,0,0,False,,,,0,0,3,10,0.039616432040929794,15,28.497,,39.9526382,,-113.4759759,False,0.9827184969908558,28.752,,39.9526384,,-113.4759757,0.254,,39.9526384,,-113.4759757,-0.2584714889526367,0.033551644533872604,0.05070587620139122,-1,MISSION,,,,,,ACTIVE,2.214820146560669,0.01,0.03,-0.67,12,1,15,0,17760384,128,2
1733417855.9472196,0.0,True,0.006437091156840324,-0.005524311680346727,0.2771105170249939,-1.0,94,16.061,0,0,False,,,,0,0,3,10,0.03617221862077713,15,28.497,,39.9526382,,-113.4759759,False,0.0848104559991043,28.822,,39.9526384,,-113.4759756,0.324,,39.9526384,,-113.4759756,-0.3121240437030792,0.0370766706764698,0.05228070542216301,-1,MISSION,,,,,,ACTIVE,1733417853.7323995,0.01,0.03,-0.75,12,1,15,0,17760384,128,2
1733417856.0478196,0.0,True,0.0069350567646324635,-0.00605886010453105,0.2774643301963806,-1.0,94,16.059,0,0,False,,,,0,0,3,10,0.03149808198213577,15,28.497,,39.9526382,,-113.4759759,False,0.07581275799020659,28.881,,39.9526384,,-113.4759756,0.384,,39.9526384,,-113.4759756,-0.3890529274940491,0.041655898094177246,0.05379144847393036,-1,MISSION,,,,,,ACTIVE,2.315420150756836,0.0,0.02,-0.81,12,1,15,0,17760384,128,2
1733417856.1482139,0.0,True,0.007306107319891453,-0.0069501218385994434,0.27763548493385315,-1.0,94,16.059,0,0,False,,,,0,0,3,10,0.02630382776260376,15,28.497,,39.9526382,,-113.4759759,False,0.17829269399226177,28.959,,39.9526384,,-113.4759755,0.461,,39.9526384,,-113.4759755,-0.46042221784591675,0.045374367386102676,0.054866012185811996,-1,MISSION,,,,,,ACTIVE,1733417853.8327937,0.0,0.02,-0.88,12,1,15,0,17760384,128,2
1733417856.248662,0.0,True,0.007299464661628008,-0.0072574736550450325,0.2773371934890747,-1.0,94,16.053,0,0,False,,,,0,0,3,10,0.023441219702363014,15,28.497,,39.9526382,,-113.4759759,False,0.28023321100044996,29.029,,39.9526385,,-113.4759755,0.531,,39.9526385,,-113.4759755,-0.5373566746711731,0.04895126447081566,0.055706314742565155,-1,MISSION,,,,,,ACTIVE,2.4158682823181152,0.0,0.02,-0.94,12,1,15,0,17760384,128,2
1733417856.349094,0.0,True,0.007469058968126774,-0.007567225024104118,0.2775600552558899,-1.0,94,16.053,0,0,False,,,,0,0,3,10,0.017410442233085632,15,28.497,,39.9526382,,-113.4759759,False,0.3811304080008995,29.126,,39.9526385,,-113.4759754,0.628,,39.9526385,,-113.4759754,-0.6117305159568787,0.0519392304122448,0.05619329959154129,-1,MISSION,,,,,,ACTIVE,1733417853.9332256,0.0,0.01,-1.01,12,1,15,0,17760384,128,2
1733417856.4482636,0.0,True,0.007330942898988724,-0.0075629595667123795,0.2774594724178314,-1.0,94,16.047,0,0,False,,,,0,0,3,10,0.013089912012219429,15,28.497,,39.9526382,,-113.4759759,False,0.4762015739979688,29.205,,39.9526385,,-113.4759754,0.707,,39.9526385,,-113.4759754,-0.7147263884544373,0.05536874383687973,0.05636904388666153,-1,MISSION,,,,,,ACTIVE,2.515038013458252,0.0,0.01,-1.06,12,1,15,0,17760384,128,2
1733417856.5486968,0.0,True,0.00720745325088501,-0.007774428464472294,0.27763038873672485,-1.0,94,16.047,0,0,False,,,,0,0,3,10,0.010566402226686478,15,28.497,,39.9526382,,-113.4759759,False,0.5785184799897252,29.306,,39.9526385,,-113.4759754,0.808,,39.9526385,,-113.4759754,-0.7990517616271973,0.057810649275779724,0.05631179362535477,-1,MISSION,,,,,,ACTIVE,1733417854.0336587,0.0,0.0,-1.13,12,1,15,0,17760384,128,2
1733417856.6486604,0.0,True,0.007210628129541874,-0.008069762960076332,0.2780160903930664,-1.0,93,16.041,0,0,False,,,,0,0,3,10,0.00940812285989523,15,28.497,,39.9526382,,-113.4759759,False,0.680100166995544,29.395,,39.9526385,,-113.4759753,0.898,,39.9526385,,-113.4759753,-0.906029224395752,0.060421328991651535,0.056065600365400314,-1,MISSION,,,,,,ACTIVE,2.615001678466797,0.0,0.0,-1.18,12,1,15,0,17760384,128,2
1733417856.7485456,0.0,True,0.006935912184417248,-0.00813903659582138,0.27787429094314575,-1.0,93,16.041,0,0,False,,,,0,0,3,10,0.01245220098644495,15,28.497,,39.9526382,,-113.4759759,False,0.7804593710025074,29.518,,39.9526385,,-113.4759753,1.02,,39.9526385,,-113.4759753,-1.0095411539077759,0.06229621544480324,0.05570341274142265,-1,MISSION,,,,,,ACTIVE,1733417854.133544,-0.01,0.0,-1.25,12,1,15,0,17760384,128,2
1733417856.8495142,0.0,True,0.0064122178591787815,-0.007843242026865482,0.27804726362228394,-1.0,93,16.041,0,0,False,,,,0,0,3,10,0.01245220098644495,15,28.497,,39.9526382,,-113.4759759,False,0.8807028599985642,29.617,,39.9526384,,-113.4759753,1.119,,39.9526384,,-113.4759753,-1.138066291809082,0.06371705234050751,0.054720234125852585,-1,MISSION,,,,,,ACTIVE,2.715970277786255,-0.01,0.0,-1.29,12,1,15,0,17760384,128,2
1733417856.9520729,0.0,True,0.005549772642552853,-0.007558615878224373,0.2781873345375061,-1.0,93,16.035,0,0,False,,,,0,0,3,10,0.016939423978328705,15,28.497,,39.9526382,,-113.4759759,False,0.9785471029899782,29.738,,39.9526384,,-113.4759753,1.24,,39.9526384,,-113.4759753,-1.2291524410247803,0.06439854949712753,0.05381695181131363,-1,MISSION,,,,,,ACTIVE,1733417854.2361026,-0.01,-0.01,-1.31,12,1,15,0,17760384,128,2
1733417857.0531251,0.0,True,0.005349110811948776,-0.007341689895838499,0.27835750579833984,-1.0,93,16.031,0,0,False,,,,0,0,3,10,0.021928556263446808,15,28.497,,39.9526382,,-113.4759759,False,0.08011104101024102,29.87,,39.9526384,,-113.4759753,1.373,,39.9526384,,-113.4759753,-1.3513747453689575,0.06506218761205673,0.052449312061071396,-1,MISSION,,,,,,ACTIVE,2.8170225620269775,-0.02,-0.01,-1.32,12,1,15,0,17760384,128,2
1733417857.1532602,0.0,True,0.004567563533782959,-0.007051588501781225,0.27840638160705566,-1.0,93,16.029,0,0,False,,,,0,0,3,10,0.026886992156505585,15,28.497,,39.9526382,,-113.4759759,False,0.07116244400094729,29.974,,39.9526384,,-113.4759753,1.476,,39.9526384,,-113.4759753,-1.4852683544158936,0.06500045955181122,0.0508335717022419,-1,MISSION,,,,,,ACTIVE,1733417854.3362377,-0.01,-0.02,-1.32,12,1,15,0,17760384,128,2
1733417857.2537825,0.0,True,0.0043229288421571255,-0.006205343641340733,0.2785051465034485,-1.0,93,16.029,0,0,False,,,,0,0,3,10,0.03289002552628517,15,28.497,,39.9526382,,-113.4759759,False,0.17406607000157237,30.099,,39.9526384,,-113.4759753,1.601,,39.9526384,,-113.4759753,-1.5998892784118652,0.06425490975379944,0.04943264275789261,-1,MISSION,,,,,,ACTIVE,2.9175448417663574,-0.02,-0.02,-1.33,12,1,15,0,17760384,128,2
1733417857.3546555,0.0,True,0.003889433341100812,-0.00576827535405755,0.29475265741348267,-1.0,92,16.023,0,0,False,,,,0,0,3,10,0.03489774465560913,15,28.497,,39.9526382,,-113.4759759,False,0.27545767300762236,30.204,,39.9526384,,-113.4759753,1.706,,39.9526384,,-113.4759753,-1.715627670288086,0.06310950964689255,0.04823121428489685,-1,MISSION,,,,,,ACTIVE,1733417854.4371107,-0.02,-0.02,-1.34,12,1,15,0,17760384,128,2
1733417857.454214,0.0,True,0.0037051024846732616,-0.005098637193441391,0.2941879630088806,-1.0,92,16.023,0,0,False,,,,0,0,3,10,0.03726061061024666,16,28.497,,39.9526382,,-113.4759759,False,0.3734788709989516,30.342,,39.9526384,,-113.4759753,1.844,,39.9526384,,-113.4759753,-1.8217687606811523,0.06214580312371254,0.04721302539110184,-1,MISSION,,,,,,ACTIVE,3.017103433609009,-0.02,-0.02,-1.35,12,1,15,0,17760384,128,2
1733417857.5538201,0.0,True,0.0036108531057834625,-0.005031596403568983,0.29296818375587463,-1.0,92,16.017,0,0,False,,,,0,0,3,10,0.03698442876338959,16,28.497,,39.9526382,,-113.4759759,False,0.47147760599909816,30.449,,39.9526384,,-113.4759753,1.951,,39.9526384,,-113.4759753,-1.961147665977478,0.061055731028318405,0.04604406654834747,-1,MISSION,,,,,,ACTIVE,1733417854.5367167,-0.02,-0.03,-1.36,12,1,15,0,17760384,128,2
1733417857.6560426,0.0,True,0.0035489932633936405,-0.005205990746617317,0.2927957773208618,-1.0,92,16.017,0,0,False,,,,0,0,3,10,0.037663307040929794,16,28.497,,39.9526382,,-113.4759759,False,0.573490196999046,30.579,,39.9526384,,-113.4759753,2.081,,39.9526384,,-113.4759753,-2.0693318843841553,0.06035243719816208,0.045140016824007034,-1,MISSION,,,,,,ACTIVE,3.119325876235962,-0.02,-0.03,-1.37,12,1,15,0,17760384,128,2
1733417857.7573853,0.0,True,0.00339954299852252,-0.004870847798883915,0.293378084897995,-1.0,92,16.011,0,0,False,,,,0,0,3,10,0.037758711725473404,16,28.497,,39.9526382,,-113.4759759,False,0.6755166650109459,30.688,,39.9526383,,-113.4759753,2.19,,39.9526383,,-113.4759753,-2.1999826431274414,0.05967845395207405,0.04409252107143402,-1,MISSION,,,,,,ACTIVE,1733417854.6380594,-0.01,-0.03,-1.37,12,1,15,0,17760384,128,2
1733417857.8587751,0.0,True,0.003437746549025178,-0.0047183530405163765,0.2949528694152832,-1.0,92,16.011,0,0,False,,,,0,0,3,10,0.03819269314408302,16,28.497,,39.9526382,,-113.4759759,False,0.7795095610053977,30.83,,39.9526383,,-113.4759754,2.332,,39.9526383,,-113.4759754,-2.3207945823669434,0.059136901050806046,0.04302537068724632,-1,MISSION,,,,,,ACTIVE,3.2207157611846924,-0.02,-0.03,-1.38,12,1,15,0,17760384,128,2
1733417857.9597285,0.0,True,0.002980256685987115,-0.004746240098029375,0.29582124948501587,-1.0,92,16.011,0,0,False,,,,0,0,3,10,0.03819269314408302,16,28.497,,39.9526382,,-113.4759759,False,0.875808605007478,30.941,,39.9526383,,-113.4759754,2.443,,39.9526383,,-113.4759754,-2.464674234390259,0.05828814208507538,0.04168382287025452,-1,MISSION,,,,,,ACTIVE,1733417854.7390127,-0.01,-0.03,-1.39,12,1,15,0,17760384,128,2
1733417858.0590205,0.0,True,0.0029770892579108477,-0.004575006198137999,0.2965433597564697,-1.0,91,16.005,0,0,False,,,,0,0,3,10,0.03990298509597778,16,28.497,,39.9526382,,-113.4759759,False,0.9784530470060417,31.075,,39.9526383,,-113.4759754,2.577,,39.9526383,,-113.4759754,-2.5648932456970215,0.057526230812072754,0.04061321169137955,-1,MISSION,,,,,,ACTIVE,3.320007801055908,-0.02,-0.03,-1.39,12,1,15,0,17760384,128,2
1733417858.1596498,0.0,True,0.0027705354150384665,-0.004220993258059025,0.29621371626853943,-1.0,91,16.001,0,0,False,,,,0,0,3,10,0.04091661423444748,16,28.497,,39.9526382,,-113.4759759,False,0.07558462100860197,31.187,,39.9526383,,-113.4759754,2.689,,39.9526383,,-113.4759754,-2.699413299560547,0.05638521909713745,0.03920597583055496,-1,MISSION,,,,,,ACTIVE,1733417854.839642,-0.01,-0.03,-1.4,12,1,15,0,17760384,128,2
1733417858.261215,0.0,True,0.0026854134630411863,-0.0037556050810962915,0.2956617772579193,-1.0,91,15.999,0,0,False,,,,0,0,3,10,0.040962766855955124,16,28.497,,39.9526382,,-113.4759759,False,0.06921899599547032,31.333,,39.9526383,,-113.4759754,2.836,,39.9526383,,-113.4759754,-2.84618878364563,0.05492277815937996,0.03788366913795471,-1,MISSION,,,,,,ACTIVE,3.4215729236602783,-0.01,-0.03,-1.41,12,1,15,0,17760384,128,2
1733417858.3605723,0.0,True,0.002893096301704645,-0.003701870096847415,0.2953462600708008,-1.0,91,15.999,0,0,False,,,,0,0,3,10,0.04013194516301155,16,28.497,,39.9526382,,-113.4759759,False,0.16859273599402513,31.447,,39.9526383,,-113.4759754,2.949,,39.9526383,,-113.4759754,-2.9596636295318604,0.053829729557037354,0.03694246709346771,-1,MISSION,,,,,,ACTIVE,1733417854.9389994,-0.01,-0.03,-1.41,12,1,15,0,17760384,128,2
1733417858.4610422,0.0,True,0.002224414609372616,-0.0037254078779369593,0.29510465264320374,-1.0,91,15.993,0,0,False,,,,0,0,3,10,0.040173113346099854,16,28.497,,39.9526382,,-113.4759759,False,0.26731669600121677,31.584,,39.9526383,,-113.4759754,3.086,,39.9526383,,-113.4759754,-3.0736563205718994,0.052650175988674164,0.03594919294118881,-1,MISSION,,,,,,ACTIVE,3.522042751312256,-0.01,-0.03,-1.42,12,1,15,0,17760384,128,2
1733417858.5625396,0.0,True,0.00201267097145319,-0.003334990469738841,0.29518231749534607,-1.0,91,15.993,0,0,False,,,,0,0,3,10,0.04215753823518753,16,28.497,,39.9526382,,-113.4759759,False,0.3683779099956155,31.698,,39.9526383,,-113.4759754,3.2,,39.9526383,,-113.4759754,-3.211097478866577,0.051010530441999435,0.03495633229613304,-1,MISSION,,,,,,ACTIVE,1733417855.0404968,-0.01,-0.03,-1.42,12,1,15,0,17760384,128,2
1733417858.6631978,0.0,True,0.001783894025720656,-0.0030313816387206316,0.2950899600982666,-1.0,90,15.987,0,0,False,,,,0,0,3,10,0.04050954431295395,16,28.497,,39.9526382,,-113.4759759,False,0.47165800900256727,31.848,,39.9526383,,-113.4759755,3.35,,39.9526383,,-113.4759755,-3.3607466220855713,0.049073684960603714,0.03378670662641525,-1,MISSION,,,,,,ACTIVE,3.6227009296417236,-0.01,-0.03,-1.43,12,1,15,0,17760384,128,2
1733417858.7645695,0.0,True,0.002048698952421546,-0.0032416842877864838,0.2954690158367157,-1.0,90,15.987,0,0,False,,,,0,0,3,10,0.03958369418978691,16,28.497,,39.9526382,,-113.4759759,False,0.5735866189934313,31.987,,39.9526382,,-113.4759755,3.489,,39.9526382,,-113.4759755,-3.4764115810394287,0.04754640907049179,0.03286227211356163,-1,MISSION,,,,,,ACTIVE,1733417855.1418686,-0.01,-0.03,-1.43,12,1,15,0,17760384,128,2
1733417858.863775,0.0,True,0.0020604433957487345,-0.0028998081106692553,0.2954789698123932,-1.0,90,15.98,0,0,False,,,,0,0,3,10,0.03874368220567703,16,28.497,,39.9526382,,-113.4759759,False,0.6728861960000359,32.103,,39.9526382,,-113.4759755,3.605,,39.9526382,,-113.4759755,-3.615777015686035,0.0456305630505085,0.031634747982025146,-1,MISSION,,,,,,ACTIVE,3.7219064235687256,-0.01,-0.03,-1.44,12,1,15,0,17760384,128,2
1733417858.9644766,0.0,True,0.0021076786797493696,-0.0027425852604210377,0.2953501343727112,-1.0,90,15.98,0,0,False,,,,0,0,3,10,0.03869609907269478,16,28.497,,39.9526382,,-113.4759759,False,0.773655304001295,32.254,,39.9526382,,-113.4759755,3.756,,39.9526382,,-113.4759755,-3.7438669204711914,0.043935757130384445,0.0303227249532938,-1,MISSION,,,,,,ACTIVE,1733417855.2425702,-0.01,-0.03,-1.44,12,1,15,0,17760384,128,2
1733417859.0646055,0.0,True,0.001479312195442617,-0.0023508903104811907,0.2950476408004761,-1.0,90,15.98,0,0,False,,,,0,0,3,10,0.03927658125758171,16,28.497,,39.9526382,,-113.4759759,False,0.8711477259930689,32.371,,39.9526382,,-113.4759756,3.873,,39.9526382,,-113.4759756,-3.883725166320801,0.0417441725730896,0.028561538085341454,-1,MISSION,,,,,,ACTIVE,3.822035312652588,-0.01,-0.03,-1.44,12,1,15,0,17760384,128,2
1733417859.164698,0.0,True,0.0008948066970333457,-0.0019279266707599163,0.2951298654079437,-1.0,90,15.974,0,0,False,,,,0,0,3,10,0.03885497897863388,16,28.497,,39.9526382,,-113.4759759,False,0.9734170369920321,32.511,,39.9526382,,-113.4759756,4.013,,39.9526382,,-113.4759756,-4.000649452209473,0.039924025535583496,0.026938719674944878,-1,MISSION,,,,,,ACTIVE,1733417855.3426626,-0.01,-0.03,-1.45,12,1,15,0,17760384,128,2
1733417859.264813,0.0,True,0.0004951207665726542,-0.0020969274919480085,0.2950771152973175,-1.0,89,15.971,0,0,False,,,,0,0,3,10,0.03792882710695267,16,28.497,,39.9526382,,-113.4759759,False,0.06653855300100986,32.628,,39.9526382,,-113.4759756,4.13,,39.9526382,,-113.4759756,-4.141467571258545,0.0378170907497406,0.024880262091755867,-1,MISSION,,,,,,ACTIVE,3.9221503734588623,-0.01,-0.03,-1.45,12,1,15,0,17760384,128,2
1733417859.3649938,0.0,True,5.9738202253356576e-05,-0.001979611348360777,0.2951541841030121,-1.0,89,15.968,0,0,False,,,,0,0,3,10,0.03744637966156006,16,28.497,,39.9526382,,-113.4759759,False,0.0626256159885088,32.781,,39.9526382,,-113.4759756,4.284,,39.9526382,,-113.4759756,-4.282876968383789,0.03583773970603943,0.02266722172498703,-1,MISSION,,,,,,ACTIVE,1733417855.4428434,-0.01,-0.03,-1.46,12,1,15,0,17760384,128,2
1733417859.4656296,0.0,True,-1.614884240552783e-06,-0.0018732076277956367,0.29511934518814087,-1.0,89,15.968,0,0,False,,,,0,0,3,10,0.03514937683939934,16,28.497,,39.9526382,,-113.4759759,False,0.16100943798664957,32.9,,39.9526381,,-113.4759756,4.402,,39.9526381,,-113.4759756,-4.412927627563477,0.03422117605805397,0.020605511963367462,-1,MISSION,,,,,,ACTIVE,4.0227861404418945,-0.01,-0.03,-1.46,12,1,15,0,17760384,128,2
1733417859.5658348,0.0,True,-0.0005177528946660459,-0.0017828664276748896,0.2949225902557373,-1.0,89,15.962,0,0,False,,,,0,0,3,10,0.03298109024763107,16,28.497,,39.9526382,,-113.4759759,False,0.262179377998109,33.042,,39.9526381,,-113.4759757,4.544,,39.9526381,,-113.4759757,-4.531417369842529,0.03300594910979271,0.018737085163593292,-1,MISSION,,,,,,ACTIVE,1733417855.5430486,-0.01,-0.02,-1.46,12,1,15,0,17760384,128,2
1733417859.6691306,0.0,True,-0.0004379691381473094,-0.0019480392802506685,0.29487425088882446,-1.0,89,15.962,0,0,False,,,,0,0,3,10,0.03178321570158005,16,28.497,,39.9526382,,-113.4759759,False,0.36415945198677946,33.161,,39.9526381,,-113.4759757,4.663,,39.9526381,,-113.4759757,-4.673847198486328,0.03173448145389557,0.016800500452518463,-1,MISSION,,,,,,ACTIVE,4.126081943511963,0.0,-0.02,-1.46,12,1,15,0,17760384,128,2
1733417859.7693708,0.0,True,-0.0005682178889401257,-0.002220424823462963,0.2947314381599426,-1.0,89,15.956,0,0,False,,,,0,0,3,10,0.02868642471730709,16,28.497,,39.9526382,,-113.4759759,False,0.466782900999533,33.315,,39.9526381,,-113.4759757,4.817,,39.9526381,,-113.4759757,-4.792725563049316,0.030810482800006866,0.015288028866052628,-1,MISSION,,,,,,ACTIVE,1733417855.6432889,0.0,-0.02,-1.47,12,1,15,0,17760384,128,2
1733417859.8695457,0.0,True,-0.0009698214125819504,-0.0025302597787231207,0.2948199510574341,-1.0,89,15.956,0,0,False,,,,0,0,3,10,0.026477299630641937,16,28.497,,39.9526382,,-113.4759759,False,0.5640158829919528,33.434,,39.9526381,,-113.4759757,4.936,,39.9526381,,-113.4759757,-4.94750452041626,0.02964380756020546,0.013796917162835598,-1,MISSION,,,,,,ACTIVE,4.226256847381592,0.0,-0.02,-1.47,12,1,15,0,17760384,128,2
1733417859.9698217,0.0,True,-0.0009395892848260701,-0.0022691451013088226,0.29465246200561523,-1.0,88,15.95,0,0,False,,,,0,0,3,10,0.025605427101254463,16,28.497,,39.9526382,,-113.4759759,False,0.6677017119945958,33.577,,39.9526381,,-113.4759757,5.079,,39.9526381,,-113.4759757,-5.078634738922119,0.028756046667695045,0.012998172082006931,-1,MISSION,,,,,,ACTIVE,1733417855.7435648,0.0,-0.02,-1.47,12,1,15,0,17760384,128,2
1733417860.0709903,0.0,True,-0.0006683969404548407,-0.0018729491857811809,0.29471665620803833,-1.0,88,15.95,0,0,False,,,,0,0,3,10,0.02620656229555607,16,28.497,,39.9526382,,-113.4759759,False,0.7691889939887915,33.697,,39.9526381,,-113.4759757,5.199,,39.9526381,,-113.4759757,-5.221898555755615,0.02770804613828659,0.012413985095918179,-1,MISSION,,,,,,ACTIVE,4.327425479888916,0.0,-0.02,-1.47,12,1,15,0,17760384,128,2
1733417860.1701958,0.0,True,-0.0007268260815180838,-0.0017967361491173506,0.29491060972213745,-1.0,88,15.95,0,0,False,,,,0,0,3,10,0.025570863857865334,16,28.497,,39.9526382,,-113.4759759,False,0.86248304999026,33.852,,39.9526381,,-113.4759757,5.354,,39.9526381,,-113.4759757,-5.329535961151123,0.026939570903778076,0.011952201835811138,-1,MISSION,,,,,,ACTIVE,1733417855.8427703,0.0,-0.02,-1.48,12,1,15,0,17760384,128,2
1733417860.2717578,0.0,True,-0.0005112993530929089,-0.0017964403377845883,0.2946133315563202,-1.0,88,15.944,0,0,False,,,,0,0,3,10,0.02341577224433422,16,28.497,,39.9526382,,-113.4759759,False,0.9683819909987506,33.972,,39.9526381,,-113.4759757,5.474,,39.9526381,,-113.4759757,-5.485275745391846,0.026019353419542313,0.011193834245204926,-1,MISSION,,,,,,ACTIVE,4.428987503051758,0.0,-0.02,-1.48,12,1,15,0,17760384,128,2
1733417860.3740146,0.0,True,-0.0004254652885720134,-0.0020470665767788887,0.29454484581947327,-1.0,88,15.941,0,0,False,,,,0,0,3,10,0.020955225452780724,16,28.497,,39.9526382,,-113.4759759,False,0.06703378300881013,34.116,,39.952638,,-113.4759758,5.618,,39.952638,,-113.4759758,-5.629332065582275,0.02546340599656105,0.010546931065618992,-1,MISSION,,,,,,ACTIVE,1733417855.945027,0.0,-0.01,-1.48,12,1,15,0,17760384,128,2
1733417860.4750073,0.0,True,-0.00011107875616289675,-0.0021451094653457403,0.29493212699890137,-1.0,88,15.938,0,0,False,,,,0,0,3,10,0.01890292391180992,16,28.497,,39.9526382,,-113.4759759,False,0.05770470399875194,34.272,,39.952638,,-113.4759758,5.774,,39.952638,,-113.4759758,-5.773593902587891,0.025123773142695427,0.01012782659381628,-1,MISSION,,,,,,ACTIVE,4.529980182647705,0.0,-0.01,-1.48,12,1,15,0,17760384,128,2
1733417860.574741,0.0,True,-4.068110138177872e-05,-0.0026373823639005423,0.2951107621192932,-1.0,88,15.938,0,0,False,,,,0,0,3,10,0.018636003136634827,16,28.497,,39.9526382,,-113.4759759,False,0.16002953100542072,34.393,,39.952638,,-113.4759758,5.895,,39.952638,,-113.4759758,-5.906041622161865,0.024748317897319794,0.00984617043286562,-1,MISSION,,,,,,ACTIVE,1733417856.0447607,0.0,-0.01,-1.48,12,1,15,0,17760384,128,2
1733417860.6755958,0.0,True,2.0406005205586553e-05,-0.002400740748271346,0.29538649320602417,-1.0,87,15.932,0,0,False,,,,0,0,3,10,0.018507761880755424,16,28.497,,39.9526382,,-113.4759759,False,0.26284712900815066,34.537,,39.952638,,-113.4759758,6.039,,39.952638,,-113.4759758,-6.026479721069336,0.024400267750024796,0.009608879685401917,-1,MISSION,,,,,,ACTIVE,4.630835056304932,0.0,-0.01,-1.48,12,1,15,0,17760384,128,2
1733417860.7771695,0.0,True,-2.4603912606835365e-05,-0.002272142795845866,0.29562708735466003,-1.0,87,15.932,0,0,False,,,,0,0,3,10,0.018192073330283165,16,28.497,,39.9526382,,-113.4759759,False,0.3642158310103696,34.658,,39.952638,,-113.4759758,6.16,,39.952638,,-113.4759758,-6.171092510223389,0.023916129022836685,0.009219620376825333,-1,MISSION,,,,,,ACTIVE,1733417856.1463344,0.0,-0.01,-1.48,12,1,15,0,17760384,128,2
1733417860.877369,0.0,True,9.075114212464541e-05,-0.0021593691781163216,0.29574909806251526,-1.0,87,15.926,0,0,False,,,,0,0,3,10,0.01748047024011612,16,28.497,,39.9526382,,-113.4759759,False,0.46230112900957465,34.815,,39.952638,,-113.4759758,6.317,,39.952638,,-113.4759758,-6.291738033294678,0.02350342646241188,0.00892652478069067,-1,MISSION,,,,,,ACTIVE,4.731034517288208,0.0,-0.01,-1.49,12,1,15,0,17760384,128,2
1733417860.9773526,0.0,True,0.0003135635342914611,-0.0021594595164060593,0.29535478353500366,-1.0,87,15.926,0,0,False,,,,0,0,3,10,0.017967909574508667,16,28.497,,39.9526382,,-113.4759759,False,0.564282863997505,34.935,,39.952638,,-113.4759758,6.437,,39.952638,,-113.4759758,-6.448870658874512,0.022892329841852188,0.008651027455925941,-1,MISSION,,,,,,ACTIVE,1733417856.246318,0.0,-0.01,-1.49,12,1,15,0,17760384,128,2
1733417861.0810735,0.0,True,0.00025709017063491046,-0.0020646126940846443,0.2950371205806732,-1.0,87,15.926,0,0,False,,,,0,0,3,10,0.017967909574508667,16,28.497,,39.9526382,,-113.4759759,False,0.6625629000045592,35.081,,39.952638,,-113.4759758,6.583,,39.952638,,-113.4759758,-6.582050323486328,0.022248808294534683,0.008472312241792679,-1,MISSION,,,,,,ACTIVE,4.8347554206848145,0.0,-0.01,-1.49,12,1,15,0,17760384,128,2
1733417861.1776357,0.0,True,0.00044099759543314576,-0.0025055832229554653,0.2949899137020111,-1.0,87,15.92,0,0,False,,,,0,0,3,10,0.01550796814262867,16,28.497,,39.9526382,,-113.4759759,False,0.7644890460069291,35.202,,39.952638,,-113.4759758,6.704,,39.952638,,-113.4759758,-6.715317249298096,0.021488796919584274,0.008381042629480362,-1,MISSION,,,,,,ACTIVE,1733417856.3428802,0.0,-0.01,-1.49,12,1,15,0,17760384,128,2
1733417861.2806597,0.0,True,0.0005698721506632864,-0.002333061071112752,0.2946808338165283,-1.0,87,15.92,0,0,False,,,,0,0,3,10,0.01672336831688881,16,28.497,,39.9526382,,-113.4759759,False,0.8673962140019285,35.359,,39.952638,,-113.4759758,6.861,,39.952638,,-113.4759758,-6.8365068435668945,0.020805422216653824,0.008464107289910316,-1,MISSION,,,,,,ACTIVE,4.937779426574707,0.0,-0.01,-1.49,12,1,15,0,17760384,128,2
1733417861.380108,0.0,True,0.0005188327049836516,-0.0018741532694548368,0.2946842610836029,-1.0,86,15.914,0,0,False,,,,0,0,3,10,0.016914039850234985,16,28.497,,39.9526382,,-113.4759759,False,0.9642566730035469,35.481,,39.952638,,-113.4759758,6.983,,39.952638,,-113.4759758,-6.994117736816406,0.020125649869441986,0.008555441163480282,-1,MISSION,,,,,,ACTIVE,1733417856.4423287,0.01,-0.01,-1.49,12,1,15,0,17760384,128,2
1733417861.4802082,0.0,True,0.00027399740065447986,-0.0017218859866261482,0.29505231976509094,-1.0,86,15.911,0,0,False,,,,0,0,3,10,0.01722610369324684,16,28.497,,39.9526382,,-113.4759759,False,0.06282222901063506,35.626,,39.952638,,-113.4759758,7.128,,39.952638,,-113.4759758,-7.127453804016113,0.019779164344072342,0.008509829640388489,-1,MISSION,,,,,,ACTIVE,5.037879467010498,0.0,-0.01,-1.49,12,1,15,0,17760384,128,2
1733417861.5803666,0.0,True,0.00031399697763845325,-0.0019640973769128323,0.2953997552394867,-1.0,86,15.908,0,0,False,,,,0,0,3,10,0.01649264432489872,16,28.497,,39.9526382,,-113.4759759,False,0.051676862000022084,35.747,,39.952638,,-113.4759758,7.249,,39.952638,,-113.4759758,-7.260730266571045,0.01947009190917015,0.00824957899749279,-1,MISSION,,,,,,ACTIVE,1733417856.5424871,0.01,-0.01,-1.5,12,1,15,0,17760384,128,2
1733417861.6814663,0.0,True,0.0004607719893101603,-0.0019693258218467236,0.29558926820755005,-1.0,86,15.908,0,0,False,,,,0,0,3,10,0.01621376909315586,16,28.497,,39.9526382,,-113.4759759,False,0.14998545800335705,35.905,,39.952638,,-113.4759758,7.407,,39.952638,,-113.4759758,-7.381969928741455,0.019276222214102745,0.008016848936676979,-1,MISSION,,,,,,ACTIVE,5.138979196548462,0.01,-0.01,-1.5,12,1,15,0,17760384,128,2
1733417861.7826548,0.0,True,0.0004630775365512818,-0.0021845719311386347,0.2956155836582184,-1.0,86,15.903,0,0,False,,,,0,0,3,10,0.01528829988092184,16,28.497,,39.9526382,,-113.4759759,False,0.25594722300593276,36.026,,39.952638,,-113.4759758,7.528,,39.952638,,-113.4759758,-7.539737224578857,0.019237494096159935,0.007908489555120468,-1,MISSION,,,,,,ACTIVE,1733417856.6436756,0.01,-0.01,-1.5,12,1,15,0,17760384,128,2
1733417861.8814194,0.0,True,0.0003061217430513352,-0.002337240381166339,0.29562944173812866,-1.0,86,15.903,0,0,False,,,,0,0,3,10,0.014034036546945572,16,28.497,,39.9526382,,-113.4759759,False,0.3542083760112291,36.172,,39.952638,,-113.4759758,7.674,,39.952638,,-113.4759758,-7.661035537719727,0.019290771335363388,0.007725891191512346,-1,MISSION,,,,,,ACTIVE,5.237743854522705,0.01,0.0,-1.5,12,1,15,0,17760384,128,2
1733417861.9812884,0.0,True,0.00036974818794988096,-0.0024168486706912518,0.2955421507358551,-1.0,85,15.897,0,0,False,,,,0,0,3,10,0.013162421062588692,16,28.497,,39.9526382,,-113.4759759,False,0.45614902100351173,36.293,,39.952638,,-113.4759758,7.795,,39.952638,,-113.4759758,-7.8065900802612305,0.01931433007121086,0.007375276647508144,-1,MISSION,,,,,,ACTIVE,1733417856.7435446,0.01,0.0,-1.5,12,1,15,0,17760384,128,2
1733417862.081003,0.0,True,0.00026624181191436946,-0.0030817859806120396,0.2957060933113098,-1.0,85,15.897,0,0,False,,,,0,0,3,10,0.013162421062588692,16,28.497,,39.9526382,,-113.4759759,False,0.5541144250018988,36.451,,39.952638,,-113.4759758,7.953,,39.952638,,-113.4759758,-7.9401397705078125,0.019461825489997864,0.00710996612906456,-1,MISSION,,,,,,ACTIVE,5.337458372116089,0.01,0.0,-1.5,12,1,15,0,17760384,128,2
1733417862.1820085,0.0,True,0.0007099162321537733,-0.0031662150286138058,0.29570820927619934,-1.0,85,15.897,0,0,False,,,,0,0,3,10,0.012370104901492596,16,28.497,,39.9526382,,-113.4759759,False,0.656647089010221,36.572,,39.952638,,-113.4759758,8.074,,39.952638,,-113.4759758,-8.085821151733398,0.019654659554362297,0.007064041215926409,-1,MISSION,,,,,,ACTIVE,1733417856.8445501,0.01,0.0,-1.5,12,1,15,0,17760384,128,2
1733417862.2814312,0.0,True,0.0006719830562360585,-0.002839578315615654,0.29553714394569397,-1.0,85,15.89,0,0,False,,,,0,0,3,10,0.015085482969880104,16,28.497,,39.9526382,,-113.4759759,False,0.7546204850077629,36.718,,39.952638,,-113.4759758,8.22,,39.952638,,-113.4759758,-8.207135200500488,0.019827643409371376,0.007284441962838173,-1,MISSION,,,,,,ACTIVE,5.436881065368652,0.01,0.0,-1.5,12,1,15,0,17760384,128,2
1733417862.3817933,0.0,True,0.0012023464078083634,-0.0032030928414314985,0.2955874502658844,-1.0,85,15.89,0,0,False,,,,0,0,3,10,0.01579086109995842,16,28.497,,39.9526382,,-113.4759759,False,0.856235868006479,36.839,,39.952638,,-113.4759758,8.341,,39.952638,,-113.4759758,-8.352665901184082,0.020073946565389633,0.007558209355920553,-1,MISSION,,,,,,ACTIVE,1733417856.9449122,0.01,0.0,-1.5,12,1,15,0,17760384,128,2
1733417862.4813359,0.0,True,0.0017092196503654122,-0.0033963972236961126,0.29551368951797485,-1.0,85,15.884,0,0,False,,,,0,0,3,10,0.01726188324391842,16,28.497,,39.9526382,,-113.4759759,False,0.9547754960076418,36.997,,39.952638,,-113.4759758,8.499,,39.952638,,-113.4759758,-8.49805736541748,0.020416736602783203,0.007744191214442253,-1,MISSION,,,,,,ACTIVE,5.536423683166504,0.01,0.0,-1.5,12,1,15,0,17760384,128,2
1733417862.5818455,0.0,True,0.00207453197799623,-0.003952842205762863,0.2955802381038666,-1.0,84,15.881,0,0,False,,,,0,0,3,10,0.018036050722002983,16,28.497,,39.9526382,,-113.4759759,False,0.04888375601149164,37.118,,39.952638,,-113.4759758,8.62,,39.952638,,-113.4759758,-8.63140869140625,0.020899532362818718,0.007917972281575203,-1,MISSION,,,,,,ACTIVE,1733417857.0454218,0.01,0.0,-1.5,12,1,15,0,17760384,128,2
1733417862.681911,0.0,True,0.002324761124327779,-0.0038848640397191048,0.2954190969467163,-1.0,84,15.878,0,0,False,,,,0,0,3,10,0.020234886556863785,16,28.497,,39.9526382,,-113.4759759,False,0.039228851994266734,37.264,,39.952638,,-113.4759758,8.766,,39.952638,,-113.4759758,-8.752880096435547,0.021508725360035896,0.008385269902646542,-1,MISSION,,,,,,ACTIVE,5.636489152908325,0.02,0.0,-1.5,12,1,15,0,17760384,128,2
1733417862.7826908,0.0,True,0.0030319695360958576,-0.0041305613704025745,0.29575371742248535,-1.0,84,15.878,0,0,False,,,,0,0,3,10,0.02100679837167263,16,28.497,,39.9526382,,-113.4759759,False,0.14279233399429359,37.386,,39.952638,,-113.4759758,8.888,,39.952638,,-113.4759758,-8.899097442626953,0.022465994581580162,0.009177048690617085,-1,MISSION,,,,,,ACTIVE,1733417857.1462016,0.02,0.0,-1.5,12,1,15,0,17760384,128,2
1733417862.8821557,0.0,True,0.003156059654429555,-0.004349586553871632,0.29581475257873535,-1.0,84,15.872,0,0,False,,,,0,0,3,10,0.02197612263262272,16,28.497,,39.9526382,,-113.4759759,False,0.23955636699975003,37.544,,39.952638,,-113.4759758,9.046,,39.952638,,-113.4759758,-9.021081924438477,0.02307041734457016,0.009809239767491817,-1,MISSION,,,,,,ACTIVE,5.73595404624939,0.02,0.0,-1.5,12,1,15,0,17760384,128,2
1733417862.9838848,0.0,True,0.003399256616830826,-0.004218458663672209,0.2960298955440521,-1.0,84,15.872,0,0,False,,,,0,0,3,10,0.02209446206688881,16,28.497,,39.9526382,,-113.4759759,False,0.34255981899332255,37.666,,39.952638,,-113.4759758,9.168,,39.952638,,-113.4759758,-9.179615020751953,0.023857709020376205,0.010495725087821484,-1,MISSION,,,,,,ACTIVE,1733417857.2479308,0.02,0.0,-1.5,12,1,15,0,17760384,128,2
1733417863.0857942,0.0,True,0.0034362131264060736,-0.004747613798826933,0.29609692096710205,-1.0,84,15.866,0,0,False,,,,0,0,3,10,0.02111128531396389,16,28.497,,39.9526382,,-113.4759759,False,0.44531749899033457,37.812,,39.952638,,-113.4759758,9.314,,39.952638,,-113.4759758,-9.3135404586792,0.02454097755253315,0.010858972556889057,-1,MISSION,,,,,,ACTIVE,5.837863445281982,0.02,0.0,-1.5,12,1,15,0,17760384,128,2
1733417863.1888492,0.0,True,0.003296478884294629,-0.004926332272589207,0.2963535487651825,-1.0,84,15.866,0,0,False,,,,0,0,3,10,0.02111128531396389,16,28.497,,39.9526382,,-113.4759759,False,0.5461575469962554,37.934,,39.952638,,-113.4759758,9.436,,39.952638,,-113.4759758,-9.459770202636719,0.025157412514090538,0.010808760300278664,-1,MISSION,,,,,,ACTIVE,1733417857.3509858,0.01,0.0,-1.5,12,1,15,0,17760384,128,2
1733417863.2889898,0.0,True,0.0030539697036147118,-0.004478910006582737,0.2960318624973297,-1.0,84,15.866,0,0,False,,,,0,0,3,10,0.01899777166545391,16,28.497,,39.9526382,,-113.4759759,False,0.6482682739879237,38.093,,39.952638,,-113.4759757,9.595,,39.952638,,-113.4759757,-9.606225967407227,0.02563902921974659,0.010492894798517227,-1,MISSION,,,,,,ACTIVE,5.938004016876221,0.01,0.0,-1.51,12,1,15,0,17760384,128,2
1733417863.3895757,0.0,True,0.002956717973574996,-0.004685040097683668,0.29590266942977905,-1.0,83,15.86,0,0,False,,,,0,0,3,10,0.01787455938756466,16,28.497,,39.9526382,,-113.4759759,False,0.7493382399989059,38.215,,39.952638,,-113.4759757,9.717,,39.952638,,-113.4759757,-9.728381156921387,0.02632294036448002,0.010251485742628574,-1,MISSION,,,,,,ACTIVE,1733417857.4515717,0.01,0.0,-1.51,12,1,15,0,17760384,128,2
1733417863.4891863,0.0,True,0.0026359145995229483,-0.004389459267258644,0.29590561985969543,-1.0,83,15.86,0,0,False,,,,0,0,3,10,0.017512626945972443,16,28.497,,39.9526382,,-113.4759759,False,0.8458418849913869,38.361,,39.952638,,-113.4759757,9.863,,39.952638,,-113.4759757,-9.862632751464844,0.027186935767531395,0.009847250767052174,-1,MISSION,,,,,,ACTIVE,6.037614583969116,0.01,0.0,-1.51,12,1,15,0,17760384,128,2
1733417863.5893595,0.0,True,0.0021850105840712786,-0.004046885762363672,0.2963472902774811,-1.0,83,15.854,0,0,False,,,,0,0,3,10,0.01732337474822998,16,28.497,,39.9526382,,-113.4759759,False,0.9460233549907571,38.483,,39.952638,,-113.4759757,9.985,,39.952638,,-113.4759757,-9.996808052062988,0.027938086539506912,0.009232182055711746,-1,MISSION,,,,,,ACTIVE,1733417857.551745,0.01,0.0,-1.51,12,1,15,0,17760384,128,2
1733417863.6895244,0.0,True,0.002168566919863224,-0.004539338871836662,0.2963162958621979,-1.0,83,15.851,0,0,False,,,,0,0,3,10,0.015617855824530125,16,28.497,,39.9526382,,-113.4759759,False,0.045303377002710477,38.642,,39.952638,,-113.4759757,10.144,,39.952638,,-113.4759757,-10.15538501739502,0.02900514006614685,0.008524092845618725,-1,MISSION,,,,,,ACTIVE,6.137779474258423,0.01,0.0,-1.51,12,1,15,0,17760384,128,2
1733417863.7946303,0.0,True,0.0017165496246889234,-0.0046442351303994656,0.2964005172252655,-1.0,83,15.848,0,0,False,,,,0,0,3,10,0.015340030193328857,16,28.497,,39.9526382,,-113.4759759,False,0.04081078799208626,38.79,,39.952638,,-113.4759757,10.292,,39.952638,,-113.4759757,-10.27855110168457,0.029900770634412766,0.007870481349527836,-1,MISSION,,,,,,ACTIVE,1733417857.6568508,0.01,0.0,-1.54,12,1,15,0,17760384,128,2
1733417863.8916724,0.0,True,0.0014802071964368224,-0.00440015085041523,0.296236515045166,-1.0,83,15.848,0,0,False,,,,0,0,3,10,0.01664723828434944,16,28.497,,39.9526382,,-113.4759759,False,0.13875911499781068,38.917,,39.952638,,-113.4759757,10.419,,39.952638,,-113.4759757,-10.43110466003418,0.030754638835787773,0.006784849334508181,-1,MISSION,,,,,,ACTIVE,6.234821557998657,0.01,0.0,-1.6,12,1,15,0,17760384,128,2
1733417863.9937232,0.0,True,0.0013602019753307104,-0.004264742136001587,0.29591214656829834,-1.0,82,15.842,0,0,False,,,,0,0,3,10,0.016573889181017876,16,28.497,,39.9526382,,-113.4759759,False,0.24041645400575362,39.091,,39.952638,,-113.4759757,10.593,,39.952638,,-113.4759757,-10.564599990844727,0.03127633407711983,0.0057140314020216465,-1,MISSION,,,,,,ACTIVE,1733417857.7589016,0.01,0.0,-1.72,12,1,15,0,17760384,128,2
1733417864.0916624,0.0,True,0.0010231734486296773,-0.004378313198685646,0.295697420835495,-1.0,82,15.842,0,0,False,,,,0,0,3,10,0.016407420858740807,16,28.497,,39.9526382,,-113.4759759,False,0.33828246500343084,39.234,,39.952638,,-113.4759757,10.736,,39.952638,,-113.4759757,-10.750418663024902,0.032078035175800323,0.004197595175355673,-1,MISSION,,,,,,ACTIVE,6.332760810852051,0.01,-0.01,-1.84,12,1,15,0,17760384,128,2
1733417864.193096,0.0,True,0.0006755078211426735,-0.004535253159701824,0.2956174314022064,-1.0,82,15.842,0,0,False,,,,0,0,3,10,0.016407420858740807,16,28.497,,39.9526382,,-113.4759759,False,0.4407604150037514,39.42,,39.952638,,-113.4759757,10.922,,39.952638,,-113.4759757,-10.921268463134766,0.03276961296796799,0.0027310936711728573,-1,MISSION,,,,,,ACTIVE,1733417857.860335,0.01,-0.01,-2.02,12,1,15,0,17760384,128,2
1733417864.290316,0.0,True,0.00032857016776688397,-0.004420353099703789,0.2953067719936371,-1.0,82,15.836,0,0,False,,,,0,0,3,10,0.017511945217847824,16,28.497,,39.9526382,,-113.4759759,False,0.5353416949947132,39.588,,39.952638,,-113.4759757,11.09,,39.952638,,-113.4759757,-11.071999549865723,0.03330269455909729,0.0013315031537786126,-1,MISSION,,,,,,ACTIVE,6.429980993270874,0.01,-0.01,-2.2,12,1,15,0,17760384,128,2
1733417864.3960094,0.0,True,-8.771516149863601e-05,-0.004261520691215992,0.2948542535305023,-1.0,82,15.836,0,0,False,,,,0,0,3,10,0.01946793869137764,16,28.497,,39.9526382,,-113.4759759,False,0.6404941810033051,39.828,,39.9526379,,-113.4759756,11.33,,39.9526379,,-113.4759756,-11.2906494140625,0.034081365913152695,-0.0005738382460549474,-1,MISSION,,,,,,ACTIVE,1733417857.9660285,0.01,-0.01,-2.45,12,1,15,0,17760384,128,2
1733417864.4938173,0.0,True,0.00010697648394852877,-0.004242484457790852,0.2945718765258789,-1.0,82,15.83,0,0,False,,,,0,0,3,10,0.021180788055062294,16,28.497,,39.9526382,,-113.4759759,False,0.7422050239983946,40.028,,39.9526379,,-113.4759756,11.53,,39.9526379,,-113.4759756,-11.549595832824707,0.035064466297626495,-0.0023883553221821785,-1,MISSION,,,,,,ACTIVE,6.527788877487183,0.01,-0.01,-2.61,12,1,15,0,17760384,128,2
1733417864.5966592,0.0,True,7.52324122004211e-05,-0.004309849347919226,0.29420948028564453,-1.0,82,15.83,0,0,False,,,,0,0,3,10,0.022150330245494843,16,28.497,,39.9526382,,-113.4759759,False,0.8452848799934145,40.282,,39.9526379,,-113.4759756,11.784,,39.9526379,,-113.4759756,-11.783137321472168,0.035952355712652206,-0.0038476160261780024,-1,MISSION,,,,,,ACTIVE,1733417858.0688703,0.01,-0.01,-2.77,12,1,15,0,17760384,128,2
1733417864.6941738,0.0,True,-0.00030461756978183985,-0.00437079556286335,0.29427602887153625,-1.0,81,15.824,0,0,False,,,,0,0,3,10,0.02396680973470211,16,28.497,,39.9526382,,-113.4759759,False,0.9424755959917093,40.503,,39.9526379,,-113.4759756,12.005,,39.9526379,,-113.4759756,-12.026899337768555,0.03678244724869728,-0.005312027409672737,-1,MISSION,,,,,,ACTIVE,6.625303506851196,0.01,-0.01,-2.88,12,1,15,0,17760384,128,2
1733417864.7948327,0.0,True,-0.0005775308818556368,-0.004507382400333881,0.294192373752594,-1.0,81,15.821,0,0,False,,,,0,0,3,10,0.024260472506284714,16,28.497,,39.9526382,,-113.4759759,False,0.03517741500400007,40.8,,39.9526379,,-113.4759756,12.302,,39.9526379,,-113.4759756,-12.25519847869873,0.037678223103284836,-0.006802833639085293,-1,MISSION,,,,,,ACTIVE,1733417858.1695292,0.01,-0.01,-2.97,12,1,15,0,17760384,128,2
1733417864.894312,0.0,True,-0.0006797886453568935,-0.004917681682854891,0.29386958479881287,-1.0,81,15.819,0,0,False,,,,0,0,3,10,0.024429243057966232,16,28.497,,39.9526382,,-113.4759759,False,0.031231981003656983,41.034,,39.9526379,,-113.4759756,12.536,,39.9526379,,-113.4759756,-12.558669090270996,0.03881455957889557,-0.008874217979609966,-1,MISSION,,,,,,ACTIVE,6.724782705307007,0.01,-0.01,-3.01,12,1,15,0,17760384,128,2
1733417864.9953485,0.0,True,-0.0006362266722135246,-0.005037270952016115,0.2942042350769043,-1.0,81,15.819,0,0,False,,,,0,0,3,10,0.025942735373973846,16,28.497,,39.9526382,,-113.4759759,False,0.1341130029904889,41.317,,39.9526379,,-113.4759756,12.819,,39.9526379,,-113.4759756,-12.794629096984863,0.03959042951464653,-0.010097264312207699,-1,MISSION,,,,,,ACTIVE,1733417858.2705657,0.01,-0.01,-3.01,12,1,15,0,17760384,128,2
1733417865.0945427,0.0,True,-0.0006988283712416887,-0.00542187225073576,0.2945196330547333,-1.0,81,15.813,0,0,False,,,,0,0,3,10,0.026854313910007477,16,28.497,,39.9526382,,-113.4759759,False,0.23124742599611636,41.553,,39.9526378,,-113.4759756,13.055,,39.9526378,,-113.4759756,-13.077590942382812,0.04033869877457619,-0.01132068783044815,-1,MISSION,,,,,,ACTIVE,6.823976993560791,0.01,-0.01,-3.0,12,1,15,0,17760384,128,2
1733417865.1948442,0.0,True,-0.0008860650705173612,-0.005267503205686808,0.2944863438606262,-1.0,81,15.813,0,0,False,,,,0,0,3,10,0.026854313910007477,16,28.497,,39.9526382,,-113.4759759,False,0.3296441909915302,41.859,,39.9526378,,-113.4759756,13.361,,39.9526378,,-113.4759756,-13.33668327331543,0.04086814448237419,-0.012169054709374905,-1,MISSION,,,,,,ACTIVE,1733417858.3708673,0.01,-0.02,-2.99,12,1,15,0,17760384,128,2
1733417865.2948,0.0,True,-0.001329865655861795,-0.0048012989573180676,0.2941959798336029,-1.0,81,15.813,0,0,False,,,,0,0,3,10,0.02907736599445343,16,28.497,,39.9526382,,-113.4759759,False,0.43155544900218956,42.095,,39.9526378,,-113.4759756,13.597,,39.9526378,,-113.4759756,-13.619810104370117,0.04126147925853729,-0.012920506298542023,-1,MISSION,,,,,,ACTIVE,6.923932790756226,0.01,-0.02,-2.98,12,1,15,0,17760384,128,2
1733417865.3979635,0.0,True,-0.0015733453910797834,-0.005014453083276749,0.2947700619697571,-1.0,80,15.807,0,0,False,,,,0,0,3,10,0.02982177957892418,16,28.497,,39.9526382,,-113.4759759,False,0.5342584460013313,42.379,,39.9526378,,-113.4759756,13.881,,39.9526378,,-113.4759756,-13.85626220703125,0.0415179617702961,-0.013367789797484875,-1,MISSION,,,,,,ACTIVE,1733417858.4740307,0.02,-0.02,-2.98,12,1,15,0,17760384,128,2
