timestamp,airspeed,armed,attitude.pitch,attitude.roll,attitude.yaw,battery.current,battery.level,battery.voltage,commands.count,commands.next,ekf_ok,gimbal.pitch,gimbal.roll,gimbal.yaw,gps_0.eph,gps_0.epv,gps_0.fix_type,gps_0.satellites_visible,groundspeed,heading,home_location.alt,home_location.global_frame,home_location.lat,home_location.local_frame,home_location.lon,is_armable,last_heartbeat,location.global_frame.alt,location.global_frame.global_frame,location.global_frame.lat,location.global_frame.local_frame,location.global_frame.lon,location.global_relative_frame.alt,location.global_relative_frame.global_frame,location.global_relative_frame.lat,location.global_relative_frame.local_frame,location.global_relative_frame.lon,location.local_frame.down,location.local_frame.east,location.local_frame.north,ml_verdict,mode.name,mount_status[0],mount_status[1],mount_status[2],rangefinder.distance,rangefinder.voltage,system_status.state,timedelta,velocity[0],velocity[1],velocity[2],version.autopilot_type,version.major,version.minor,version.patch,version.raw_version,version.release,version.vehicle_type
1733397672.4265864,0.0,True,0.1654835194349289,0.001749507850036025,1.256142020225525,-1.0,51,15.3,0,7,False,,,,0,0,3,10,3.6436727046966553,71,28.501,,39.9526379,,-113.4759758,False,0.8712030430033337,78.49,,39.9525891,,-113.4753549,49.988,,39.9525891,,-113.4753549,-49.9906005859375,52.93470764160156,-5.4368414878845215,-1,MISSION,,,,,,ACTIVE,0,1.14,3.33,0.0,12,,,,,,2
1733397672.5255187,0.0,True,0.16569264233112335,0.002059209393337369,1.256767988204956,-1.0,51,15.3,0,7,False,,,,0,0,3,10,3.483820915222168,71,28.501,,39.9526379,,-113.4759758,False,0.9689349420004874,78.49,,39.9525899,,-113.4753517,49.988,,39.9525899,,-113.4753517,-49.99055480957031,53.233760833740234,-5.336794376373291,-1,MISSION,,,,,,ACTIVE,1733397672.5255187,1.09,3.2,0.0,12,,,,,,2
1733397672.6256545,0.0,True,0.16530738770961761,0.0028443995397537947,1.2573435306549072,-1.0,51,15.3,0,7,False,,,,0,0,3,10,3.2848052978515625,72,28.501,,39.9526379,,-113.4759758,False,0.044444178995036054,78.49,,39.9525909,,-113.4753478,49.988,,39.9525909,,-113.4753478,-49.99049377441406,53.54616928100586,-5.232617378234863,-1,MISSION,,,,,,ACTIVE,0.10013580322265625,1.04,3.04,0.0,12,,,,,,2
1733397672.726091,0.0,True,0.16478511691093445,0.0033472604118287563,1.2578647136688232,-1.0,51,15.3,0,7,False,,,,0,0,3,10,3.1524081230163574,72,28.501,,39.9526379,,-113.4759758,False,0.05314112400083104,78.489,,39.9525916,,-113.4753448,49.988,,39.9525916,,-113.4753448,-49.99030685424805,53.79524230957031,-5.149950981140137,-1,MISSION,,,,,,ACTIVE,1733397672.625955,0.99,2.92,0.0,12,,,,,,2
1733397672.8267882,0.0,True,0.16321973502635956,0.0038402960635721684,1.2583528757095337,-1.0,51,15.3,0,7,False,,,,0,0,3,10,2.984382152557373,72,28.501,,39.9526379,,-113.4759758,False,0.15560361099778675,78.489,,39.9525925,,-113.4753415,49.988,,39.9525925,,-113.4753415,-49.99009323120117,54.080997467041016,-5.055746078491211,-1,MISSION,,,,,,ACTIVE,0.20083308219909668,0.94,2.77,0.0,12,,,,,,2
1733397672.9260437,0.0,True,0.16159440577030182,0.004391776397824287,1.25877046585083,-1.0,51,15.3,0,7,False,,,,0,0,3,10,2.8307740688323975,72,28.501,,39.9526379,,-113.4759758,False,0.2536480449998635,78.489,,39.9525931,,-113.4753388,49.988,,39.9525931,,-113.4753388,-49.98996353149414,54.30836486816406,-4.981506824493408,-1,MISSION,,,,,,ACTIVE,1733397672.7252107,0.9,2.65,0.0,12,,,,,,2
1733397673.0267076,0.0,True,0.15911802649497986,0.005061120260506868,1.2593352794647217,-1.0,51,15.3,0,7,False,,,,0,0,3,10,2.6675143241882324,72,28.501,,39.9526379,,-113.4759758,False,0.35170984100113856,78.489,,39.952594,,-113.4753355,49.988,,39.952594,,-113.4753355,-49.98985290527344,54.58915328979492,-4.890718936920166,-1,MISSION,,,,,,ACTIVE,0.3014969825744629,0.84,2.5,0.0,12,,,,,,2
1733397673.126192,0.0,True,0.1564113348722458,0.004894622601568699,1.2592275142669678,-1.0,51,15.3,0,7,False,,,,0,0,3,10,2.5168089866638184,72,28.501,,39.9526379,,-113.4759758,False,0.4513828189956257,78.489,,39.9525946,,-113.4753331,49.988,,39.9525946,,-113.4753331,-49.98991775512695,54.79384994506836,-4.825474739074707,-1,MISSION,,,,,,ACTIVE,1733397672.824695,0.79,2.38,0.0,12,,,,,,2
1733397673.2273116,0.0,True,0.15181131660938263,0.005423000548034906,1.2592393159866333,-1.0,51,15.3,0,7,False,,,,0,0,3,10,2.49216365814209,72,28.501,,39.9526379,,-113.4759758,False,0.5558090609993087,78.489,,39.9525951,,-113.4753308,49.988,,39.9525951,,-113.4753308,-49.9901123046875,54.98862838745117,-4.764021396636963,-1,MISSION,,,,,,ACTIVE,0.4026165008544922,0.75,2.27,0.0,12,,,,,,2
1733397673.3283103,0.0,True,0.14800526201725006,0.006237266585230827,1.2589670419692993,-1.0,51,15.3,0,7,False,,,,0,0,3,10,2.3591935634613037,72,28.501,,39.9526379,,-113.4759758,False,0.6530917209965992,78.49,,39.9525957,,-113.4753283,49.988,,39.9525957,,-113.4753283,-49.99055862426758,55.20951843261719,-4.695013523101807,-1,MISSION,,,,,,ACTIVE,1733397672.9256938,0.7,2.13,0.0,12,,,,,,2
1733397673.4284282,0.0,True,0.14271169900894165,0.007078176364302635,1.2583900690078735,-1.0,51,15.3,0,7,False,,,,0,0,3,10,2.114572048187256,72,28.501,,39.9526379,,-113.4759758,False,0.7557624069959274,78.49,,39.9525962,,-113.4753262,49.989,,39.9525962,,-113.4753262,-49.9908447265625,55.40013122558594,-4.636698246002197,-1,MISSION,,,,,,ACTIVE,0.5027344226837158,0.66,2.03,0.0,12,,,,,,2
1733397673.5295715,0.0,True,0.13747404515743256,0.007643557619303465,1.2577524185180664,-1.0,51,15.3,0,7,False,,,,0,0,3,10,2.069570779800415,72,28.501,,39.9526379,,-113.4759758,False,0.8583166879980126,78.49,,39.9525968,,-113.4753237,49.989,,39.9525968,,-113.4753237,-49.99089050292969,55.6112060546875,-4.57390022277832,-1,MISSION,,,,,,ACTIVE,1733397673.026837,0.6,1.89,0.0,12,,,,,,2
1733397673.640858,0.0,True,0.13154421746730804,0.00787325482815504,1.256327748298645,-1.0,51,15.3,0,7,False,,,,0,0,3,10,1.9406287670135498,72,28.501,,39.9526379,,-113.4759758,False,0.9695449459977681,78.49,,39.9525972,,-113.4753216,49.988,,39.9525972,,-113.4753216,-49.990596771240234,55.79323196411133,-4.52128791809082,-1,MISSION,,,,,,ACTIVE,0.614020824432373,0.55,1.78,0.0,12,,,,,,2
1733397673.7288504,0.0,True,0.1261405348777771,0.0047966428101062775,1.2547897100448608,-1.0,51,15.3,0,7,False,,,,0,0,3,10,1.7865829467773438,71,28.501,,39.9526379,,-113.4759758,False,0.026646489000995643,78.489,,39.9525976,,-113.4753199,49.988,,39.9525976,,-113.4753199,-49.990318298339844,55.92216873168945,-4.485167503356934,-1,MISSION,,,,,,ACTIVE,1733397673.1148295,0.51,1.68,0.0,12,,,,,,2
1733397673.8289583,0.0,True,0.11718498915433884,-0.00406980374827981,1.2526755332946777,-1.0,51,15.3,0,7,False,,,,0,0,3,10,1.681097149848938,71,28.501,,39.9526379,,-113.4759758,False,0.03684510200400837,78.489,,39.9525979,,-113.4753183,49.988,,39.9525979,,-113.4753183,-49.98970031738281,56.08393478393555,-4.44077205657959,-1,MISSION,,,,,,ACTIVE,0.7141287326812744,0.48,1.6,0.0,12,,,,,,2
1733397673.9302597,0.0,True,0.1090109720826149,-0.011172836646437645,1.2499070167541504,-1.0,51,15.3,0,7,False,,,,0,0,3,10,1.5729210376739502,71,28.501,,39.9526379,,-113.4759758,False,0.13820147200021893,78.488,,39.9525984,,-113.4753164,49.987,,39.9525984,,-113.4753164,-49.98896026611328,56.22238540649414,-4.4030842781066895,-1,MISSION,,,,,,ACTIVE,1733397673.216131,0.44,1.48,0.0,12,,,,,,2
1733397674.0301979,0.0,True,0.10182157158851624,-0.014600466936826706,1.2468526363372803,-1.0,51,15.3,0,7,False,,,,0,0,3,10,1.4722367525100708,71,28.501,,39.9526379,,-113.4759758,False,0.23572232900187373,78.487,,39.9525986,,-113.475315,49.986,,39.9525986,,-113.475315,-49.98823165893555,56.340389251708984,-4.371100902557373,-1,MISSION,,,,,,ACTIVE,0.8140668869018555,0.42,1.4,0.0,12,,,,,,2
1733397674.1304066,0.0,True,0.09513267129659653,-0.015454107895493507,1.242771863937378,-1.0,51,15.3,0,7,False,,,,0,0,3,10,1.3702698945999146,71,28.501,,39.9526379,,-113.4759758,False,0.33760243299911963,78.486,,39.952599,,-113.4753134,49.985,,39.952599,,-113.4753134,-49.98727035522461,56.48323059082031,-4.332347869873047,-1,MISSION,,,,,,ACTIVE,1733397673.3163397,0.4,1.31,0.0,12,,,,,,2
1733397674.2302263,0.0,True,0.08896844834089279,-0.014795536175370216,1.2384538650512695,-1.0,51,15.3,0,7,False,,,,0,0,3,10,1.3702698945999146,71,28.501,,39.9526379,,-113.4759758,False,0.43540747099905275,78.486,,39.9525992,,-113.4753122,49.984,,39.9525992,,-113.4753122,-49.98654556274414,56.5756950378418,-4.307351112365723,-1,MISSION,,,,,,ACTIVE,0.913886547088623,0.39,1.24,0.0,12,,,,,,2
1733397674.3303554,0.0,True,0.0830157920718193,-0.0136520154774189,1.233543038368225,-1.0,51,15.3,0,7,False,,,,0,0,3,10,1.2687073945999146,70,28.501,,39.9526379,,-113.4759758,False,0.5376022979980917,78.485,,39.9525995,,-113.4753108,49.983,,39.9525995,,-113.4753108,-49.98558044433594,56.70042419433594,-4.273573398590088,-1,MISSION,,,,,,ACTIVE,1733397673.4164689,0.37,1.15,0.0,12,,,,,,2
1733397674.4345193,0.0,True,0.07655491679906845,-0.013175766915082932,1.2284430265426636,-1.0,51,15.3,0,8,False,,,,0,0,3,10,1.1942745447158813,70,28.501,,39.9526379,,-113.4759758,False,0.6412009650011896,78.484,,39.9525998,,-113.4753095,49.983,,39.9525998,,-113.4753095,-49.98478317260742,56.80669021606445,-4.244787693023682,-1,MISSION,,,,,,ACTIVE,1.0180504322052002,0.35,1.07,0.0,12,,,,,,2
1733397674.53049,0.0,True,0.07360175997018814,-0.011013729497790337,1.2243239879608154,-1.0,51,15.3,0,8,False,,,,0,0,3,10,1.1173070669174194,70,28.501,,39.9526379,,-113.4759758,False,0.7379957140001352,78.483,,39.9526,,-113.4753085,49.982,,39.9526,,-113.4753085,-49.98428726196289,56.88893508911133,-4.222504615783691,-1,MISSION,,,,,,ACTIVE,1733397673.5124395,0.33,1.01,0.0,12,,,,,,2
1733397674.6317303,0.0,True,0.08887344598770142,-0.006646022200584412,1.2184505462646484,-1.0,51,15.3,0,8,False,,,,0,0,3,10,1.0376029014587402,70,28.501,,39.9526379,,-113.4759758,False,0.8397749189971364,78.483,,39.9526002,,-113.4753076,49.982,,39.9526002,,-113.4753076,-49.983848571777344,56.96576690673828,-4.201586723327637,-1,MISSION,,,,,,ACTIVE,1.119290828704834,0.31,0.95,0.0,12,,,,,,2
1733397674.7314043,0.0,True,0.11704863607883453,-0.015469049103558064,1.2029674053192139,-1.0,51,15.3,0,8,False,,,,0,0,3,10,0.950579822063446,69,28.501,,39.9526379,,-113.4759758,False,0.9380614910041913,78.483,,39.9526004,,-113.4753066,49.982,,39.9526004,,-113.4753066,-49.98375701904297,57.05681610107422,-4.177310466766357,-1,MISSION,,,,,,ACTIVE,1733397673.6121135,0.28,0.85,0.0,12,,,,,,2
1733397674.831541,0.0,True,0.15140469372272491,-0.034266673028469086,1.1690587997436523,-1.0,51,15.3,0,8,False,,,,0,0,3,10,0.797872006893158,67,28.501,,39.9526379,,-113.4759758,False,0.012926707000588067,78.483,,39.9526005,,-113.4753059,49.982,,39.9526005,,-113.4753059,-49.98416519165039,57.11808776855469,-4.160980224609375,-1,RTL,,,,,,ACTIVE,1.2194275856018066,0.26,0.75,-0.01,12,,,,,,2
1733397674.9327426,0.0,True,0.18383146822452545,-0.05490613728761673,1.1170657873153687,-1.0,51,15.3,0,8,False,,,,0,0,3,10,0.6636343598365784,64,28.501,,39.9526379,,-113.4759758,False,0.018437662001815625,78.484,,39.9526007,,-113.4753052,49.983,,39.9526007,,-113.4753052,-49.9851188659668,57.1784782409668,-4.1439900398254395,-1,RTL,,,,,,ACTIVE,1733397673.713315,0.22,0.59,-0.01,12,,,,,,2
1733397675.0315945,0.0,True,0.20718425512313843,-0.07441519945859909,1.045135736465454,-1.0,51,15.3,0,8,False,,,,0,0,3,10,0.4550034701824188,60,28.501,,39.9526379,,-113.4759758,False,0.12034643600054551,78.485,,39.9526008,,-113.4753047,49.984,,39.9526008,,-113.4753047,-49.986175537109375,57.21866226196289,-4.131136894226074,-1,RTL,,,,,,ACTIVE,1.318279504776001,0.19,0.42,-0.01,12,,,,,,2
1733397675.1316836,0.0,True,0.20016740262508392,-0.08119666576385498,0.9640966653823853,-1.0,51,15.3,0,8,False,,,,0,0,3,10,0.32090431451797485,56,28.501,,39.9526379,,-113.4759758,False,0.21861803000501823,78.486,,39.9526009,,-113.4753044,49.984,,39.9526009,,-113.4753044,-49.986549377441406,57.24483871459961,-4.120474338531494,-1,RTL,,,,,,ACTIVE,1733397673.813404,0.14,0.2,0.0,12,,,,,,2
1733397675.2346585,0.0,True,0.17198948562145233,-0.07538248598575592,0.8704459071159363,-1.0,51,15.3,0,8,False,,,,0,0,3,10,0.25655657052993774,55,28.501,,39.9526379,,-113.4759758,False,0.32020301300508436,78.485,,39.9526009,,-113.4753043,49.984,,39.9526009,,-113.4753043,-49.98601531982422,57.253562927246094,-4.114760875701904,-1,RTL,,,,,,ACTIVE,1.4212543964385986,0.1,0.05,0.0,12,,,,,,2
1733397675.3358974,0.0,True,0.14312408864498138,-0.07388751208782196,0.7748292088508606,-1.0,51,15.3,0,8,False,,,,0,0,3,10,0.09605547040700912,48,28.501,,39.9526379,,-113.4759758,False,0.4233054060023278,78.484,,39.952601,,-113.4753043,49.983,,39.952601,,-113.4753043,-49.98481369018555,57.250789642333984,-4.112387180328369,-1,RTL,,,,,,ACTIVE,1733397673.914643,0.05,-0.09,0.0,12,,,,,,2
1733397675.437929,0.0,True,0.11938313394784927,-0.10838176310062408,0.6621769666671753,-1.0,51,15.3,0,8,False,,,,0,0,3,10,0.16326658427715302,41,28.501,,39.9526379,,-113.4759758,False,0.5269705210012035,78.483,,39.9526009,,-113.4753044,49.982,,39.9526009,,-113.4753044,-49.98393630981445,57.237083435058594,-4.1143574714660645,-1,RTL,,,,,,ACTIVE,1.5232858657836914,0.01,-0.21,0.0,12,,,,,,2
1733397675.5399013,0.0,True,0.10476628690958023,-0.1577814668416977,0.5585153698921204,-1.0,51,15.3,0,8,False,,,,0,0,3,10,0.29067614674568176,36,28.501,,39.9526379,,-113.4759758,False,0.6290103140054271,78.483,,39.9526009,,-113.4753048,49.982,,39.9526009,,-113.4753048,-49.984004974365234,57.20631790161133,-4.119725227355957,-1,RTL,,,,,,ACTIVE,1733397674.0166154,0.0,-0.38,-0.01,12,,,,,,2
1733397675.6381302,0.0,True,0.09618443250656128,-0.20301267504692078,0.4618574380874634,-1.0,51,15.3,0,8,False,,,,0,0,3,10,0.46321403980255127,29,28.501,,39.9526379,,-113.4759758,False,0.7249947750024148,78.484,,39.9526009,,-113.4753052,49.983,,39.9526009,,-113.4753052,-49.98472595214844,57.173583984375,-4.123615741729736,-1,RTL,,,,,,ACTIVE,1.6215147972106934,0.0,-0.54,-0.02,12,,,,,,2
1733397675.7382743,0.0,True,0.08696427196264267,-0.24455669522285461,0.3651341497898102,-1.0,51,15.3,0,8,False,,,,0,0,3,10,0.6908627152442932,23,28.501,,39.9526379,,-113.4759758,False,0.826914391000173,78.485,,39.9526008,,-113.4753059,49.984,,39.9526008,,-113.4753059,-49.986351013183594,57.11240005493164,-4.128000259399414,-1,RTL,,,,,,ACTIVE,1733397674.1167595,0.0,-0.76,-0.02,12,,,,,,2
1733397675.8375514,0.0,True,0.07089482247829437,-0.2725706100463867,0.27942928671836853,-1.0,51,15.3,0,8,False,,,,0,0,3,10,0.9370761513710022,17,28.501,,39.9526379,,-113.4759758,False,0.9256312350044027,78.487,,39.9526008,,-113.4753067,49.986,,39.9526008,,-113.4753067,-49.98807144165039,57.028438568115234,-4.132200717926025,-1,RTL,,,,,,ACTIVE,1.7207918167114258,0.0,-0.98,-0.02,12,,,,,,2
1733397675.9388912,0.0,True,0.04672730714082718,-0.28741511702537537,0.19745126366615295,-1.0,51,15.3,0,8,False,,,,0,0,3,10,1.2724735736846924,11,28.501,,39.9526379,,-113.4759758,False,0.009089219995075837,78.488,,39.9526008,,-113.4753081,49.987,,39.9526008,,-113.4753081,-49.989219665527344,56.93016815185547,-4.136213779449463,-1,RTL,,,,,,ACTIVE,1733397674.2180994,0.01,-1.27,-0.02,12,,,,,,2
1733397676.0377896,0.0,True,0.021535564213991165,-0.2924230098724365,0.12433600425720215,-1.0,51,15.3,0,8,False,,,,0,0,3,10,1.5229235887527466,7,28.501,,39.9526379,,-113.4759758,False,0.013458656998409424,78.489,,39.9526007,,-113.4753093,49.988,,39.9526007,,-113.4753093,-49.98982620239258,56.822513580322266,-4.139813423156738,-1,RTL,,,,,,ACTIVE,1.819690227508545,0.01,-1.5,-0.01,12,,,,,,2
1733397676.1384282,0.0,True,-0.004673939198255539,-0.29365673661231995,0.051869045943021774,-1.0,51,15.3,0,8,False,,,,0,0,3,10,1.7947075366973877,3,28.501,,39.9526379,,-113.4759758,False,0.11557372199604288,78.489,,39.9526007,,-113.4753111,49.988,,39.9526007,,-113.4753111,-49.99019241333008,56.656795501708984,-4.144236087799072,-1,RTL,,,,,,ACTIVE,1733397674.318738,0.03,-1.77,0.0,12,,,,,,2
1733397676.238159,0.0,True,-0.028354376554489136,-0.29337063431739807,-0.015234975144267082,-1.0,51,15.3,0,8,False,,,,0,0,3,10,1.9740928411483765,0,28.501,,39.9526379,,-113.4759758,False,0.2135249639977701,78.489,,39.9526007,,-113.4753128,49.988,,39.9526007,,-113.4753128,-49.990413665771484,56.52528381347656,-4.146633625030518,-1,RTL,,,,,,ACTIVE,1.9194209575653076,0.04,-1.99,0.0,12,,,,,,2
1733397676.3388176,0.0,True,-0.051987551152706146,-0.2916102707386017,-0.08334638178348541,-1.0,51,15.3,0,8,False,,,,0,0,3,10,2.0633468627929688,358,28.501,,39.9526379,,-113.4759758,False,0.3158342089955113,78.49,,39.9526006,,-113.4753153,49.988,,39.9526006,,-113.4753153,-49.990665435791016,56.310768127441406,-4.148655891418457,-1,RTL,,,,,,ACTIVE,1733397674.4193966,0.06,-2.28,0.0,12,,,,,,2
1733397676.438929,0.0,True,-0.07286386936903,-0.2876976728439331,-0.14747285842895508,-1.0,51,15.3,0,8,False,,,,0,0,3,10,2.3554437160491943,354,28.501,,39.9526379,,-113.4759758,False,0.41359800299687777,78.49,,39.9526006,,-113.4753175,49.989,,39.9526006,,-113.4753175,-49.99081802368164,56.10601806640625,-4.149097442626953,-1,RTL,,,,,,ACTIVE,2.0195324420928955,0.08,-2.51,0.0,12,,,,,,2
1733397676.5390115,0.0,True,-0.09416430443525314,-0.280990868806839,-0.21521155536174774,-1.0,51,15.3,0,8,False,,,,0,0,3,10,2.669201135635376,349,28.501,,39.9526379,,-113.4759758,False,0.5156211629946483,78.49,,39.9526006,,-113.4753204,49.989,,39.9526006,,-113.4753204,-49.9908332824707,55.85820770263672,-4.148006916046143,-1,RTL,,,,,,ACTIVE,1733397674.519479,0.1,-2.77,0.0,12,,,,,,2
1733397676.6406987,0.0,True,-0.11330729722976685,-0.27287644147872925,-0.2796631455421448,-1.0,51,15.3,0,8,False,,,,0,0,3,10,2.9108424186706543,346,28.501,,39.9526379,,-113.4759758,False,0.618241168995155,78.489,,39.9526007,,-113.4753238,49.988,,39.9526007,,-113.4753238,-49.99040603637695,55.58516311645508,-4.1449809074401855,-1,RTL,,,,,,ACTIVE,2.1212196350097656,0.13,-3.06,0.0,12,,,,,,2
1733397676.7391913,0.0,True,-0.1328422725200653,-0.26234006881713867,-0.34811875224113464,-1.0,51,15.3,0,8,False,,,,0,0,3,10,3.175618886947632,342,28.501,,39.9526379,,-113.4759758,False,0.7152975409990177,78.489,,39.9526007,,-113.4753267,49.988,,39.9526007,,-113.4753267,-49.989723205566406,55.33805847167969,-4.140994548797607,-1,RTL,,,,,,ACTIVE,1733397674.6179717,0.15,-3.28,0.0,12,,,,,,2
1733397676.8391247,0.0,True,-0.1498716026544571,-0.2501557767391205,-0.4142912030220032,-1.0,51,15.3,0,8,False,,,,0,0,3,10,3.4592764377593994,337,28.501,,39.9526379,,-113.4759758,False,0.813805757999944,78.488,,39.9526008,,-113.4753299,49.987,,39.9526008,,-113.4753299,-49.98883819580078,55.01808547973633,-4.134131908416748,-1,RTL,,,,,,ACTIVE,2.2211530208587646,0.17,-3.49,0.0,12,,,,,,2
1733397676.9393415,0.0,True,-0.16664503514766693,-0.2357879877090454,-0.48442572355270386,-1.0,51,15.3,0,8,False,,,,0,0,3,10,3.715134382247925,333,28.501,,39.9526379,,-113.4759758,False,0.9155932899957406,78.487,,39.9526008,,-113.4753339,49.986,,39.9526008,,-113.4753339,-49.987911224365234,54.73213195800781,-4.126763820648193,-1,RTL,,,,,,ACTIVE,1733397674.7181885,0.2,-3.75,0.0,12,,,,,,2
1733397677.0431862,0.0,True,-0.1808207929134369,-0.2202528715133667,-0.5528758764266968,-1.0,51,15.3,0,8,False,,,,0,0,3,10,4.027665138244629,328,28.501,,39.9526379,,-113.4759758,False,0.0017723310011206195,78.485,,39.9526009,,-113.4753385,49.984,,39.9526009,,-113.4753385,-49.98637008666992,54.33468246459961,-4.114936828613281,-1,RTL,,,,,,ACTIVE,2.324997663497925,0.23,-4.02,0.0,12,,,,,,2
1733397677.143305,0.0,True,-0.1891619861125946,-0.19492140412330627,-0.6262426376342773,-1.0,51,15.3,0,8,False,,,,0,0,3,10,4.225919723510742,324,28.501,,39.9526379,,-113.4759758,False,0.009011510999698658,78.484,,39.952601,,-113.4753423,49.983,,39.952601,,-113.4753423,-49.98496627807617,54.00971221923828,-4.103908061981201,-1,RTL,,,,,,ACTIVE,1733397674.8183074,0.25,-4.21,0.01,12,,,,,,2
1733397677.2434335,0.0,True,-0.18862594664096832,-0.1609678417444229,-0.6974343657493591,-1.0,51,15.3,0,8,False,,,,0,0,3,10,4.225919723510742,324,28.501,,39.9526379,,-113.4759758,False,0.1073893710054108,78.482,,39.9526012,,-113.4753471,49.98,,39.9526012,,-113.4753471,-49.98252868652344,53.59882354736328,-4.088377952575684,-1,RTL,,,,,,ACTIVE,2.425126075744629,0.28,-4.43,0.01,12,,,,,,2
1733397677.3462362,0.0,True,-0.18099936842918396,-0.12286725640296936,-0.7720509767532349,-1.0,51,15.3,0,8,False,,,,0,0,3,10,4.587172985076904,316,28.501,,39.9526379,,-113.4759758,False,0.20876993800629862,78.479,,39.9526013,,-113.4753513,49.978,,39.9526013,,-113.4753513,-49.980003356933594,53.24073028564453,-4.073392391204834,-1,RTL,,,,,,ACTIVE,1733397674.9211102,0.31,-4.59,0.02,12,,,,,,2
1733397677.4464731,0.0,True,-0.16877007484436035,-0.0878424420952797,-0.8432176113128662,-1.0,51,15.3,0,8,False,,,,0,0,3,10,4.645611763000488,315,28.501,,39.9526379,,-113.4759758,False,0.31115634600428166,78.476,,39.9526015,,-113.475357,49.975,,39.9526015,,-113.475357,-49.97676467895508,52.75661087036133,-4.050364971160889,-1,RTL,,,,,,ACTIVE,2.525362968444824,0.34,-4.76,0.01,12,,,,,,2
1733397677.5473726,0.0,True,-0.14888715744018555,-0.05149102210998535,-0.922883152961731,-1.0,51,15.3,0,8,False,,,,0,0,3,10,4.811883449554443,310,28.501,,39.9526379,,-113.4759758,False,0.4137770290035405,78.473,,39.9526017,,-113.4753615,49.972,,39.9526017,,-113.4753615,-49.97423553466797,52.332881927490234,-4.027487277984619,-1,RTL,,,,,,ACTIVE,1733397675.0220096,0.38,-4.86,0.01,12,,,,,,2
1733397677.649413,0.0,True,-0.12555009126663208,-0.021994609385728836,-0.9947804808616638,-1.0,51,15.3,0,8,False,,,,0,0,3,10,4.944021224975586,305,28.501,,39.9526379,,-113.4759758,False,0.5157634530041832,78.471,,39.952602,,-113.4753671,49.97,,39.952602,,-113.4753671,-49.9716682434082,51.85893249511719,-3.998452663421631,-1,RTL,,,,,,ACTIVE,2.627403497695923,0.42,-4.96,0.0,12,,,,,,2
1733397677.747729,0.0,True,-0.09965991973876953,0.00244846916757524,-1.0633690357208252,-1.0,51,15.3,0,8,False,,,,0,0,3,10,5.0189208984375,301,28.501,,39.9526379,,-113.4759758,False,0.6137661230022786,78.469,,39.9526022,,-113.4753718,49.968,,39.9526022,,-113.4753718,-49.97014236450195,51.497074127197266,-3.973816156387329,-1,RTL,,,,,,ACTIVE,1733397675.1203256,0.45,-5.01,0.0,12,,,,,,2
1733397677.8467045,0.0,True,-0.07168610394001007,0.02116319350898266,-1.125338077545166,-1.0,51,15.3,0,8,False,,,,0,0,3,10,5.071463108062744,297,28.501,,39.9526379,,-113.4759758,False,0.712779887006036,78.467,,39.9526026,,-113.475378,49.966,,39.9526026,,-113.475378,-49.96827697753906,50.967166900634766,-3.9340057373046875,-1,RTL,,,,,,ACTIVE,2.726378917694092,0.5,-5.05,0.0,12,,,,,,2
1733397677.9482358,0.0,True,-0.03811066970229149,0.030328458175063133,-1.2018922567367554,-1.0,51,15.3,0,8,False,,,,0,0,3,10,5.091450214385986,292,28.501,,39.9526379,,-113.4759758,False,0.8141736100005801,78.466,,39.9526029,,-113.4753828,49.965,,39.9526029,,-113.4753828,-49.96689987182617,50.47306442260742,-3.892927646636963,-1,RTL,,,,,,ACTIVE,1733397675.2218568,0.53,-5.06,0.0,12,,,,,,2
1733397678.0507033,0.0,True,-0.02212250791490078,0.028783047571778297,-1.272869348526001,-1.0,51,15.3,0,8,False,,,,0,0,3,10,5.088284492492676,288,28.501,,39.9526379,,-113.4759758,False,0.9154341470057261,78.465,,39.9526033,,-113.4753887,49.964,,39.9526033,,-113.4753887,-49.96601104736328,50.059574127197266,-3.855701446533203,-1,RTL,,,,,,ACTIVE,2.8288464546203613,0.56,-5.05,-0.01,12,,,,,,2
1733397678.1483586,0.0,True,-0.015379414893686771,0.024651020765304565,-1.3418035507202148,-1.0,51,15.3,0,8,False,,,,0,0,3,10,5.072999954223633,283,28.501,,39.9526379,,-113.4759758,False,1.013360665005166,78.464,,39.9526036,,-113.4753935,49.963,,39.9526036,,-113.4753935,-49.96528244018555,49.60328674316406,-3.8121888637542725,-1,RTL,,,,,,ACTIVE,1733397675.3195121,0.58,-5.04,-0.01,12,,,,,,2
1733397678.2483525,0.0,True,-0.012362971901893616,0.02084234729409218,-1.4043490886688232,-1.0,51,15.3,0,8,False,,,,0,0,3,10,5.058232307434082,279,28.501,,39.9526379,,-113.4759758,False,0.003111402998911217,78.464,,39.9526041,,-113.4753999,49.962,,39.9526041,,-113.4753999,-49.96459197998047,49.10475158691406,-3.7619271278381348,-1,RTL,,,,,,ACTIVE,2.928840398788452,0.6,-5.02,-0.01,12,,,,,,2
1733397678.3488202,0.0,True,-0.009039472788572311,0.01628715544939041,-1.4828178882598877,-1.0,51,15.3,0,8,False,,,,0,0,3,10,5.058232307434082,279,28.501,,39.9526379,,-113.4759758,False,0.10384680800052593,78.463,,39.9526045,,-113.4754047,49.962,,39.9526045,,-113.4754047,-49.9640998840332,48.68921661376953,-3.7178401947021484,-1,RTL,,,,,,ACTIVE,1733397675.4199798,0.61,-5.01,-0.02,12,,,,,,2
1733397678.4490163,0.0,True,-0.006116025615483522,0.013503653928637505,-1.5549163818359375,-1.0,51,15.3,0,8,False,,,,0,0,3,10,5.035207748413086,271,28.501,,39.9526379,,-113.4759758,False,0.20435524699860252,78.463,,39.952605,,-113.4754106,49.961,,39.952605,,-113.4754106,-49.96352005004883,48.19084930419922,-3.662773847579956,-1,RTL,,,,,,ACTIVE,3.029036521911621,0.62,-4.99,-0.02,12,,,,,,2
1733397678.5491042,0.0,True,-0.003716186387464404,0.01716744527220726,-1.6161283254623413,-1.0,51,15.3,0,8,False,,,,0,0,3,10,5.030602931976318,270,28.501,,39.9526379,,-113.4759758,False,0.3025547319994075,78.462,,39.9526054,,-113.4754155,49.961,,39.9526054,,-113.4754155,-49.962955474853516,47.734649658203125,-3.610382556915283,-1,RTL,,,,,,ACTIVE,1733397675.5200677,0.63,-4.98,-0.02,12,,,,,,2
1733397678.6501591,0.0,True,-0.00202649412676692,0.021634981036186218,-1.662630558013916,-1.0,51,15.3,0,8,False,,,,0,0,3,10,5.013762474060059,266,28.501,,39.9526379,,-113.4759758,False,0.4051634639981785,78.461,,39.952606,,-113.4754218,49.96,,39.952606,,-113.4754218,-49.962440490722656,47.19716262817383,-3.54571533203125,-1,RTL,,,,,,ACTIVE,3.130091428756714,0.64,-4.96,-0.02,12,,,,,,2
1733397678.7500863,0.0,True,-0.0015414251247420907,0.02112223207950592,-1.6834489107131958,-1.0,51,15.3,0,8,False,,,,0,0,3,10,4.996582984924316,263,28.501,,39.9526379,,-113.4759758,False,0.5021531269958359,78.461,,39.9526065,,-113.4754266,49.96,,39.9526065,,-113.4754266,-49.96238708496094,46.826541900634766,-3.4988934993743896,-1,RTL,,,,,,ACTIVE,1733397675.6199949,0.66,-4.94,-0.02,12,,,,,,2
1733397678.85095,0.0,True,-0.0016161606181412935,0.013226257637143135,-1.693813681602478,-1.0,51,15.3,0,8,False,,,,0,0,3,10,4.983987808227539,262,28.501,,39.9526379,,-113.4759758,False,0.6055204419972142,78.461,,39.952607,,-113.4754314,49.96,,39.952607,,-113.4754314,-49.96249771118164,46.334007263183594,-3.4340083599090576,-1,RTL,,,,,,ACTIVE,3.230955123901367,0.67,-4.93,-0.02,12,,,,,,2
1733397678.9504259,0.0,True,-0.0023357723839581013,0.002300332998856902,-1.6871577501296997,-1.0,51,15.3,0,8,False,,,,0,0,3,10,4.96954345703125,263,28.501,,39.9526379,,-113.4759758,False,0.7022144299990032,78.462,,39.9526076,,-113.4754372,49.961,,39.9526076,,-113.4754372,-49.9627685546875,45.925418853759766,-3.378495931625366,-1,RTL,,,,,,ACTIVE,1733397675.7194707,0.68,-4.92,-0.02,12,,,,,,2
1733397679.0547426,0.0,True,-0.0027933884412050247,-0.012243853881955147,-1.6647686958312988,-1.0,51,15.3,0,8,False,,,,0,0,3,10,4.9526872634887695,264,28.501,,39.9526379,,-113.4759758,False,0.8101644380003563,78.462,,39.9526082,,-113.4754434,49.961,,39.9526082,,-113.4754434,-49.96331024169922,45.396793365478516,-3.3057897090911865,-1,RTL,,,,,,ACTIVE,3.3352718353271484,0.67,-4.9,-0.02,12,,,,,,2
1733397679.154112,0.0,True,-0.002981059020385146,-0.02408246137201786,-1.6348655223846436,-1.0,51,15.3,0,8,False,,,,0,0,3,10,4.935318946838379,266,28.501,,39.9526379,,-113.4759758,False,0.9066763770024409,78.463,,39.9526087,,-113.4754481,49.962,,39.9526087,,-113.4754481,-49.963932037353516,44.99221420288086,-3.250521183013916,-1,RTL,,,,,,ACTIVE,1733397675.8188403,0.65,-4.89,-0.02,12,,,,,,2
1733397679.2550085,0.0,True,-0.0028768705669790506,-0.03197270631790161,-1.6023313999176025,-1.0,51,15.3,0,8,False,,,,0,0,3,10,4.935318946838379,266,28.501,,39.9526379,,-113.4759758,False,1.0099338310028543,78.464,,39.9526093,,-113.4754538,49.963,,39.9526093,,-113.4754538,-49.96498489379883,44.5084228515625,-3.1858179569244385,-1,RTL,,,,,,ACTIVE,3.4361681938171387,0.62,-4.87,-0.02,12,,,,,,2
1733397679.3552403,0.0,True,-0.0030765451956540346,-0.037664562463760376,-1.5679229497909546,-1.0,51,15.3,0,8,False,,,,0,0,3,10,4.912466049194336,268,28.501,,39.9526379,,-113.4759758,False,0.07530509899515891,78.465,,39.9526098,,-113.4754585,49.964,,39.9526098,,-113.4754585,-49.96608352661133,44.10704803466797,-3.133478879928589,-1,RTL,,,,,,ACTIVE,1733397675.9190722,0.6,-4.86,-0.02,12,,,,,,2
1733397679.4556763,0.0,True,-0.0037839950527995825,-0.040440455079078674,-1.537811279296875,-1.0,51,15.3,0,8,False,,,,0,0,3,10,4.894601345062256,270,28.501,,39.9526379,,-113.4759758,False,0.08565737600292778,78.467,,39.9526104,,-113.4754646,49.965,,39.9526104,,-113.4754646,-49.96763610839844,43.588233947753906,-3.067708969116211,-1,RTL,,,,,,ACTIVE,3.536604166030884,0.56,-4.84,-0.02,12,,,,,,2
1733397679.5552387,0.0,True,-0.0053987521678209305,-0.04158168286085129,-1.5108325481414795,-1.0,51,15.3,0,8,False,,,,0,0,3,10,4.872563362121582,272,28.501,,39.9526379,,-113.4759758,False,0.1825926720048301,78.468,,39.9526108,,-113.4754692,49.967,,39.9526108,,-113.4754692,-49.969146728515625,43.15187072753906,-3.014197826385498,-1,RTL,,,,,,ACTIVE,1733397676.0186346,0.53,-4.83,-0.02,12,,,,,,2
1733397679.6552022,0.0,True,-0.00703507149592042,-0.0407775454223156,-1.4901365041732788,-1.0,51,15.3,0,8,False,,,,0,0,3,10,4.855954647064209,273,28.501,,39.9526379,,-113.4759758,False,0.28514784800063353,78.47,,39.9526113,,-113.4754748,49.969,,39.9526113,,-113.4754748,-49.970703125,42.7176513671875,-2.96252703666687,-1,RTL,,,,,,ACTIVE,3.6365675926208496,0.49,-4.82,-0.02,12,,,,,,2
1733397679.7559853,0.0,True,-0.008925987407565117,-0.03907975181937218,-1.4743510484695435,-1.0,51,15.3,0,8,False,,,,0,0,3,10,4.8399577140808105,275,28.501,,39.9526379,,-113.4759758,False,0.3871507690055296,78.471,,39.9526117,,-113.4754794,49.97,,39.9526117,,-113.4754794,-49.97212600708008,42.32494354248047,-2.9172089099884033,-1,RTL,,,,,,ACTIVE,1733397676.1194177,0.46,-4.81,-0.02,12,,,,,,2
1733397679.8559532,0.0,True,-0.01111915148794651,-0.03664371743798256,-1.4646061658859253,-1.0,51,15.3,0,8,False,,,,0,0,3,10,4.826859474182129,275,28.501,,39.9526379,,-113.4759758,False,0.48685781100357417,78.473,,39.9526122,,-113.4754854,49.972,,39.9526122,,-113.4754854,-49.97405242919922,41.81685256958008,-2.860809326171875,-1,RTL,,,,,,ACTIVE,3.7365355491638184,0.43,-4.8,-0.01,12,,,,,,2
1733397679.9576309,0.0,True,-0.013903936371207237,-0.033972661942243576,-1.4592547416687012,-1.0,51,15.3,0,8,False,,,,0,0,3,10,4.817976951599121,276,28.501,,39.9526379,,-113.4759758,False,0.5883232800042606,78.475,,39.9526126,,-113.4754899,49.973,,39.9526126,,-113.4754899,-49.97554016113281,41.427894592285156,-2.819478988647461,-1,RTL,,,,,,ACTIVE,1733397676.2210953,0.41,-4.79,-0.01,12,,,,,,2
1733397680.055965,0.0,True,-0.016621176153421402,-0.03160027787089348,-1.4583226442337036,-1.0,51,15.3,0,8,False,,,,0,0,3,10,4.811429023742676,276,28.501,,39.9526379,,-113.4759758,False,0.6851716240053065,78.476,,39.952613,,-113.4754954,49.975,,39.952613,,-113.4754954,-49.97724151611328,40.9627799987793,-2.7718403339385986,-1,RTL,,,,,,ACTIVE,3.834869623184204,0.39,-4.79,-0.01,12,,,,,,2
1733397680.1563654,0.0,True,-0.01975591480731964,-0.02884143777191639,-1.460673213005066,-1.0,51,15.3,0,8,False,,,,0,0,3,10,4.800685882568359,276,28.501,,39.9526379,,-113.4759758,False,0.7866699540027184,78.478,,39.9526134,,-113.4754999,49.976,,39.9526134,,-113.4754999,-49.978759765625,40.537906646728516,-2.7300331592559814,-1,RTL,,,,,,ACTIVE,1733397676.3214958,0.37,-4.78,-0.01,12,,,,,,2
1733397680.2566555,0.0,True,-0.023649342358112335,-0.026817509904503822,-1.4648587703704834,-1.0,51,15.3,0,8,False,,,,0,0,3,10,4.800685882568359,276,28.501,,39.9526379,,-113.4759758,False,0.8851604209994548,78.479,,39.9526138,,-113.4755058,49.978,,39.9526138,,-113.4755058,-49.98038864135742,40.075904846191406,-2.6865711212158203,-1,RTL,,,,,,ACTIVE,3.935159683227539,0.35,-4.78,-0.01,12,,,,,,2
1733397680.3597765,0.0,True,-0.027517056092619896,-0.024987932294607162,-1.4705452919006348,-1.0,51,15.3,0,8,False,,,,0,0,3,10,4.7930006980896,276,28.501,,39.9526379,,-113.4759758,False,0.9869892679998884,78.481,,39.9526141,,-113.4755103,49.98,,39.9526141,,-113.4755103,-49.98192596435547,39.69192886352539,-2.6519224643707275,-1,RTL,,,,,,ACTIVE,1733397676.4246168,0.34,-4.77,-0.01,12,,,,,,2
1733397680.456409,0.0,True,-0.031241921707987785,-0.02347515895962715,-1.4761511087417603,-1.0,51,15.3,0,8,False,,,,0,0,3,10,4.789493560791016,275,28.501,,39.9526379,,-113.4759758,False,0.06697940600133734,78.483,,39.9526145,,-113.4755157,49.982,,39.9526145,,-113.4755157,-49.983970642089844,39.232093811035156,-2.6121528148651123,-1,RTL,,,,,,ACTIVE,4.031792163848877,0.32,-4.77,-0.01,12,,,,,,2
1733397680.5567389,0.0,True,-0.034512709826231,-0.022261327132582664,-1.482262134552002,-1.0,51,15.3,0,8,False,,,,0,0,3,10,4.787761211395264,275,28.501,,39.9526379,,-113.4759758,False,0.07570036499964772,78.485,,39.9526147,,-113.4755202,49.983,,39.9526147,,-113.4755202,-49.98579025268555,38.811241149902344,-2.5774500370025635,-1,RTL,,,,,,ACTIVE,1733397676.5249467,0.31,-4.77,-0.01,12,,,,,,2
1733397680.6586702,0.0,True,-0.037859562784433365,-0.02095147594809532,-1.487594723701477,-1.0,51,15.3,0,8,False,,,,0,0,3,10,4.789941310882568,274,28.501,,39.9526379,,-113.4759758,False,0.17778968999482458,78.486,,39.9526151,,-113.475526,49.985,,39.9526151,,-113.475526,-49.98733139038086,38.35236358642578,-2.541266918182373,-1,RTL,,,,,,ACTIVE,4.133723497390747,0.3,-4.78,0.0,12,,,,,,2
1733397680.7571535,0.0,True,-0.04025343805551529,-0.0199004914611578,-1.492154598236084,-1.0,51,15.3,0,8,False,,,,0,0,3,10,4.795937538146973,274,28.501,,39.9526379,,-113.4759758,False,0.27547353800036944,78.487,,39.9526154,,-113.4755305,49.986,,39.9526154,,-113.4755305,-49.988372802734375,37.969947814941406,-2.51241397857666,-1,RTL,,,,,,ACTIVE,1733397676.62343,0.29,-4.79,0.0,12,,,,,,2
1733397680.8569372,0.0,True,-0.04237645864486694,-0.018468841910362244,-1.49606454372406,-1.0,51,15.3,0,8,False,,,,0,0,3,10,4.80944299697876,274,28.501,,39.9526379,,-113.4759758,False,0.3742005089952727,78.488,,39.9526157,,-113.4755359,49.987,,39.9526157,,-113.4755359,-49.989471435546875,37.51070785522461,-2.479520082473755,-1,RTL,,,,,,ACTIVE,4.23350715637207,0.28,-4.8,0.0,12,,,,,,2
1733397680.9573307,0.0,True,-0.04353613778948784,-0.0166087094694376,-1.4986592531204224,-1.0,51,15.3,0,8,False,,,,0,0,3,10,4.825280666351318,274,28.501,,39.9526379,,-113.4759758,False,0.47551954299706267,78.489,,39.9526159,,-113.4755404,49.988,,39.9526159,,-113.4755404,-49.99031066894531,37.12757110595703,-2.453566789627075,-1,RTL,,,,,,ACTIVE,1733397676.7238235,0.26,-4.81,0.0,12,,,,,,2
1733397681.0571706,0.0,True,-0.04468800127506256,-0.014956323429942131,-1.500531554222107,-1.0,51,15.3,0,8,False,,,,0,0,3,10,4.838129043579102,274,28.501,,39.9526379,,-113.4759758,False,0.5739302239962853,78.49,,39.9526161,,-113.4755449,49.989,,39.9526161,,-113.4755449,-49.991146087646484,36.70555114746094,-2.4264378547668457,-1,RTL,,,,,,ACTIVE,4.3333470821380615,0.25,-4.82,0.0,12,,,,,,2
1733397681.1574404,0.0,True,-0.0456852912902832,-0.013034220784902573,-1.5015242099761963,-1.0,51,15.3,0,8,False,,,,0,0,3,10,4.854423522949219,273,28.501,,39.9526379,,-113.4759758,False,0.6758554549960536,78.491,,39.9526164,,-113.4755507,49.99,,39.9526164,,-113.4755507,-49.99178695678711,36.24421691894531,-2.398157835006714,-1,RTL,,,,,,ACTIVE,1733397676.8240933,0.24,-4.84,0.0,12,,,,,,2
1733397681.2583644,0.0,True,-0.04665595293045044,-0.011472160927951336,-1.5020819902420044,-1.0,51,15.3,0,8,False,,,,0,0,3,10,4.868119239807129,273,28.501,,39.9526379,,-113.4759758,False,0.7784361799931503,78.491,,39.9526166,,-113.4755562,49.99,,39.9526166,,-113.4755562,-49.99227523803711,35.78181457519531,-2.3709115982055664,-1,RTL,,,,,,ACTIVE,4.4342710971832275,0.24,-4.86,0.0,12,,,,,,2
1733397681.3574185,0.0,True,-0.04677484929561615,-0.01026180200278759,-1.501976490020752,-1.0,51,15.3,0,8,False,,,,0,0,3,10,4.873398780822754,273,28.501,,39.9526379,,-113.4759758,False,0.8763965909965918,78.492,,39.9526168,,-113.4755607,49.991,,39.9526168,,-113.4755607,-49.992713928222656,35.395565032958984,-2.34897518157959,-1,RTL,,,,,,ACTIVE,1733397676.9231474,0.23,-4.88,0.0,12,,,,,,2
1733397681.4597127,0.0,True,-0.045608989894390106,-0.008456860668957233,-1.5014556646347046,-1.0,51,15.3,0,8,False,,,,0,0,3,10,4.892727375030518,273,28.501,,39.9526379,,-113.4759758,False,0.9779741919992375,78.492,,39.952617,,-113.4755652,49.991,,39.952617,,-113.4755652,-49.99320602416992,34.970008850097656,-2.3254621028900146,-1,RTL,,,,,,ACTIVE,4.53656530380249,0.23,-4.89,0.0,12,,,,,,2
1733397681.5582852,0.0,True,-0.044386111199855804,-0.0065977913327515125,-1.500684380531311,-1.0,51,15.3,0,8,False,,,,0,0,3,10,4.911314964294434,273,28.501,,39.9526379,,-113.4759758,False,0.044557754998095334,78.493,,39.9526173,,-113.4755711,49.992,,39.9526173,,-113.4755711,-49.993751525878906,34.50523376464844,-2.3005168437957764,-1,RTL,,,,,,ACTIVE,1733397677.02172,0.22,-4.91,0.0,12,,,,,,2
1733397681.658431,0.0,True,-0.0433465950191021,-0.004810049198567867,-1.500123143196106,-1.0,51,15.3,0,8,False,,,,0,0,3,10,4.92181396484375,274,28.501,,39.9526379,,-113.4759758,False,0.05302929499885067,78.493,,39.9526174,,-113.4755757,49.992,,39.9526174,,-113.4755757,-49.994293212890625,34.117435455322266,-2.2802574634552,-1,RTL,,,,,,ACTIVE,4.636711120605469,0.22,-4.92,0.0,12,,,,,,2
1733397681.7583,0.0,True,-0.04199904575943947,-0.0031788735650479794,-1.4996792078018188,-1.0,51,15.3,0,8,False,,,,0,0,3,10,4.93248176574707,274,28.501,,39.9526379,,-113.4759758,False,0.15120203299738932,78.494,,39.9526177,,-113.4755812,49.993,,39.9526177,,-113.4755812,-49.995052337646484,33.65170669555664,-2.2564878463745117,-1,RTL,,,,,,ACTIVE,1733397677.121589,0.22,-4.92,0.0,12,,,,,,2
1733397681.858102,0.0,True,-0.04135296493768692,-0.0017866037087514997,-1.4985623359680176,-1.0,51,15.3,0,8,False,,,,0,0,3,10,4.93884801864624,274,28.501,,39.9526379,,-113.4759758,False,0.252872548000596,78.494,,39.9526178,,-113.4755857,49.993,,39.9526178,,-113.4755857,-49.99549102783203,33.26319122314453,-2.2368154525756836,-1,RTL,,,,,,ACTIVE,4.736513137817383,0.22,-4.93,0.0,12,,,,,,2
1733397681.9583414,0.0,True,-0.04063793271780014,-0.0007959545473568141,-1.4981223344802856,-1.0,51,15.3,0,8,False,,,,0,0,3,10,4.944225311279297,274,28.501,,39.9526379,,-113.4759758,False,0.35127594500227133,78.495,,39.9526181,,-113.4755917,49.993,,39.9526181,,-113.4755917,-49.99565505981445,32.75712203979492,-2.2112843990325928,-1,RTL,,,,,,ACTIVE,1733397677.2218282,0.22,-4.93,0.0,12,,,,,,2
1733397682.0582817,0.0,True,-0.04059147834777832,1.5196801541605964e-05,-1.4973132610321045,-1.0,51,15.3,0,8,False,,,,0,0,3,10,4.946452617645264,274,28.501,,39.9526379,,-113.4759758,False,0.4530327780012158,78.495,,39.9526182,,-113.4755962,49.993,,39.9526182,,-113.4755962,-49.995540618896484,32.367191314697266,-2.191558599472046,-1,RTL,,,,,,ACTIVE,4.836453437805176,0.23,-4.94,0.0,12,,,,,,2
1733397682.1583304,0.0,True,-0.04053943231701851,0.0005152845988050103,-1.496823787689209,-1.0,51,15.3,0,8,False,,,,0,0,3,10,4.94687557220459,274,28.501,,39.9526379,,-113.4759758,False,0.5513894820032874,78.494,,39.9526185,,-113.4756017,49.993,,39.9526185,,-113.4756017,-49.9953727722168,31.898685455322266,-2.16776704788208,-1,RTL,,,,,,ACTIVE,1733397677.321877,0.23,-4.94,0.0,12,,,,,,2
1733397682.2587318,0.0,True,-0.04022344574332237,0.0015075112460181117,-1.4966437816619873,-1.0,51,15.3,0,8,False,,,,0,0,3,10,4.951216220855713,274,28.501,,39.9526379,,-113.4759758,False,0.6533814840004197,78.494,,39.9526186,,-113.4756063,49.993,,39.9526186,,-113.4756063,-49.9952507019043,31.50772476196289,-2.1475980281829834,-1,RTL,,,,,,ACTIVE,4.936854839324951,0.23,-4.94,0.0,12,,,,,,2
1733397682.3588226,0.0,True,-0.039645642042160034,0.002445617690682411,-1.4962929487228394,-1.0,51,15.3,0,8,False,,,,0,0,3,10,4.960770606994629,274,28.501,,39.9526379,,-113.4759758,False,0.7513319339996087,78.494,,39.9526189,,-113.4756123,49.993,,39.9526189,,-113.4756123,-49.995113372802734,30.998746871948242,-2.121047258377075,-1,RTL,,,,,,ACTIVE,1733397677.4219677,0.24,-4.95,0.0,12,,,,,,2
1733397682.4589696,0.0,True,-0.0390937402844429,0.0032236881088465452,-1.4960674047470093,-1.0,51,15.3,0,8,False,,,,0,0,3,10,4.962314128875732,274,28.501,,39.9526379,,-113.4759758,False,0.8531273949993192,78.494,,39.9526191,,-113.4756169,49.993,,39.9526191,,-113.4756169,-49.99497985839844,30.567502975463867,-2.09818959236145,-1,RTL,,,,,,ACTIVE,5.037001848220825,0.24,-4.95,0.0,12,,,,,,2
1733397682.559062,0.0,True,-0.038441870361566544,0.003876402508467436,-1.4961308240890503,-1.0,51,15.3,0,8,False,,,,0,0,3,10,4.968053817749023,274,28.501,,39.9526379,,-113.4759758,False,0.9514386720038601,78.494,,39.9526193,,-113.4756224,49.993,,39.9526193,,-113.4756224,-49.99467468261719,30.1358699798584,-2.0747745037078857,-1,RTL,,,,,,ACTIVE,1733397677.5220602,0.25,-4.96,0.01,12,,,,,,2
1733397682.6591697,0.0,True,-0.03793727979063988,0.004760262556374073,-1.4960167407989502,-1.0,51,15.3,0,8,False,,,,0,0,3,10,4.97519063949585,274,28.501,,39.9526379,,-113.4759758,False,0.03541592200053856,78.493,,39.9526195,,-113.475627,49.992,,39.9526195,,-113.475627,-49.99435806274414,29.742990493774414,-2.0533463954925537,-1,RTL,,,,,,ACTIVE,5.1371095180511475,0.25,-4.96,0.0,12,,,,,,2
1733397682.759091,0.0,True,-0.0367734469473362,0.0055187721736729145,-1.4964282512664795,-1.0,51,15.3,0,8,False,,,,0,0,3,10,4.982665061950684,274,28.501,,39.9526379,,-113.4759758,False,0.04059831400081748,78.493,,39.9526197,,-113.475633,49.992,,39.9526197,,-113.475633,-49.994022369384766,29.231414794921875,-2.025157928466797,-1,RTL,,,,,,ACTIVE,1733397677.6219814,0.26,-4.97,0.0,12,,,,,,2
1733397682.8593845,0.0,True,-0.03583908826112747,0.006078124977648258,-1.496516466140747,-1.0,51,15.3,0,8,False,,,,0,0,3,10,4.98964786529541,274,28.501,,39.9526379,,-113.4759758,False,0.14201460900221718,78.493,,39.9526199,,-113.4756376,49.992,,39.9526199,,-113.4756376,-49.99369812011719,28.837276458740234,-2.0031628608703613,-1,RTL,,,,,,ACTIVE,5.237403154373169,0.26,-4.98,0.0,12,,,,,,2
1733397682.9596958,0.0,True,-0.03533162921667099,0.006611263379454613,-1.4966990947723389,-1.0,51,15.3,0,8,False,,,,0,0,3,10,4.996681213378906,274,28.501,,39.9526379,,-113.4759758,False,0.24072430000524037,78.492,,39.9526202,,-113.4756432,49.991,,39.9526202,,-113.4756432,-49.99319076538086,28.363773345947266,-1.9764882326126099,-1,RTL,,,,,,ACTIVE,1733397677.7222927,0.27,-4.98,0.0,12,,,,,,2
1733397683.0596719,0.0,True,-0.03435350954532623,0.006886492017656565,-1.4966301918029785,-1.0,51,15.3,0,8,False,,,,0,0,3,10,4.999375820159912,274,28.501,,39.9526379,,-113.4759758,False,0.34218212400446646,78.492,,39.9526204,,-113.4756478,49.991,,39.9526204,,-113.4756478,-49.99268341064453,27.929262161254883,-1.9516710042953491,-1,RTL,,,,,,ACTIVE,5.337379217147827,0.27,-4.99,0.0,12,,,,,,2
1733397683.1595736,0.0,True,-0.0343947559595108,0.0069562471471726894,-1.4966024160385132,-1.0,51,15.3,0,8,False,,,,0,0,3,10,4.999375820159912,274,28.501,,39.9526379,,-113.4759758,False,0.4403655970018008,78.491,,39.9526206,,-113.4756539,49.99,,39.9526206,,-113.4756539,-49.99235916137695,27.45475196838379,-1.9238252639770508,-1,RTL,,,,,,ACTIVE,1733397677.8221943,0.28,-4.99,0.0,12,,,,,,2
1733397683.259857,0.0,True,-0.03404311463236809,0.007040625903755426,-1.4963605403900146,-1.0,51,15.3,0,8,False,,,,0,0,3,10,5.004817962646484,274,28.501,,39.9526379,,-113.4759758,False,0.5423742350030807,78.491,,39.9526209,,-113.4756585,49.99,,39.9526209,,-113.4756585,-49.99227523803711,27.058944702148438,-1.8999145030975342,-1,RTL,,,,,,ACTIVE,5.437662601470947,0.29,-5.0,0.0,12,,,,,,2
1733397683.360355,0.0,True,-0.03287620097398758,0.006969453301280737,-1.4967451095581055,-1.0,51,15.3,0,8,False,,,,0,0,3,10,5.012176513671875,274,28.501,,39.9526379,,-113.4759758,False,0.644539134002116,78.491,,39.9526211,,-113.4756641,49.99,,39.9526211,,-113.4756641,-49.99238586425781,26.58314323425293,-1.8706620931625366,-1,RTL,,,,,,ACTIVE,1733397677.9226923,0.29,-5.0,0.0,12,,,,,,2
1733397683.459913,0.0,True,-0.0312800332903862,0.0072290897369384766,-1.4967906475067139,-1.0,51,15.3,0,8,False,,,,0,0,3,10,5.026558876037598,274,28.501,,39.9526379,,-113.4759758,False,0.7420909339998616,78.492,,39.9526213,,-113.4756687,49.99,,39.9526213,,-113.4756687,-49.992523193359375,26.146211624145508,-1.8434158563613892,-1,RTL,,,,,,ACTIVE,5.53722071647644,0.3,-5.01,0.0,12,,,,,,2
1733397683.560508,0.0,True,-0.03038911707699299,0.0073289452120661736,-1.496491551399231,-1.0,51,15.3,0,8,False,,,,0,0,3,10,5.027169227600098,274,28.501,,39.9526379,,-113.4759758,False,0.8442800270058797,78.492,,39.9526216,,-113.4756748,49.99,,39.9526216,,-113.4756748,-49.99261474609375,25.668909072875977,-1.8132091760635376,-1,RTL,,,,,,ACTIVE,1733397678.0232873,0.3,-5.02,0.0,12,,,,,,2
1733397683.6603322,0.0,True,-0.029677333310246468,0.007084065116941929,-1.4964810609817505,-1.0,51,15.3,0,8,False,,,,0,0,3,10,5.032433986663818,274,28.501,,39.9526379,,-113.4759758,False,0.9420128710044082,78.492,,39.9526219,,-113.4756795,49.991,,39.9526219,,-113.4756795,-49.99271011352539,25.27079200744629,-1.787719964981079,-1,RTL,,,,,,ACTIVE,5.637044906616211,0.31,-5.02,0.0,12,,,,,,2
1733397683.7627516,0.0,True,-0.0292949378490448,0.0065725017338991165,-1.4964077472686768,-1.0,51,15.3,0,8,False,,,,0,0,3,10,5.032447814941406,274,28.501,,39.9526379,,-113.4759758,False,0.026442650996614248,78.492,,39.9526222,,-113.4756851,49.991,,39.9526222,,-113.4756851,-49.99293518066406,24.79294204711914,-1.756552815437317,-1,RTL,,,,,,ACTIVE,1733397678.1257067,0.32,-5.02,0.0,12,,,,,,2
1733397683.863734,0.0,True,-0.029690928757190704,0.005911899730563164,-1.496383547782898,-1.0,51,15.3,0,8,False,,,,0,0,3,10,5.032682418823242,274,28.501,,39.9526379,,-113.4759758,False,0.03413347600144334,78.492,,39.9526224,,-113.4756898,49.991,,39.9526224,,-113.4756898,-49.993038177490234,24.315017700195312,-1.7243506908416748,-1,RTL,,,,,,ACTIVE,5.738027334213257,0.32,-5.02,0.0,12,,,,,,2
1733397683.9610054,0.0,True,-0.02973969839513302,0.005304685328155756,-1.496561050415039,-1.0,51,15.3,0,8,False,,,,0,0,3,10,5.031702518463135,274,28.501,,39.9526379,,-113.4759758,False,0.13105789499968523,78.492,,39.9526227,,-113.4756958,49.991,,39.9526227,,-113.4756958,-49.993106842041016,23.876718521118164,-1.6940019130706787,-1,RTL,,,,,,ACTIVE,1733397678.222978,0.33,-5.02,0.0,12,,,,,,2
1733397684.0630667,0.0,True,-0.030193133279681206,0.004638725891709328,-1.4967093467712402,-1.0,51,15.3,0,8,False,,,,0,0,3,10,5.028822898864746,274,28.501,,39.9526379,,-113.4759758,False,0.23384458199871005,78.492,,39.952623,,-113.4757005,49.991,,39.952623,,-113.4757005,-49.993099212646484,23.478269577026367,-1.6657781600952148,-1,RTL,,,,,,ACTIVE,5.840088605880737,0.33,-5.01,0.0,12,,,,,,2
1733397684.1621878,0.0,True,-0.030437560752034187,0.003899345872923732,-1.496790885925293,-1.0,51,15.3,0,8,False,,,,0,0,3,10,5.026683330535889,274,28.501,,39.9526379,,-113.4759758,False,0.3321599970004172,78.492,,39.9526233,,-113.4757061,49.991,,39.9526233,,-113.4757061,-49.99306106567383,22.960426330566406,-1.6284123659133911,-1,RTL,,,,,,ACTIVE,1733397678.3220992,0.34,-5.01,0.0,12,,,,,,2
1733397684.265766,0.0,True,-0.030916713178157806,0.002698482247069478,-1.4968725442886353,-1.0,51,15.3,0,8,False,,,,0,0,3,10,5.026683330535889,274,28.501,,39.9526379,,-113.4759758,False,0.43361032500251895,78.492,,39.9526235,,-113.4757108,49.991,,39.9526235,,-113.4757108,-49.99307632446289,22.601978302001953,-1.6022282838821411,-1,RTL,,,,,,ACTIVE,5.943666696548462,0.34,-5.01,0.0,12,,,,,,2
1733397684.3627124,0.0,True,-0.03088647872209549,0.0019753146916627884,-1.4972459077835083,-1.0,51,15.3,0,8,False,,,,0,0,3,10,5.026677131652832,274,28.501,,39.9526379,,-113.4759758,False,0.5321054000014556,78.492,,39.9526239,,-113.4757169,49.991,,39.9526239,,-113.4757169,-49.9931526184082,22.084035873413086,-1.5640982389450073,-1,RTL,,,,,,ACTIVE,1733397678.4190457,0.35,-5.01,0.0,12,,,,,,2
1733397684.4652464,0.0,True,-0.03055267035961151,0.0014426413690671325,-1.4972690343856812,-1.0,51,15.3,0,8,False,,,,0,0,3,10,5.027400493621826,274,28.501,,39.9526379,,-113.4759758,False,0.6340376829975867,78.492,,39.9526241,,-113.4757215,49.991,,39.9526241,,-113.4757215,-49.993263244628906,21.645509719848633,-1.5318312644958496,-1,RTL,,,,,,ACTIVE,6.046200752258301,0.35,-5.01,0.0,12,,,,,,2
1733397684.565775,0.0,True,-0.03060353361070156,0.0009399537811987102,-1.4975335597991943,-1.0,51,15.3,0,8,False,,,,0,0,3,10,5.028597831726074,274,28.501,,39.9526379,,-113.4759758,False,0.7355896730005043,78.492,,39.9526245,,-113.4757272,49.991,,39.9526245,,-113.4757272,-49.99330139160156,21.206722259521484,-1.4994988441467285,-1,RTL,,,,,,ACTIVE,1733397678.5195742,0.35,-5.01,0.0,12,,,,,,2
1733397684.6654751,0.0,True,-0.030579673126339912,0.000901843304745853,-1.4979504346847534,-1.0,51,15.3,0,8,False,,,,0,0,3,10,5.028679847717285,274,28.501,,39.9526379,,-113.4759758,False,0.8334520419957698,78.492,,39.9526247,,-113.4757318,49.991,,39.9526247,,-113.4757318,-49.993385314941406,20.807750701904297,-1.4698760509490967,-1,RTL,,,,,,ACTIVE,6.1459009647369385,0.35,-5.01,0.0,12,,,,,,2
1733397684.7654402,0.0,True,-0.03009422868490219,0.00036859812098555267,-1.4980369806289673,-1.0,51,15.3,0,8,False,,,,0,0,3,10,5.0302910804748535,274,28.501,,39.9526379,,-113.4759758,False,0.9355157129975851,78.492,,39.9526251,,-113.4757379,49.991,,39.9526251,,-113.4757379,-49.99322509765625,20.288944244384766,-1.4310263395309448,-1,RTL,,,,,,ACTIVE,1733397678.6195393,0.35,-5.01,0.0,12,,,,,,2
1733397684.865875,0.0,True,-0.029999688267707825,-0.0003605281817726791,-1.4984172582626343,-1.0,51,15.3,0,8,False,,,,0,0,3,10,5.028290271759033,274,28.501,,39.9526379,,-113.4759758,False,0.012940357999468688,78.492,,39.9526253,,-113.4757426,49.991,,39.9526253,,-113.4757426,-49.993003845214844,19.890005111694336,-1.4011861085891724,-1,RTL,,,,,,ACTIVE,6.246335744857788,0.36,-5.01,0.0,12,,,,,,2
1733397684.9657826,0.0,True,-0.030533788725733757,-0.0010684728622436523,-1.498311996459961,-1.0,51,15.3,0,8,False,,,,0,0,3,10,5.029107093811035,274,28.501,,39.9526379,,-113.4759758,False,0.022576636998564936,78.492,,39.9526257,,-113.4757482,49.99,,39.9526257,,-113.4757482,-49.99254608154297,19.411314010620117,-1.3655790090560913,-1,RTL,,,,,,ACTIVE,1733397678.719447,0.36,-5.01,0.0,12,,,,,,2
1733397685.0657973,0.0,True,-0.030407419428229332,-0.0015577104641124606,-1.4985425472259521,-1.0,51,15.3,0,8,False,,,,0,0,3,10,5.029823303222656,274,28.501,,39.9526379,,-113.4759758,False,0.11983475199667737,78.491,,39.9526259,,-113.4757529,49.99,,39.9526259,,-113.4757529,-49.99211120605469,18.97234344482422,-1.3332881927490234,-1,RTL,,,,,,ACTIVE,6.346350431442261,0.35,-5.01,0.0,12,,,,,,2
1733397685.1669796,0.0,True,-0.030317796394228935,-0.0013087254483252764,-1.4986865520477295,-1.0,51,15.3,0,8,False,,,,0,0,3,10,5.029144763946533,274,28.501,,39.9526379,,-113.4759758,False,0.2240706649972708,78.491,,39.9526263,,-113.475759,49.99,,39.9526263,,-113.475759,-49.99176025390625,18.49323844909668,-1.2983016967773438,-1,RTL,,,,,,ACTIVE,1733397678.8206291,0.35,-5.01,0.0,12,,,,,,2
1733397685.267895,0.0,True,-0.030678274109959602,-0.0013393033295869827,-1.4990177154541016,-1.0,51,15.3,0,8,False,,,,0,0,3,10,5.029144763946533,274,28.501,,39.9526379,,-113.4759758,False,0.32485394799732603,78.491,,39.9526265,,-113.4757637,49.989,,39.9526265,,-113.4757637,-49.99151611328125,18.093904495239258,-1.269187569618225,-1,RTL,,,,,,ACTIVE,6.447265863418579,0.35,-5.01,0.0,12,,,,,,2
1733397685.3679948,0.0,True,-0.031169285997748375,-0.0012813598150387406,-1.4991182088851929,-1.0,51,15.3,0,8,False,,,,0,0,3,10,5.0256853103637695,274,28.501,,39.9526379,,-113.4759758,False,0.4224233519998961,78.49,,39.9526269,,-113.4757693,49.989,,39.9526269,,-113.4757693,-49.9912223815918,17.614707946777344,-1.2341583967208862,-1,RTL,,,,,,ACTIVE,1733397678.920729,0.35,-5.0,0.0,12,,,,,,2
1733397685.4678578,0.0,True,-0.031941477209329605,-0.0019479638431221247,-1.4990884065628052,-1.0,51,15.3,0,8,False,,,,0,0,3,10,5.020204067230225,274,28.501,,39.9526379,,-113.4759758,False,0.5246664340011193,78.49,,39.9526271,,-113.475774,49.989,,39.9526271,,-113.475774,-49.99092483520508,17.175601959228516,-1.2017558813095093,-1,RTL,,,,,,ACTIVE,6.547128915786743,0.35,-5.0,0.0,12,,,,,,2
1733397685.570328,0.0,True,-0.03269617259502411,-0.0023792979773133993,-1.499169945716858,-1.0,51,15.3,0,8,False,,,,0,0,3,10,5.018991470336914,274,28.501,,39.9526379,,-113.4759758,False,0.6278069420004613,78.49,,39.9526275,,-113.4757801,49.989,,39.9526275,,-113.4757801,-49.99068832397461,16.65654754638672,-1.1631938219070435,-1,RTL,,,,,,ACTIVE,1733397679.023199,0.35,-5.0,0.0,12,,,,,,2
1733397685.6723785,0.0,True,-0.03281477838754654,-0.002602701773867011,-1.4993619918823242,-1.0,51,15.3,0,8,False,,,,0,0,3,10,5.017285346984863,274,28.501,,39.9526379,,-113.4759758,False,0.7292599450011039,78.49,,39.9526278,,-113.4757857,49.988,,39.9526278,,-113.4757857,-49.9906005859375,16.217376708984375,-1.1303719282150269,-1,RTL,,,,,,ACTIVE,6.649179458618164,0.35,-5.0,0.0,12,,,,,,2
1733397685.774026,0.0,True,-0.03269735723733902,-0.0028932492714375257,-1.499893307685852,-1.0,51,15.3,0,8,False,,,,0,0,3,10,5.018426895141602,274,28.501,,39.9526379,,-113.4759758,False,0.8316894450035761,78.489,,39.9526281,,-113.4757904,49.988,,39.9526281,,-113.4757904,-49.990474700927734,15.818114280700684,-1.1007063388824463,-1,RTL,,,,,,ACTIVE,1733397679.1248465,0.35,-5.0,0.0,12,,,,,,2
1733397685.8726375,0.0,True,-0.032546281814575195,-0.003107533324509859,-1.500113606452942,-1.0,51,15.3,0,8,False,,,,0,0,3,10,5.018291473388672,274,28.501,,39.9526379,,-113.4759758,False,0.9292196919996059,78.489,,39.9526284,,-113.4757965,49.988,,39.9526284,,-113.4757965,-49.990238189697266,15.298941612243652,-1.0624504089355469,-1,RTL,,,,,,ACTIVE,6.747791051864624,0.35,-5.0,0.0,12,,,,,,2
1733397685.972254,0.0,True,-0.032774005085229874,-0.0032492137979716063,-1.5001587867736816,-1.0,51,15.3,0,8,False,,,,0,0,3,10,5.016884803771973,274,28.501,,39.9526379,,-113.4759758,False,0.007880616001784801,78.489,,39.9526287,,-113.4758012,49.988,,39.9526287,,-113.4758012,-49.990028381347656,14.899636268615723,-1.0335602760314941,-1,RTL,,,,,,ACTIVE,1733397679.224463,0.35,-5.0,0.0,12,,,,,,2
1733397686.0732546,0.0,True,-0.0327780544757843,-0.0030857566744089127,-1.5003753900527954,-1.0,51,15.3,0,8,False,,,,0,0,3,10,5.018948554992676,274,28.501,,39.9526379,,-113.4759758,False,0.018822410005668644,78.489,,39.952629,,-113.4758068,49.988,,39.952629,,-113.4758068,-49.98983383178711,14.420369148254395,-0.9994167685508728,-1,RTL,,,,,,ACTIVE,6.848791599273682,0.34,-5.0,0.0,12,,,,,,2
1733397686.172772,0.0,True,-0.03212747722864151,-0.002045997651293874,-1.5006064176559448,-1.0,51,15.3,0,8,False,,,,0,0,3,10,5.023271083831787,274,28.501,,39.9526379,,-113.4759758,False,0.11548547900019912,78.489,,39.9526292,,-113.4758115,49.987,,39.9526292,,-113.4758115,-49.98958206176758,13.980716705322266,-0.9684194922447205,-1,RTL,,,,,,ACTIVE,1733397679.3239803,0.34,-5.01,0.0,12,,,,,,2
1733397686.2727876,0.0,True,-0.031271085143089294,-0.0014930025208741426,-1.5004709959030151,-1.0,51,15.3,0,8,False,,,,0,0,3,10,5.025715351104736,274,28.501,,39.9526379,,-113.4759758,False,0.21844617600436322,78.488,,39.9526295,,-113.4758176,49.987,,39.9526295,,-113.4758176,-49.98936462402344,13.50079345703125,-0.9350152611732483,-1,RTL,,,,,,ACTIVE,6.948807239532471,0.34,-5.01,0.0,12,,,,,,2
1733397686.3731055,0.0,True,-0.03115283139050007,-0.001412904472090304,-1.5008211135864258,-1.0,51,15.3,0,8,False,,,,0,0,3,10,5.025525093078613,274,28.501,,39.9526379,,-113.4759758,False,0.31567470300069544,78.488,,39.9526298,,-113.4758223,49.987,,39.9526298,,-113.4758223,-49.98929214477539,13.100900650024414,-0.9071829915046692,-1,RTL,,,,,,ACTIVE,1733397679.4242983,0.34,-5.01,0.0,12,,,,,,2
1733397686.4731104,0.0,True,-0.03086991049349308,-0.001333662890829146,-1.5010552406311035,-1.0,51,15.3,0,8,False,,,,0,0,3,10,5.025360584259033,274,28.501,,39.9526379,,-113.4759758,False,0.4184488829996553,78.488,,39.9526301,,-113.4758279,49.987,,39.9526301,,-113.4758279,-49.989253997802734,12.620950698852539,-0.8737835884094238,-1,RTL,,,,,,ACTIVE,7.0488121509552,0.34,-5.01,0.0,12,,,,,,2
1733397686.573428,0.0,True,-0.031065670773386955,-0.0014622724847868085,-1.5011796951293945,-1.0,51,15.3,0,8,False,,,,0,0,3,10,5.025135517120361,273,28.501,,39.9526379,,-113.4759758,False,0.5198791830043774,78.488,,39.9526303,,-113.4758326,49.987,,39.9526303,,-113.4758326,-49.989219665527344,12.180915832519531,-0.843296229839325,-1,RTL,,,,,,ACTIVE,1733397679.5246158,0.34,-5.01,0.0,12,,,,,,2
1733397686.6834555,0.0,True,-0.03123963065445423,-0.0013716939138248563,-1.500819444656372,-1.0,51,15.3,0,8,False,,,,0,0,3,10,5.022219657897949,273,28.501,,39.9526379,,-113.4759758,False,0.6275780360010685,78.488,,39.9526307,,-113.4758387,49.987,,39.9526307,,-113.4758387,-49.988887786865234,11.660988807678223,-0.8074731826782227,-1,RTL,,,,,,ACTIVE,7.158839702606201,0.34,-5.0,0.0,12,,,,,,2
1733397686.7767391,0.0,True,-0.03085956908762455,-0.0014181393198668957,-1.5010100603103638,-1.0,51,15.3,0,8,False,,,,0,0,3,10,5.019754886627197,274,28.501,,39.9526379,,-113.4759758,False,0.7202483959990786,78.488,,39.9526309,,-113.4758434,49.986,,39.9526309,,-113.4758434,-49.9885139465332,11.301259994506836,-0.782633364200592,-1,RTL,,,,,,ACTIVE,1733397679.6178994,0.34,-5.0,0.0,12,,,,,,2
1733397686.8737144,0.0,True,-0.01693636365234852,-0.0017418407369405031,-1.5009886026382446,-1.0,51,15.3,0,8,False,,,,0,0,3,10,5.013051986694336,273,28.501,,39.9526379,,-113.4759758,False,0.8198243470033049,78.487,,39.9526312,,-113.475849,49.986,,39.9526312,,-113.475849,-49.988075256347656,10.822163581848145,-0.7494556307792664,-1,RTL,,,,,,ACTIVE,7.255815029144287,0.34,-4.99,0.0,12,,,,,,2
1733397686.9738255,0.0,True,0.013255618512630463,-0.0013387131039053202,-1.5009353160858154,-1.0,51,15.3,0,8,False,,,,0,0,3,10,4.991964340209961,273,28.501,,39.9526379,,-113.4759758,False,0.9154448280023644,78.487,,39.9526315,,-113.4758537,49.986,,39.9526315,,-113.4758537,-49.987857818603516,10.424018859863281,-0.7219815254211426,-1,RTL,,,,,,ACTIVE,1733397679.7180104,0.34,-4.97,0.0,12,,,,,,2
1733397687.0741959,0.0,True,0.049732740968465805,-0.00019418989541009068,-1.5009735822677612,-1.0,51,15.3,0,8,False,,,,0,0,3,10,4.923694133758545,273,28.501,,39.9526379,,-113.4759758,False,0.0018233060036436655,78.487,,39.9526318,,-113.4758597,49.986,,39.9526318,,-113.4758597,-49.98786163330078,9.910762786865234,-0.6864732503890991,-1,RTL,,,,,,ACTIVE,7.356185436248779,0.34,-4.91,0.0,12,,,,,,2
1733397687.1742063,0.0,True,0.0900483950972557,0.0014808539999648929,-1.5013759136199951,-1.0,51,15.3,0,8,False,,,,0,0,3,10,4.8459272384643555,273,28.501,,39.9526379,,-113.4759758,False,0.006488894003268797,78.487,,39.952632,,-113.4758642,49.986,,39.952632,,-113.4758642,-49.98837661743164,9.521533966064453,-0.6595867872238159,-1,RTL,,,,,,ACTIVE,1733397679.8180208,0.33,-4.83,0.0,12,,,,,,2
1733397687.2743378,0.0,True,0.11977965384721756,0.00270860455930233,-1.501123309135437,-1.0,51,15.3,0,8,False,,,,0,0,3,10,4.8459272384643555,273,28.501,,39.9526379,,-113.4759758,False,0.10473559000092791,78.488,,39.9526323,,-113.4758696,49.987,,39.9526323,,-113.4758696,-49.989295959472656,9.063667297363281,-0.6279098391532898,-1,RTL,,,,,,ACTIVE,7.456316947937012,0.32,-4.71,0.0,12,,,,,,2
1733397687.3744426,0.0,True,0.13524580001831055,0.0029732563998550177,-1.501002311706543,-1.0,51,15.3,0,8,False,,,,0,0,3,10,4.6172308921813965,274,28.501,,39.9526379,,-113.4759758,False,0.2065506010039826,78.489,,39.9526325,,-113.475874,49.988,,39.9526325,,-113.475874,-49.99005889892578,8.690927505493164,-0.6021747589111328,-1,RTL,,,,,,ACTIVE,1733397679.9181256,0.32,-4.59,0.0,12,,,,,,2
