timestamp,airspeed,armed,attitude.pitch,attitude.roll,attitude.yaw,battery.current,battery.level,battery.voltage,commands.count,commands.next,ekf_ok,gimbal.pitch,gimbal.roll,gimbal.yaw,gps_0.eph,gps_0.epv,gps_0.fix_type,gps_0.satellites_visible,groundspeed,heading,home_location.alt,home_location.global_frame,home_location.lat,home_location.local_frame,home_location.lon,is_armable,last_heartbeat,location.global_frame.alt,location.global_frame.global_frame,location.global_frame.lat,location.global_frame.local_frame,location.global_frame.lon,location.global_relative_frame.alt,location.global_relative_frame.global_frame,location.global_relative_frame.lat,location.global_relative_frame.local_frame,location.global_relative_frame.lon,location.local_frame.down,location.local_frame.east,location.local_frame.north,ml_verdict,mode.name,mount_status[0],mount_status[1],mount_status[2],rangefinder.distance,rangefinder.voltage,system_status.state,timedelta,velocity[0],velocity[1],velocity[2],version.autopilot_type,version.major,version.minor,version.patch,version.raw_version,version.release,version.vehicle_type
1733390343.2410126,0.0,True,-0.03421749547123909,-0.0032549165189266205,0.209531769156456,-1.0,100,16.193,0,2,False,,,,0,0,3,10,0.022552160546183586,12,28.502,,39.9526379,,-113.4759758,False,0.04458376800175756,28.497,,39.9526379,,-113.4759756,0.0,,39.9526379,,-113.4759756,0.01219303160905838,0.026802191510796547,0.004041937179863453,unknown,MISSION,,,,,,ACTIVE,0,-0.01,-0.01,0.0,12,1,15,0,17760384,128,2
1733390344.2506518,0.0,True,-0.03550514951348305,-0.002952504437416792,0.20993652939796448,-1.0,100,16.166,0,2,False,,,,0,0,3,10,0.01715213805437088,12,28.502,,39.9526379,,-113.4759758,False,0.9596872450056253,28.499,,39.9526379,,-113.4759757,0.001,,39.9526379,,-113.4759757,0.009656313806772232,0.0229145810008049,0.005454600788652897,unknown,MISSION,,,,,,ACTIVE,1733390344.2506518,0.0,-0.01,0.0,12,1,15,0,17760384,128,2
1733390344.347598,0.0,True,-0.0354829803109169,-0.00287474668584764,0.20979289710521698,-1.0,100,16.163,0,2,False,,,,0,0,3,10,0.016562124714255333,12,28.502,,39.9526379,,-113.4759758,False,0.039502576997620054,28.499,,39.9526379,,-113.4759757,0.002,,39.9526379,,-113.4759757,0.009497919119894505,0.02300514280796051,0.005634794943034649,unknown,MISSION,,,,,,ACTIVE,0.09694623947143555,0.0,-0.01,0.0,12,1,15,0,17760384,128,2
1733390344.4484122,0.0,True,-0.03553812578320503,-0.0031950504053384066,0.2100658416748047,-1.0,100,16.16,0,2,False,,,,0,0,3,10,0.015482882037758827,12,28.502,,39.9526379,,-113.4759758,False,0.04905528100061929,28.5,,39.9526379,,-113.4759757,0.002,,39.9526379,,-113.4759757,0.009180992841720581,0.02330724522471428,0.005833151750266552,unknown,MISSION,,,,,,ACTIVE,1733390344.351466,0.0,-0.01,0.0,12,1,15,0,17760384,128,2
1733390344.5483902,0.0,True,-0.035573720932006836,-0.0032297843135893345,0.2097574919462204,-1.0,100,16.16,0,2,False,,,,0,0,3,10,0.013833990320563316,12,28.502,,39.9526379,,-113.4759758,False,0.1468572480007424,28.5,,39.9526379,,-113.4759757,0.002,,39.9526379,,-113.4759757,0.008950662799179554,0.023701827973127365,0.0059941294603049755,unknown,MISSION,,,,,,ACTIVE,0.19692420959472656,0.0,-0.01,0.0,12,1,15,0,17760384,128,2
1733390344.6490865,0.0,True,-0.035519108176231384,-0.003104408970102668,0.20982606709003448,-1.0,99,16.154,0,2,False,,,,0,0,3,10,0.014341979287564754,12,28.502,,39.9526379,,-113.4759758,False,0.2496348950007814,28.5,,39.9526379,,-113.4759757,0.002,,39.9526379,,-113.4759757,0.00881634559482336,0.024222357198596,0.006073904223740101,unknown,MISSION,,,,,,ACTIVE,1733390344.4521623,0.0,-0.01,0.0,12,1,15,0,17760384,128,2
1733390344.748421,0.0,True,-0.03525468334555626,-0.0032176284585148096,0.21027123928070068,-1.0,99,16.154,0,2,False,,,,0,0,3,10,0.013000193983316422,12,28.502,,39.9526379,,-113.4759758,False,0.34779382499982603,28.5,,39.9526379,,-113.4759757,0.002,,39.9526379,,-113.4759757,0.00876647885888815,0.0245105791836977,0.006346808280795813,unknown,MISSION,,,,,,ACTIVE,0.29625868797302246,0.0,-0.01,0.0,12,1,15,0,17760384,128,2
1733390344.850695,0.0,True,-0.035218335688114166,-0.0032302711624652147,0.21013781428337097,-1.0,99,16.148,0,2,False,,,,0,0,3,10,0.011768394149839878,12,28.502,,39.9526379,,-113.4759758,False,0.45048588800273137,28.5,,39.9526379,,-113.4759757,0.002,,39.9526379,,-113.4759757,0.008687835186719894,0.024769775569438934,0.006983694154769182,unknown,MISSION,,,,,,ACTIVE,1733390344.5544362,0.0,-0.01,0.0,12,1,15,0,17760384,128,2
1733390344.9522653,0.0,True,-0.03536432981491089,-0.0031364981550723314,0.21030165255069733,-1.0,99,16.148,0,2,False,,,,0,0,3,10,0.011829755268990993,12,28.502,,39.9526379,,-113.4759758,False,0.547016322001582,28.5,,39.9526379,,-113.4759757,0.0,,39.9526379,,-113.4759757,0.00867207907140255,0.024807250127196312,0.007533314172178507,unknown,MISSION,,,,,,ACTIVE,0.3978290557861328,0.0,-0.01,0.0,12,1,15,0,17760384,128,2
1733390345.0510092,0.0,True,-0.0356556735932827,-0.0032094677444547415,0.21050845086574554,-1.0,99,16.148,0,2,False,,,,0,0,3,10,0.01013654749840498,12,28.5,,39.9526379,,-113.4759757,False,0.6488940120034385,28.5,,39.9526379,,-113.4759757,0.0,,39.9526379,,-113.4759757,0.008588424883782864,0.02484908513724804,0.007964421063661575,unknown,MISSION,,,,,,ACTIVE,1733390344.6531801,0.0,0.0,0.0,12,1,15,0,17760384,128,2
1733390345.1521206,0.0,True,-0.03598671406507492,-0.0034298773389309645,0.21009808778762817,-1.0,99,16.142,0,2,False,,,,0,0,3,10,0.009367365390062332,12,28.5,,39.9526379,,-113.4759757,False,0.7514780370038352,28.501,,39.9526379,,-113.4759757,0.0,,39.9526379,,-113.4759757,0.008497229777276516,0.025092577561736107,0.008442122489213943,unknown,MISSION,,,,,,ACTIVE,0.49894046783447266,0.0,0.0,0.0,12,1,15,0,17760384,128,2
1733390345.253596,0.0,True,-0.035585518926382065,-0.0034847005736082792,0.21013469994068146,-1.0,99,16.142,0,2,False,,,,0,0,3,10,0.007516594137996435,12,28.5,,39.9526379,,-113.4759757,False,0.8536328749978566,28.501,,39.9526379,,-113.4759757,0.0,,39.9526379,,-113.4759757,0.008424697443842888,0.02537098340690136,0.008651161566376686,unknown,MISSION,,,,,,ACTIVE,1733390344.7546556,0.0,0.0,0.0,12,1,15,0,17760384,128,2
1733390345.35526,0.0,True,-0.0356864258646965,-0.0035556640941649675,0.2100425362586975,-1.0,98,16.136,0,2,False,,,,0,0,3,10,0.008380979299545288,12,28.5,,39.9526379,,-113.4759757,False,0.9515286079986254,28.501,,39.9526379,,-113.4759756,0.0,,39.9526379,,-113.4759756,0.008311700075864792,0.025700613856315613,0.008726440370082855,unknown,MISSION,,,,,,ACTIVE,0.6006042957305908,0.0,0.0,0.0,12,1,15,0,17760384,128,2
1733390345.4553592,0.0,True,-0.035279758274555206,-0.0034612230956554413,0.2103065550327301,-1.0,98,16.133,0,2,False,,,,0,0,3,10,0.005750310141593218,12,28.5,,39.9526379,,-113.4759757,False,0.017280740998103283,28.501,,39.9526379,,-113.4759756,0.0,,39.9526379,,-113.4759756,0.008134721778333187,0.026062222197651863,0.008688167668879032,unknown,MISSION,,,,,,ACTIVE,1733390344.854755,0.0,0.0,0.0,12,1,15,0,17760384,128,2
1733390345.55578,0.0,True,-0.03534384444355965,-0.0037656191270798445,0.21049775183200836,-1.0,98,16.13,0,2,False,,,,0,0,3,10,0.005696833599358797,12,28.5,,39.9526379,,-113.4759757,False,0.027732246002415195,28.501,,39.9526379,,-113.4759756,0.001,,39.9526379,,-113.4759756,0.007651709485799074,0.026402762159705162,0.00866688136011362,unknown,MISSION,,,,,,ACTIVE,0.7010250091552734,0.0,0.0,0.0,12,1,15,0,17760384,128,2
1733390345.658717,0.0,True,-0.034922800958156586,-0.004109451547265053,0.21050068736076355,-1.0,98,16.13,0,2,False,,,,0,0,3,10,0.006955127231776714,12,28.5,,39.9526379,,-113.4759757,False,0.12959248500555987,28.502,,39.9526379,,-113.4759756,0.001,,39.9526379,,-113.4759756,0.007294222246855497,0.026501134037971497,0.008949545212090015,unknown,MISSION,,,,,,ACTIVE,1733390344.957692,0.0,0.0,0.0,12,1,15,0,17760384,128,2
1733390345.7600338,0.0,True,-0.035049036145210266,-0.004351139068603516,0.2103370577096939,-1.0,98,16.124,0,2,False,,,,0,0,3,10,0.007528393995016813,12,28.5,,39.9526379,,-113.4759757,False,0.232073727005627,28.502,,39.9526379,,-113.4759756,0.001,,39.9526379,,-113.4759756,0.007201984990388155,0.026632212102413177,0.009299840778112411,unknown,MISSION,,,,,,ACTIVE,0.8023419380187988,0.0,0.0,0.0,12,1,15,0,17760384,128,2
1733390345.855907,0.0,True,-0.03493279591202736,-0.004561306908726692,0.21013136208057404,-1.0,98,16.124,0,2,False,,,,0,0,3,10,0.007528393995016813,12,28.5,,39.9526379,,-113.4759757,False,0.3250768590005464,28.502,,39.9526379,,-113.4759756,0.001,,39.9526379,,-113.4759756,0.00728198466822505,0.026989974081516266,0.009635798633098602,unknown,MISSION,,,,,,ACTIVE,1733390345.053565,0.0,0.0,0.0,12,1,15,0,17760384,128,2
1733390345.9587255,0.0,True,-0.03499523550271988,-0.00453078281134367,0.21025554835796356,-1.0,98,16.124,0,2,False,,,,0,0,3,10,0.008229355327785015,12,28.5,,39.9526379,,-113.4759757,False,0.42667890099983197,28.502,,39.9526379,,-113.4759756,0.001,,39.9526379,,-113.4759756,0.0074708894826471806,0.027631638571619987,0.01013236679136753,unknown,MISSION,,,,,,ACTIVE,0.9051604270935059,0.0,0.0,0.0,12,1,15,0,17760384,128,2
1733390346.056503,0.0,True,-0.034884631633758545,-0.004777535330504179,0.21006296575069427,-1.0,98,16.118,0,2,False,,,,0,0,3,10,0.010220654308795929,12,28.5,,39.9526379,,-113.4759757,False,0.525086261004617,28.501,,39.9526379,,-113.4759756,0.0,,39.9526379,,-113.4759756,0.007686018478125334,0.02814451791346073,0.010639187879860401,unknown,MISSION,,,,,,ACTIVE,1733390345.1513426,0.0,0.0,0.0,12,1,15,0,17760384,128,2
1733390346.1627204,0.0,True,-0.03462834656238556,-0.004803605377674103,0.2101748287677765,-1.0,98,16.118,0,2,False,,,,0,0,3,10,0.012210043147206306,12,28.5,,39.9526379,,-113.4759757,False,0.63137729200389,28.501,,39.952638,,-113.4759756,0.0,,39.952638,,-113.4759756,0.007829839363694191,0.02858467772603035,0.011342132464051247,unknown,MISSION,,,,,,ACTIVE,1.0113778114318848,0.0,0.0,0.0,12,1,15,0,17760384,128,2
1733390346.2593467,0.0,True,-0.03455055505037308,-0.004821792244911194,0.21011188626289368,-1.0,97,16.112,0,2,False,,,,0,0,3,10,0.012706312350928783,12,28.5,,39.9526379,,-113.4759757,False,0.7293894809990888,28.501,,39.952638,,-113.4759756,0.0,,39.952638,,-113.4759756,0.00796833448112011,0.02895900420844555,0.012234775349497795,unknown,MISSION,,,,,,ACTIVE,1733390345.247969,0.0,-0.01,0.0,12,1,15,0,17760384,128,2
1733390346.3596876,0.0,True,-0.03435918316245079,-0.004568691831082106,0.21022091805934906,-1.0,97,16.112,0,2,False,,,,0,0,3,10,0.015344100072979927,12,28.5,,39.9526379,,-113.4759757,False,0.831259486003546,28.501,,39.952638,,-113.4759756,0.0,,39.952638,,-113.4759756,0.008166950196027756,0.028761861845850945,0.012964781373739243,unknown,MISSION,,,,,,ACTIVE,1.1117186546325684,0.0,-0.01,0.0,12,1,15,0,17760384,128,2
1733390346.4630685,0.0,True,-0.03445915877819061,-0.0043840124271810055,0.20986402034759521,-1.0,97,16.106,0,2,False,,,,0,0,3,10,0.016965294256806374,12,28.5,,39.9526379,,-113.4759757,False,0.9337205680058105,28.501,,39.952638,,-113.4759756,0.0,,39.952638,,-113.4759756,0.008292153477668762,0.02836654894053936,0.013729056343436241,unknown,MISSION,,,,,,ACTIVE,1733390345.3513498,0.01,-0.01,0.0,12,1,15,0,17760384,128,2
1733390346.5646768,0.0,True,-0.034576911479234695,-0.004284105729311705,0.20983661711215973,-1.0,97,16.103,0,2,False,,,,0,0,3,10,0.01601053774356842,12,28.5,,39.9526379,,-113.4759757,False,0.017821428999013733,28.501,,39.952638,,-113.4759756,0.0,,39.952638,,-113.4759756,0.008343092165887356,0.027957847341895103,0.014366642571985722,unknown,MISSION,,,,,,ACTIVE,1.2133269309997559,0.0,-0.01,0.0,12,1,15,0,17760384,128,2
1733390346.6659243,0.0,True,-0.03454843908548355,-0.004356570541858673,0.2103513777256012,-1.0,97,16.1,0,2,False,,,,0,0,3,10,0.01663951948285103,12,28.5,,39.9526379,,-113.4759757,False,0.0263553580007283,28.501,,39.952638,,-113.4759756,0.0,,39.952638,,-113.4759756,0.008328331634402275,0.027522701770067215,0.015327153727412224,unknown,MISSION,,,,,,ACTIVE,1733390345.4525974,0.0,-0.01,0.0,12,1,15,0,17760384,128,2
1733390346.7651005,0.0,True,-0.034525316208601,-0.004256920423358679,0.21059288084506989,-1.0,97,16.1,0,2,False,,,,0,0,3,10,0.01926565356552601,12,28.5,,39.9526379,,-113.4759757,False,0.12441520499851322,28.501,,39.952638,,-113.4759756,0.0,,39.952638,,-113.4759756,0.008182951249182224,0.027197005227208138,0.01615316793322563,unknown,MISSION,,,,,,ACTIVE,1.3125030994415283,0.0,-0.01,0.0,12,1,15,0,17760384,128,2
1733390346.863965,0.0,True,-0.03444099798798561,-0.004176003858447075,0.2107919156551361,-1.0,97,16.1,0,2,False,,,,0,0,3,10,0.019700486212968826,12,28.5,,39.9526379,,-113.4759757,False,0.22284037299687043,28.501,,39.952638,,-113.4759756,0.0,,39.952638,,-113.4759756,0.008061788976192474,0.026498528197407722,0.017004236578941345,unknown,MISSION,,,,,,ACTIVE,1733390345.551462,0.0,-0.01,0.0,12,1,15,0,17760384,128,2
1733390346.9641986,0.0,True,-0.03427354618906975,-0.004188129678368568,0.21079878509044647,-1.0,96,16.094,0,2,False,,,,0,0,3,10,0.019674787297844887,12,28.5,,39.9526379,,-113.4759757,False,0.32431258599535795,28.501,,39.952638,,-113.4759756,0.0,,39.952638,,-113.4759756,0.008014579303562641,0.02578815072774887,0.0175431240350008,unknown,MISSION,,,,,,ACTIVE,1.4127366542816162,0.0,-0.01,0.0,12,1,15,0,17760384,128,2
1733390347.0655708,0.0,True,-0.010023537091910839,-0.0007898191106505692,0.21065455675125122,-1.0,96,16.094,0,2,False,,,,0,0,3,10,0.019152270630002022,12,28.5,,39.9526379,,-113.4759757,False,0.4180954859984922,28.501,,39.952638,,-113.4759757,0.0,,39.952638,,-113.4759757,0.00802942831069231,0.025133168324828148,0.018068546429276466,unknown,MISSION,,,,,,ACTIVE,1733390345.6528342,0.0,-0.01,0.0,12,1,15,0,17760384,128,2
1733390347.1648927,0.0,True,0.04022395983338356,0.009728511795401573,0.2105569988489151,-1.0,96,16.088,0,2,False,,,,0,0,3,10,0.024860849604010582,12,28.5,,39.9526379,,-113.4759757,False,0.5241308089971426,28.502,,39.952638,,-113.4759757,0.001,,39.952638,,-113.4759757,0.007082787808030844,0.02444382570683956,0.016695769503712654,unknown,MISSION,,,,,,ACTIVE,1.5120584964752197,-0.03,-0.02,-0.02,12,1,15,0,17760384,128,2
1733390347.2659318,0.0,True,0.052761584520339966,0.013967733830213547,0.2109440565109253,-1.0,96,16.088,0,2,False,,,,0,0,3,10,0.07499812543392181,12,28.5,,39.9526379,,-113.4759757,False,0.6259333769994555,28.506,,39.9526379,,-113.4759757,0.005,,39.9526379,,-113.4759757,0.002962479367852211,0.023433146998286247,0.008916282095015049,unknown,MISSION,,,,,,ACTIVE,1733390345.7538733,-0.12,-0.02,-0.06,12,1,15,0,17760384,128,2
1733390347.366855,0.0,True,0.038640569895505905,0.012204622849822044,0.21065904200077057,-1.0,96,16.082,0,2,False,,,,0,0,3,10,0.16660510003566742,12,28.5,,39.9526379,,-113.4759757,False,0.7245666710005025,28.513,,39.9526378,,-113.4759757,0.012,,39.9526378,,-113.4759757,-0.004993467126041651,0.022397471591830254,-0.0051043275743722916,unknown,MISSION,,,,,,ACTIVE,1.6129815578460693,-0.19,-0.02,-0.11,12,1,15,0,17760384,128,2
1733390347.4673345,0.0,True,0.01524464413523674,0.007748713251203299,0.21061038970947266,-1.0,96,16.082,0,2,False,,,,0,0,3,10,0.24209602177143097,12,28.5,,39.9526379,,-113.4759757,False,0.8268028519960353,28.528,,39.9526376,,-113.4759757,0.027,,39.9526376,,-113.4759757,-0.01903562806546688,0.021426109597086906,-0.026091409847140312,unknown,MISSION,,,,,,ACTIVE,1733390345.854353,-0.26,-0.02,-0.19,12,1,15,0,17760384,128,2
1733390347.5669527,0.0,True,-0.005462585017085075,0.0035766197834163904,0.2103329747915268,-1.0,95,16.076,0,2,False,,,,0,0,3,10,0.29515406489372253,12,28.5,,39.9526379,,-113.4759757,False,0.9241053419973468,28.546,,39.9526374,,-113.4759757,0.046,,39.9526374,,-113.4759757,-0.037452757358551025,0.02086450904607773,-0.046381875872612,unknown,MISSION,,,,,,ACTIVE,1.712599754333496,-0.29,-0.02,-0.28,12,1,15,0,17760384,128,2
1733390347.6671603,0.0,True,-0.022094720974564552,0.0002936793025583029,0.2099599689245224,-1.0,95,16.073,0,2,False,,,,0,0,3,10,0.3206906318664551,12,28.5,,39.9526379,,-113.4759757,False,0.004789767997863237,28.578,,39.9526372,,-113.4759757,0.077,,39.9526372,,-113.4759757,-0.06854882091283798,0.020340662449598312,-0.07259830087423325,unknown,MISSION,,,,,,ACTIVE,1733390345.9545605,-0.31,-0.02,-0.39,12,1,15,0,17760384,128,2
1733390347.770079,0.0,True,-0.03423897922039032,-0.0023260279558598995,0.20957833528518677,-1.0,95,16.07,0,2,False,,,,0,0,3,10,0.32471993565559387,12,28.5,,39.9526379,,-113.4759757,False,0.013093328998365905,28.61,,39.952637,,-113.4759757,0.109,,39.952637,,-113.4759757,-0.10821840912103653,0.020170658826828003,-0.09977071732282639,unknown,MISSION,,,,,,ACTIVE,1.8155183792114258,-0.32,-0.02,-0.46,12,1,15,0,17760384,128,2
1733390347.8709874,0.0,True,-0.04318885877728462,-0.004520021844655275,0.20898158848285675,-1.0,95,16.07,0,2,False,,,,0,0,3,10,0.31718945503234863,11,28.5,,39.9526379,,-113.4759757,False,0.11459695400117198,28.66,,39.9526367,,-113.4759757,0.159,,39.9526367,,-113.4759757,-0.15112513303756714,0.02020859904587269,-0.12479368597269058,unknown,MISSION,,,,,,ACTIVE,1733390346.055469,-0.31,-0.02,-0.56,12,1,15,0,17760384,128,2
1733390347.9703357,0.0,True,-0.050573378801345825,-0.005800935905426741,0.20858488976955414,-1.0,95,16.07,0,2,False,,,,0,0,3,10,0.30663710832595825,11,28.5,,39.9526379,,-113.4759757,False,0.21279662400047528,28.704,,39.9526365,,-113.4759757,0.204,,39.9526365,,-113.4759757,-0.19537809491157532,0.020218363031744957,-0.14728263020515442,unknown,MISSION,,,,,,ACTIVE,1.9148666858673096,-0.3,-0.02,-0.62,12,1,15,0,17760384,128,2
1733390348.0728135,0.0,True,-0.05638039484620094,-0.006647119298577309,0.20833030343055725,-1.0,95,16.064,0,2,False,,,,0,0,3,10,0.3006433844566345,11,28.5,,39.9526379,,-113.4759757,False,0.3147682749986416,28.764,,39.9526363,,-113.4759757,0.263,,39.9526363,,-113.4759757,-0.25477564334869385,0.020044391974806786,-0.17381471395492554,unknown,MISSION,,,,,,ACTIVE,1733390346.1579468,-0.28,-0.02,-0.69,12,1,15,0,17760384,128,2
1733390348.1750643,0.0,True,-0.06098898500204086,-0.00739774014800787,0.20808327198028564,-1.0,95,16.064,0,2,False,,,,0,0,3,10,0.2772882282733917,11,28.5,,39.9526379,,-113.4759757,False,0.41776904099970125,28.835,,39.952636,,-113.4759757,0.334,,39.952636,,-113.4759757,-0.3262592554092407,0.019629906862974167,-0.2014986276626587,unknown,MISSION,,,,,,ACTIVE,2.017117500305176,-0.25,-0.02,-0.77,12,1,15,0,17760384,128,2
1733390348.2757797,0.0,True,-0.06533709168434143,-0.008214537985622883,0.20755290985107422,-1.0,94,16.058,0,2,False,,,,0,0,3,10,0.24501217901706696,11,28.5,,39.9526379,,-113.4759757,False,0.5192070300035994,28.895,,39.9526359,,-113.4759757,0.394,,39.9526359,,-113.4759757,-0.3861473500728607,0.019546393305063248,-0.22208425402641296,unknown,MISSION,,,,,,ACTIVE,1733390346.2586622,-0.23,-0.02,-0.82,12,1,15,0,17760384,128,2
1733390348.3760405,0.0,True,-0.06782086938619614,-0.008723845705389977,0.20707835257053375,-1.0,94,16.058,0,2,False,,,,0,0,3,10,0.21976900100708008,11,28.5,,39.9526379,,-113.4759757,False,0.6172381330034113,28.973,,39.9526356,,-113.4759757,0.472,,39.9526356,,-113.4759757,-0.4635227620601654,0.019597170874476433,-0.24533718824386597,unknown,MISSION,,,,,,ACTIVE,2.1173782348632812,-0.2,-0.01,-0.88,12,1,15,0,17760384,128,2
1733390348.47572,0.0,True,-0.07014328241348267,-0.009177055209875107,0.20670968294143677,-1.0,94,16.052,0,2,False,,,,0,0,3,10,0.18689222633838654,11,28.5,,39.9526379,,-113.4759757,False,0.719301261997316,29.042,,39.9526355,,-113.4759757,0.541,,39.9526355,,-113.4759757,-0.5397668480873108,0.01981252431869507,-0.2649468183517456,unknown,MISSION,,,,,,ACTIVE,1733390346.3583417,-0.17,-0.01,-0.93,12,1,15,0,17760384,128,2
1733390348.5786521,0.0,True,-0.07205317914485931,-0.00963583029806614,0.20673297345638275,-1.0,94,16.052,0,2,False,,,,0,0,3,10,0.15502797067165375,11,28.5,,39.9526379,,-113.4759757,False,0.8215234160015825,29.138,,39.9526353,,-113.4759757,0.637,,39.9526353,,-113.4759757,-0.6285498142242432,0.01998281106352806,-0.2842181324958801,unknown,MISSION,,,,,,ACTIVE,2.2203104496002197,-0.14,-0.01,-1.0,12,1,15,0,17760384,128,2
1733390348.6760454,0.0,True,-0.07312853634357452,-0.009872966445982456,0.20655319094657898,-1.0,94,16.046,0,2,False,,,,0,0,3,10,0.11760824918746948,11,28.5,,39.9526379,,-113.4759757,False,0.9189487280018511,29.216,,39.9526352,,-113.4759757,0.715,,39.9526352,,-113.4759757,-0.7070341110229492,0.02004946395754814,-0.2982531189918518,unknown,MISSION,,,,,,ACTIVE,1733390346.455735,-0.11,-0.01,-1.05,12,1,15,0,17760384,128,2
1733390348.7766092,0.0,True,-0.07318485528230667,-0.009620551951229572,0.20646843314170837,-1.0,94,16.046,0,2,False,,,,0,0,3,10,0.08041812479496002,11,28.5,,39.9526379,,-113.4759757,False,1.0175960199994734,29.299,,39.9526351,,-113.4759757,0.798,,39.9526351,,-113.4759757,-0.8065444231033325,0.01999923214316368,-0.31231361627578735,unknown,MISSION,,,,,,ACTIVE,2.3208742141723633,-0.08,-0.01,-1.09,12,1,15,0,17760384,128,2
1733390348.8793297,0.0,True,-0.07269152253866196,-0.0090071652084589,0.20633599162101746,-1.0,93,16.04,0,2,False,,,,0,0,3,10,0.04846222326159477,11,28.5,,39.9526379,,-113.4759757,False,0.004349706003267784,29.412,,39.9526349,,-113.4759757,0.911,,39.9526349,,-113.4759757,-0.9026312828063965,0.01992354728281498,-0.3225803077220917,unknown,MISSION,,,,,,ACTIVE,1733390346.5584555,-0.04,-0.01,-1.15,12,1,15,0,17760384,128,2
1733390348.979269,0.0,True,-0.0717700868844986,-0.008805991150438786,0.20667631924152374,-1.0,93,16.04,0,2,False,,,,0,0,3,10,0.04846222326159477,11,28.5,,39.9526379,,-113.4759757,False,0.10707702300715027,29.522,,39.9526349,,-113.4759757,1.021,,39.9526349,,-113.4759757,-1.0124990940093994,0.01976209692656994,-0.3311297595500946,unknown,MISSION,,,,,,ACTIVE,2.42081356048584,-0.01,-0.01,-1.21,12,1,15,0,17760384,128,2
1733390349.0800867,0.0,True,-0.07045000791549683,-0.00865497998893261,0.20676542818546295,-1.0,93,16.04,0,2,False,,,,0,0,3,10,0.021148759871721268,11,28.5,,39.9526379,,-113.4759757,False,0.20452813900192268,29.617,,39.9526348,,-113.4759757,1.116,,39.9526348,,-113.4759757,-1.1079953908920288,0.01945820264518261,-0.3362220823764801,unknown,MISSION,,,,,,ACTIVE,1733390346.6592731,0.01,-0.01,-1.26,12,1,15,0,17760384,128,2
1733390349.1794827,0.0,True,-0.06827832013368607,-0.008024468086659908,0.20701749622821808,-1.0,93,16.034,0,2,False,,,,0,0,3,10,0.028627008199691772,11,28.5,,39.9526379,,-113.4759757,False,0.3074765120036318,29.737,,39.9526348,,-113.4759757,1.236,,39.9526348,,-113.4759757,-1.2278306484222412,0.019003424793481827,-0.3396417498588562,unknown,MISSION,,,,,,ACTIVE,2.520209550857544,0.04,-0.01,-1.31,12,1,15,0,17760384,128,2
1733390349.2800393,0.0,True,-0.06611492484807968,-0.0074231307953596115,0.2067437320947647,-1.0,93,16.034,0,2,False,,,,0,0,3,10,0.056475892663002014,11,28.5,,39.9526379,,-113.4759757,False,0.4092423040056019,29.84,,39.9526348,,-113.4759757,1.339,,39.9526348,,-113.4759757,-1.3306256532669067,0.01858864724636078,-0.34034454822540283,unknown,MISSION,,,,,,ACTIVE,1733390346.7598298,0.06,-0.01,-1.32,12,1,15,0,17760384,128,2
1733390349.3822618,0.0,True,-0.06410572677850723,-0.007058296352624893,0.20708177983760834,-1.0,93,16.028,0,2,False,,,,0,0,3,10,0.08577310293912888,11,28.5,,39.9526379,,-113.4759757,False,0.5115037280047545,29.974,,39.9526348,,-113.4759757,1.473,,39.9526348,,-113.4759757,-1.4648607969284058,0.01802375726401806,-0.3390023410320282,unknown,MISSION,,,,,,ACTIVE,2.622431993484497,0.09,-0.01,-1.33,12,1,15,0,17760384,128,2
1733390349.482602,0.0,True,-0.0623755007982254,-0.006341252941638231,0.20732516050338745,-1.0,93,16.028,0,2,False,,,,0,0,3,10,0.10357925295829773,11,28.5,,39.9526379,,-113.4759757,False,0.6089148740065866,30.078,,39.9526348,,-113.4759757,1.577,,39.9526348,,-113.4759757,-1.5791290998458862,0.017541464418172836,-0.3360673785209656,unknown,MISSION,,,,,,ACTIVE,1733390346.86017,0.11,-0.01,-1.33,12,1,15,0,17760384,128,2
1733390349.5827289,0.0,True,-0.06041618436574936,-0.00596317183226347,0.207406684756279,-1.0,92,16.022,0,2,False,,,,0,0,3,10,0.12487177550792694,11,28.5,,39.9526379,,-113.4759757,False,0.7114475540001877,30.203,,39.9526349,,-113.4759757,1.703,,39.9526349,,-113.4759757,-1.6943877935409546,0.017258163541555405,-0.3314343988895416,unknown,MISSION,,,,,,ACTIVE,2.7225589752197266,0.13,-0.01,-1.34,12,1,15,0,17760384,128,2
1733390349.6828544,0.0,True,-0.058097392320632935,-0.005962722934782505,0.3514879643917084,-1.0,92,16.022,0,2,False,,,,0,0,3,10,0.14307419955730438,20,28.5,,39.9526379,,-113.4759757,False,0.809027639006672,30.309,,39.9526349,,-113.4759757,1.808,,39.9526349,,-113.4759757,-1.7999927997589111,0.01711454428732395,-0.3257365822792053,unknown,MISSION,,,,,,ACTIVE,1733390346.9602954,0.14,0.0,-1.35,12,1,15,0,17760384,128,2
1733390349.7857525,0.0,True,-0.054688308387994766,-0.008606171235442162,0.3530650734901428,-1.0,92,16.016,0,2,False,,,,0,0,3,10,0.16024665534496307,20,28.5,,39.9526379,,-113.4759757,False,0.9117695990062202,30.448,,39.952635,,-113.4759757,1.947,,39.952635,,-113.4759757,-1.9385676383972168,0.0173647403717041,-0.31638282537460327,unknown,MISSION,,,,,,ACTIVE,2.8254570960998535,0.16,0.0,-1.35,12,1,15,0,17760384,128,2
1733390349.8832233,0.0,True,-0.05163964256644249,-0.01214484591037035,0.35518699884414673,-1.0,92,16.016,0,2,False,,,,0,0,3,10,0.17422394454479218,20,28.5,,39.9526379,,-113.4759757,False,1.0087522420071764,30.555,,39.9526351,,-113.4759757,2.054,,39.9526351,,-113.4759757,-2.0460119247436523,0.01767435297369957,-0.3075808584690094,unknown,MISSION,,,,,,ACTIVE,1733390347.0577662,0.17,0.0,-1.36,12,1,15,0,17760384,128,2
1733390349.98764,0.0,True,-0.04851485788822174,-0.013263741508126259,0.35769256949424744,-1.0,92,16.01,0,2,False,,,,0,0,3,10,0.18889668583869934,20,28.5,,39.9526379,,-113.4759757,False,0.0021377340017352253,30.685,,39.9526352,,-113.4759757,2.184,,39.9526352,,-113.4759757,-2.1760640144348145,0.018041737377643585,-0.29528483748435974,unknown,MISSION,,,,,,ACTIVE,2.9298737049102783,0.18,0.0,-1.37,12,1,15,0,17760384,128,2
1733390350.0846086,0.0,True,-0.045780349522829056,-0.012225805781781673,0.35998404026031494,-1.0,92,16.01,0,2,False,,,,0,0,3,10,0.18889668583869934,20,28.5,,39.9526379,,-113.4759757,False,0.10289216500677867,30.794,,39.9526353,,-113.4759757,2.294,,39.9526353,,-113.4759757,-2.2853879928588867,0.01798195391893387,-0.28361234068870544,unknown,MISSION,,,,,,ACTIVE,1733390347.1547348,0.19,-0.01,-1.37,12,1,15,0,17760384,128,2
1733390350.1877146,0.0,True,-0.04297620430588722,-0.009904030710458755,0.3607698380947113,-1.0,92,16.01,0,2,False,,,,0,0,3,10,0.208475723862648,20,28.5,,39.9526379,,-113.4759757,False,0.204454896003881,30.938,,39.9526355,,-113.4759758,2.437,,39.9526355,,-113.4759758,-2.428722620010376,0.016760552302002907,-0.26672548055648804,unknown,MISSION,,,,,,ACTIVE,3.032979726791382,0.2,-0.01,-1.38,12,1,15,0,17760384,128,2
1733390350.2861478,0.0,True,-0.040550969541072845,-0.006968164350837469,0.3610057234764099,-1.0,91,16.004,0,2,False,,,,0,0,3,10,0.21045149862766266,20,28.5,,39.9526379,,-113.4759757,False,0.3027692530013155,31.049,,39.9526356,,-113.4759758,2.548,,39.9526356,,-113.4759758,-2.5397627353668213,0.014972296543419361,-0.25270968675613403,unknown,MISSION,,,,,,ACTIVE,1733390347.253168,0.21,-0.02,-1.39,12,1,15,0,17760384,128,2
1733390350.3887103,0.0,True,-0.03857162594795227,-0.004861297085881233,0.3608357012271881,-1.0,91,16.004,0,2,False,,,,0,0,3,10,0.21470211446285248,20,28.5,,39.9526379,,-113.4759757,False,0.40455587200267473,31.183,,39.9526357,,-113.4759758,2.682,,39.9526357,,-113.4759758,-2.6738486289978027,0.012248959392309189,-0.2350243330001831,unknown,MISSION,,,,,,ACTIVE,3.135542154312134,0.21,-0.02,-1.4,12,1,15,0,17760384,128,2
1733390350.486474,0.0,True,-0.036186713725328445,-0.0032965466380119324,0.3600447177886963,-1.0,91,15.998,0,2,False,,,,0,0,3,10,0.2190845012664795,20,28.5,,39.9526379,,-113.4759757,False,0.503128539006866,31.295,,39.9526359,,-113.4759758,2.794,,39.9526359,,-113.4759758,-2.7974436283111572,0.009504360146820545,-0.21790701150894165,unknown,MISSION,,,,,,ACTIVE,1733390347.350932,0.21,-0.02,-1.4,12,1,15,0,17760384,128,2
1733390350.591714,0.0,True,-0.033702485263347626,-0.0010810218518599868,0.358981192111969,-1.0,91,15.998,0,2,False,,,,0,0,3,10,0.2188488394021988,20,28.5,,39.9526379,,-113.4759757,False,0.6089913820032962,31.442,,39.9526361,,-113.4759759,2.941,,39.9526361,,-113.4759759,-2.9440934658050537,0.005909597966820002,-0.19721440970897675,unknown,MISSION,,,,,,ACTIVE,3.2407820224761963,0.21,-0.02,-1.41,12,1,15,0,17760384,128,2
1733390350.689063,0.0,True,-0.03212246298789978,0.00043872094829566777,0.3582150340080261,-1.0,91,15.992,0,2,False,,,,0,0,3,10,0.21556852757930756,20,28.5,,39.9526379,,-113.4759757,False,0.7071486530039692,31.578,,39.9526362,,-113.4759759,3.077,,39.9526362,,-113.4759759,-3.068586587905884,0.0026785226073116064,-0.17938947677612305,unknown,MISSION,,,,,,ACTIVE,1733390347.448281,0.21,-0.02,-1.41,12,1,15,0,17760384,128,2
1733390350.7890708,0.0,True,-0.030317535623908043,0.0020407545380294323,0.3570905029773712,-1.0,91,15.992,0,2,False,,,,0,0,3,10,0.21155725419521332,20,28.5,,39.9526379,,-113.4759757,False,0.8044921460023033,31.691,,39.9526364,,-113.475976,3.19,,39.9526364,,-113.475976,-3.182197093963623,-0.00035422833752818406,-0.1629980206489563,unknown,MISSION,,,,,,ACTIVE,3.340789794921875,0.2,-0.02,-1.42,12,1,15,0,17760384,128,2
1733390350.8910773,0.0,True,-0.028671566396951675,0.003546646097674966,0.35637709498405457,-1.0,90,15.986,0,2,False,,,,0,0,3,10,0.20344139635562897,20,28.5,,39.9526379,,-113.4759757,False,0.9071606659999816,31.84,,39.9526366,,-113.475976,3.339,,39.9526366,,-113.475976,-3.3305068016052246,-0.004462712910026312,-0.14172515273094177,unknown,MISSION,,,,,,ACTIVE,1733390347.5502875,0.19,-0.02,-1.42,12,1,15,0,17760384,128,2
1733390350.9925592,0.0,True,-0.02716457098722458,0.004846392199397087,0.3557250201702118,-1.0,90,15.986,0,2,False,,,,0,0,3,10,0.19291453063488007,20,28.5,,39.9526379,,-113.4759757,False,1.0093891940050526,31.954,,39.9526367,,-113.475976,3.453,,39.9526367,,-113.475976,-3.4452250003814697,-0.007687080651521683,-0.12586428225040436,unknown,MISSION,,,,,,ACTIVE,3.4422717094421387,0.19,-0.02,-1.43,12,1,15,0,17760384,128,2
1733390351.0949025,0.0,True,-0.026237139478325844,0.0059653683565557,0.3551877439022064,-1.0,90,15.983,0,2,False,,,,0,0,3,10,0.19118301570415497,20,28.5,,39.9526379,,-113.4759757,False,0.09199675900163129,32.093,,39.9526369,,-113.4759761,3.592,,39.9526369,,-113.4759761,-3.583587408065796,-0.011655539274215698,-0.10734295845031738,unknown,MISSION,,,,,,ACTIVE,1733390347.6526308,0.18,-0.02,-1.43,12,1,15,0,17760384,128,2
1733390351.192589,0.0,True,-0.025194872170686722,0.007291408255696297,0.35479092597961426,-1.0,90,15.98,0,2,False,,,,0,0,3,10,0.18184730410575867,20,28.5,,39.9526379,,-113.4759757,False,0.09696106000046711,32.208,,39.952637,,-113.4759761,3.708,,39.952637,,-113.4759761,-3.6993703842163086,-0.015032010152935982,-0.09219224750995636,unknown,MISSION,,,,,,ACTIVE,3.5399582386016846,0.17,-0.02,-1.43,12,1,15,0,17760384,128,2
1733390351.2934415,0.0,True,-0.024149784818291664,0.008325031027197838,0.3546552360057831,-1.0,90,15.98,0,2,False,,,,0,0,3,10,0.16134439408779144,20,28.5,,39.9526379,,-113.4759757,False,0.19963566400110722,32.359,,39.9526372,,-113.4759762,3.858,,39.9526372,,-113.4759762,-3.850320816040039,-0.01905989833176136,-0.07285771518945694,unknown,MISSION,,,,,,ACTIVE,1733390347.7534833,0.15,-0.02,-1.44,12,1,15,0,17760384,128,2
1733390351.3932312,0.0,True,-0.023501010611653328,0.008870143443346024,0.3553592264652252,-1.0,90,15.974,0,2,False,,,,0,0,3,10,0.15732435882091522,20,28.5,,39.9526379,,-113.4759757,False,0.29702355500194244,32.476,,39.9526373,,-113.4759762,3.975,,39.9526373,,-113.4759762,-3.9669196605682373,-0.02171594649553299,-0.0586295910179615,unknown,MISSION,,,,,,ACTIVE,3.6397478580474854,0.14,-0.01,-1.44,12,1,15,0,17760384,128,2
1733390351.4934888,0.0,True,-0.022858096286654472,0.009374504908919334,0.355988085269928,-1.0,90,15.974,0,2,False,,,,0,0,3,10,0.14362221956253052,20,28.5,,39.9526379,,-113.4759757,False,0.39951885499613127,32.616,,39.9526375,,-113.4759762,4.116,,39.9526375,,-113.4759762,-4.107461452484131,-0.024516016244888306,-0.04244498163461685,unknown,MISSION,,,,,,ACTIVE,1733390347.853741,0.13,-0.01,-1.45,12,1,15,0,17760384,128,2
1733390351.5937142,0.0,True,-0.022442268207669258,0.009630521759390831,0.35638368129730225,-1.0,89,15.968,0,2,False,,,,0,0,3,10,0.12668432295322418,20,28.5,,39.9526379,,-113.4759757,False,0.49731053700088523,32.734,,39.9526376,,-113.4759763,4.233,,39.9526376,,-113.4759763,-4.236571788787842,-0.026626642793416977,-0.028356267139315605,unknown,MISSION,,,,,,ACTIVE,3.739973306655884,0.12,-0.01,-1.45,12,1,15,0,17760384,128,2
1733390351.6938014,0.0,True,-0.022088300436735153,0.009732041507959366,0.3567873239517212,-1.0,89,15.968,0,2,False,,,,0,0,3,10,0.11348877102136612,20,28.5,,39.9526379,,-113.4759757,False,0.5994098559967824,32.887,,39.9526377,,-113.4759763,4.386,,39.9526377,,-113.4759763,-4.377547264099121,-0.028404446318745613,-0.01398408692330122,unknown,MISSION,,,,,,ACTIVE,1733390347.953828,0.1,0.0,-1.45,12,1,15,0,17760384,128,2
1733390351.80081,0.0,True,-0.0216536708176136,0.009662192314863205,0.35715147852897644,-1.0,89,15.962,0,2,False,,,,0,0,3,10,0.0979977622628212,20,28.5,,39.9526379,,-113.4759757,False,0.7069834680005442,33.028,,39.9526378,,-113.4759763,4.527,,39.9526378,,-113.4759763,-4.518650054931641,-0.029450664296746254,-0.0006464067846536636,unknown,MISSION,,,,,,ACTIVE,3.846982002258301,0.09,0.0,-1.46,12,1,15,0,17760384,128,2
1733390351.896516,0.0,True,-0.021616697311401367,0.009802339598536491,0.35683467984199524,-1.0,89,15.962,0,2,False,,,,0,0,3,10,0.08379386365413666,20,28.5,,39.9526379,,-113.4759757,False,0.7996320460006245,33.146,,39.9526379,,-113.4759763,4.645,,39.9526379,,-113.4759763,-4.636616230010986,-0.030053874477744102,0.009667005389928818,unknown,MISSION,,,,,,ACTIVE,1733390348.049534,0.08,0.0,-1.46,12,1,15,0,17760384,128,2
1733390351.9993486,0.0,True,-0.021419841796159744,0.009987076744437218,0.3559991121292114,-1.0,89,15.956,0,2,False,,,,0,0,3,10,0.06891736388206482,20,28.5,,39.9526379,,-113.4759757,False,0.9028094669993152,33.264,,39.952638,,-113.4759763,4.763,,39.952638,,-113.4759763,-4.778481960296631,-0.030427653342485428,0.021092182025313377,unknown,MISSION,,,,,,ACTIVE,3.949814558029175,0.07,0.0,-1.46,12,1,15,0,17760384,128,2
1733390352.0994773,0.0,True,-0.021691819652915,0.009768273681402206,0.3554411828517914,-1.0,89,15.956,0,2,False,,,,0,0,3,10,0.05383426323533058,20,28.5,,39.9526379,,-113.4759757,False,1.0035071370002697,33.418,,39.9526381,,-113.4759763,4.917,,39.9526381,,-113.4759763,-4.908821105957031,-0.030424581840634346,0.03039202280342579,unknown,MISSION,,,,,,ACTIVE,1733390348.1496627,0.05,0.0,-1.46,12,1,15,0,17760384,128,2
1733390352.201305,0.0,True,-0.02197549119591713,0.009426203556358814,0.3544098138809204,-1.0,88,15.953,0,2,False,,,,0,0,3,10,0.05206134915351868,20,28.5,,39.9526379,,-113.4759757,False,0.0884022059981362,33.56,,39.9526382,,-113.4759763,5.06,,39.9526382,,-113.4759763,-5.05140495300293,-0.030002621933817863,0.039376139640808105,unknown,MISSION,,,,,,ACTIVE,4.051642179489136,0.04,0.0,-1.46,12,1,15,0,17760384,128,2
1733390352.3020895,0.0,True,-0.02262197434902191,0.00936147104948759,0.35321250557899475,-1.0,88,15.95,0,2,False,,,,0,0,3,10,0.039031799882650375,20,28.5,,39.9526379,,-113.4759757,False,0.09774792899406748,33.68,,39.9526383,,-113.4759763,5.179,,39.9526383,,-113.4759763,-5.170619964599609,-0.029426591470837593,0.045889534056186676,unknown,MISSION,,,,,,ACTIVE,1733390348.2504473,0.02,0.0,-1.47,12,1,15,0,17760384,128,2
1733390352.4015334,0.0,True,-0.023271718993782997,0.009490007534623146,0.35209915041923523,-1.0,88,15.95,0,2,False,,,,0,0,3,10,0.015649421140551567,20,28.5,,39.9526379,,-113.4759757,False,0.19657296199875418,33.835,,39.9526383,,-113.4759763,5.334,,39.9526383,,-113.4759763,-5.325985908508301,-0.02810077555477619,0.052860651165246964,unknown,MISSION,,,,,,ACTIVE,4.151086091995239,0.01,0.0,-1.47,12,1,15,0,17760384,128,2
1733390352.5047116,0.0,True,-0.02406502515077591,0.009219158440828323,0.3502363860607147,-1.0,88,15.944,0,2,False,,,,0,0,3,10,0.012225116603076458,20,28.5,,39.9526379,,-113.4759757,False,0.29780831599782687,33.955,,39.9526384,,-113.4759763,5.454,,39.9526384,,-113.4759763,-5.4456048011779785,-0.02656145952641964,0.05719756707549095,unknown,MISSION,,,,,,ACTIVE,1733390348.3536255,0.0,0.0,-1.47,12,1,15,0,17760384,128,2
1733390352.6016543,0.0,True,-0.024422267451882362,0.008936092257499695,0.34824585914611816,-1.0,88,15.944,0,2,False,,,,0,0,3,10,0.0042526600882411,20,28.5,,39.9526379,,-113.4759757,False,0.39591145199665334,34.098,,39.9526384,,-113.4759762,5.598,,39.9526384,,-113.4759762,-5.589445114135742,-0.02434001863002777,0.06126880645751953,unknown,MISSION,,,,,,ACTIVE,4.248028755187988,0.0,0.0,-1.47,12,1,15,0,17760384,128,2
1733390352.7020586,0.0,True,-0.025378383696079254,0.007701210677623749,0.3465653657913208,-1.0,88,15.938,0,2,False,,,,0,0,3,10,0.016364073380827904,19,28.5,,39.9526379,,-113.4759757,False,0.49760377899656305,34.219,,39.9526384,,-113.4759762,5.718,,39.9526384,,-113.4759762,-5.721735000610352,-0.021774809807538986,0.06393961608409882,unknown,MISSION,,,,,,ACTIVE,1733390348.4540298,-0.01,0.0,-1.48,12,1,15,0,17760384,128,2
1733390352.8021727,0.0,True,-0.026130756363272667,0.007007421925663948,0.3451928496360779,-1.0,88,15.938,0,2,False,,,,0,0,3,10,0.025679858401417732,19,28.5,,39.9526379,,-113.4759757,False,0.5959879899965017,34.376,,39.9526384,,-113.4759762,5.875,,39.9526384,,-113.4759762,-5.866552829742432,-0.01873829960823059,0.06578004360198975,unknown,MISSION,,,,,,ACTIVE,4.348142862319946,-0.02,0.0,-1.48,12,1,15,0,17760384,128,2
1733390352.9022193,0.0,True,-0.027184752747416496,0.006296583451330662,0.3439263701438904,-1.0,87,15.932,0,2,False,,,,0,0,3,10,0.035267237573862076,19,28.5,,39.9526379,,-113.4759757,False,0.6975287399982335,34.496,,39.9526384,,-113.4759761,5.996,,39.9526384,,-113.4759761,-5.987460136413574,-0.01610073447227478,0.06666538119316101,unknown,MISSION,,,,,,ACTIVE,1733390348.5540764,-0.03,0.0,-1.48,12,1,15,0,17760384,128,2
1733390353.0023193,0.0,True,-0.027706213295459747,0.005557255819439888,0.34299442172050476,-1.0,87,15.932,0,2,False,,,,0,0,3,10,0.04280112311244011,19,28.5,,39.9526379,,-113.4759757,False,0.7916539429934346,34.617,,39.9526385,,-113.4759761,6.116,,39.9526385,,-113.4759761,-6.132323741912842,-0.012702898122370243,0.06704531610012054,unknown,MISSION,,,,,,ACTIVE,4.448242902755737,-0.04,0.0,-1.48,12,1,15,0,17760384,128,2
1733390353.1030266,0.0,True,-0.028726326301693916,0.004481568932533264,0.34169909358024597,-1.0,87,15.926,0,2,False,,,,0,0,3,10,0.05123995244503021,19,28.5,,39.9526379,,-113.4759757,False,0.8977525969967246,34.762,,39.9526385,,-113.4759761,6.261,,39.9526385,,-113.4759761,-6.252927303314209,-0.009533394128084183,0.06680569052696228,unknown,MISSION,,,,,,ACTIVE,1733390348.6547837,-0.04,0.0,-1.48,12,1,15,0,17760384,128,2
1733390353.2031074,0.0,True,-0.0294916033744812,0.004082486033439636,0.34134984016418457,-1.0,87,15.926,0,2,False,,,,0,0,3,10,0.05123995244503021,19,28.5,,39.9526379,,-113.4759757,False,0.9957070299933548,34.882,,39.9526384,,-113.475976,6.381,,39.9526384,,-113.475976,-6.373278617858887,-0.0062622688710689545,0.06612934172153473,unknown,MISSION,,,,,,ACTIVE,4.548323631286621,-0.05,0.0,-1.48,12,1,15,0,17760384,128,2
1733390353.3033078,0.0,True,-0.030326295644044876,0.0034267334267497063,0.341370552778244,-1.0,87,15.923,0,2,False,,,,0,0,3,10,0.0563993975520134,19,28.5,,39.9526379,,-113.4759757,False,0.07709700299892575,35.039,,39.9526384,,-113.475976,6.538,,39.9526384,,-113.475976,-6.529665946960449,-0.001955475192517042,0.06466154754161835,unknown,MISSION,,,,,,ACTIVE,1733390348.7549841,-0.05,0.0,-1.48,12,1,15,0,17760384,128,2
1733390353.4029343,0.0,True,-0.03072439134120941,0.0022830157540738583,0.34168654680252075,-1.0,87,15.92,0,2,False,,,,0,0,3,10,0.060126032680273056,19,28.5,,39.9526379,,-113.4759757,False,0.08073180499923183,35.159,,39.9526384,,-113.4759759,6.658,,39.9526384,,-113.4759759,-6.650154113769531,0.0015063344035297632,0.06304638832807541,unknown,MISSION,,,,,,ACTIVE,4.647950172424316,-0.06,0.0,-1.49,12,1,15,0,17760384,128,2
1733390353.5031252,0.0,True,-0.0313803069293499,0.0016209941823035479,0.34232479333877563,-1.0,87,15.92,0,2,False,,,,0,0,3,10,0.06424826383590698,19,28.5,,39.9526379,,-113.4759757,False,0.18215360400063219,35.304,,39.9526384,,-113.4759759,6.803,,39.9526384,,-113.4759759,-6.794956207275391,0.0056710513308644295,0.06046880781650543,unknown,MISSION,,,,,,ACTIVE,1733390348.855175,-0.06,0.0,-1.49,12,1,15,0,17760384,128,2
1733390353.605243,0.0,True,-0.032141201198101044,0.0006409109919331968,0.34286633133888245,-1.0,86,15.914,0,2,False,,,,0,0,3,10,0.06732751429080963,19,28.5,,39.9526379,,-113.4759757,False,0.2845238820009399,35.461,,39.9526384,,-113.4759758,6.96,,39.9526384,,-113.4759758,-6.9517974853515625,0.009868523105978966,0.05693269520998001,unknown,MISSION,,,,,,ACTIVE,4.750067949295044,-0.07,0.0,-1.49,12,1,15,0,17760384,128,2
1733390353.7067854,0.0,True,-0.03333354741334915,7.45187935535796e-05,0.34403759241104126,-1.0,86,15.914,0,2,False,,,,0,0,3,10,0.07138708978891373,19,28.5,,39.9526379,,-113.4759757,False,0.3866960469968035,35.582,,39.9526383,,-113.4759758,7.081,,39.9526383,,-113.4759758,-7.084941864013672,0.013458365574479103,0.05320237576961517,unknown,MISSION,,,,,,ACTIVE,1733390348.9567175,-0.07,0.0,-1.49,12,1,15,0,17760384,128,2
1733390353.8100126,0.0,True,-0.034077733755111694,-0.0003990491677541286,0.34513160586357117,-1.0,86,15.908,0,2,False,,,,0,0,3,10,0.0731540098786354,19,28.5,,39.9526379,,-113.4759757,False,0.48997743299696594,35.728,,39.9526383,,-113.4759757,7.227,,39.9526383,,-113.4759757,-7.218516826629639,0.01708819344639778,0.04904283583164215,unknown,MISSION,,,,,,ACTIVE,4.853295087814331,-0.07,0.0,-1.49,12,1,15,0,17760384,128,2
1733390353.9109719,0.0,True,-0.034565333276987076,-0.001133283250965178,0.34660184383392334,-1.0,86,15.908,0,2,False,,,,0,0,3,10,0.07129626721143723,19,28.5,,39.9526379,,-113.4759757,False,0.5911506159973214,35.849,,39.9526383,,-113.4759757,7.348,,39.9526383,,-113.4759757,-7.340012073516846,0.020203188061714172,0.04525924101471901,unknown,MISSION,,,,,,ACTIVE,1733390349.0576768,-0.07,0.0,-1.5,12,1,15,0,17760384,128,2
1733390354.0112062,0.0,True,-0.0348023883998394,-0.0020189769566059113,0.3480473756790161,-1.0,86,15.902,0,2,False,,,,0,0,3,10,0.07014217972755432,19,28.5,,39.9526379,,-113.4759757,False,0.6888992829990457,36.007,,39.9526382,,-113.4759757,7.507,,39.9526382,,-113.4759757,-7.498380661010742,0.024127738550305367,0.040407225489616394,unknown,MISSION,,,,,,ACTIVE,4.953529357910156,-0.06,0.0,-1.5,12,1,15,0,17760384,128,2
1733390354.1113222,0.0,True,-0.035455286502838135,-0.0028369228821247816,0.3491716682910919,-1.0,86,15.902,0,2,False,,,,0,0,3,10,0.06960853934288025,19,28.5,,39.9526379,,-113.4759757,False,0.790657134995854,36.129,,39.9526382,,-113.4759756,7.628,,39.9526382,,-113.4759756,-7.620192050933838,0.026832642033696175,0.03651629015803337,unknown,MISSION,,,,,,ACTIVE,1733390349.1577928,-0.06,0.0,-1.5,12,1,15,0,17760384,128,2
1733390354.2115533,0.0,True,-0.0361555740237236,-0.002757574897259474,0.3503337800502777,-1.0,86,15.902,0,2,False,,,,0,0,3,10,0.06960853934288025,19,28.5,,39.9526379,,-113.4759757,False,0.8890157979985815,36.275,,39.9526381,,-113.4759756,7.774,,39.9526381,,-113.4759756,-7.766205787658691,0.029475457966327667,0.03173273056745529,unknown,MISSION,,,,,,ACTIVE,5.053760528564453,-0.06,0.0,-1.5,12,1,15,0,17760384,128,2
1733390354.3151119,0.0,True,-0.03632960841059685,-0.00259470590390265,0.35163483023643494,-1.0,85,15.896,0,2,False,,,,0,0,3,10,0.06612753123044968,20,28.5,,39.9526379,,-113.4759757,False,0.9908974469944951,36.397,,39.9526381,,-113.4759756,7.896,,39.9526381,,-113.4759756,-7.887879848480225,0.031264979392290115,0.02777024358510971,unknown,MISSION,,,,,,ACTIVE,1733390349.2613513,-0.06,-0.01,-1.5,12,1,15,0,17760384,128,2
1733390354.4180877,0.0,True,-0.03672657534480095,-0.0025113197043538094,0.35274359583854675,-1.0,85,15.893,0,2,False,,,,0,0,3,10,0.062428608536720276,20,28.5,,39.9526379,,-113.4759757,False,0.07410697900195373,36.555,,39.9526381,,-113.4759756,8.054,,39.9526381,,-113.4759756,-8.045979499816895,0.03367665410041809,0.02259162813425064,unknown,MISSION,,,,,,ACTIVE,5.156736373901367,-0.05,-0.01,-1.5,12,1,15,0,17760384,128,2
1733390354.5195544,0.0,True,-0.03679532930254936,-0.0027382690459489822,0.3534858226776123,-1.0,85,15.89,0,2,False,,,,0,0,3,10,0.05892319604754448,20,28.5,,39.9526379,,-113.4759757,False,0.08028398799797287,36.677,,39.952638,,-113.4759755,8.176,,39.952638,,-113.4759755,-8.167499542236328,0.035451680421829224,0.018711287528276443,unknown,MISSION,,,,,,ACTIVE,1733390349.362818,-0.05,-0.01,-1.5,12,1,15,0,17760384,128,2
1733390354.6281464,0.0,True,-0.0369538851082325,-0.002608067821711302,0.3541339635848999,-1.0,85,15.89,0,2,False,,,,0,0,3,10,0.0535186231136322,20,28.5,,39.9526379,,-113.4759757,False,0.1923269100007019,36.822,,39.952638,,-113.4759755,8.321,,39.952638,,-113.4759755,-8.313298225402832,0.03740410506725311,0.014180482365190983,unknown,MISSION,,,,,,ACTIVE,5.265328407287598,-0.05,-0.01,-1.5,12,1,15,0,17760384,128,2
1733390354.727144,0.0,True,-0.03710189089179039,-0.0027022201102226973,0.35466650128364563,-1.0,85,15.884,0,2,False,,,,0,0,3,10,0.0526755228638649,20,28.5,,39.9526379,,-113.4759757,False,0.288673501003359,36.98,,39.9526379,,-113.4759755,8.479,,39.9526379,,-113.4759755,-8.471124649047852,0.039458878338336945,0.009357534348964691,unknown,MISSION,,,,,,ACTIVE,1733390349.4618156,-0.04,-0.01,-1.5,12,1,15,0,17760384,128,2
1733390354.8307152,0.0,True,-0.037535347044467926,-0.0028560995124280453,0.3549984097480774,-1.0,85,15.884,0,2,False,,,,0,0,3,10,0.05046732723712921,20,28.5,,39.9526379,,-113.4759757,False,0.3910175769997295,37.102,,39.9526379,,-113.4759755,8.601,,39.9526379,,-113.4759755,-8.604877471923828,0.04089405760169029,0.0052505116909742355,unknown,MISSION,,,,,,ACTIVE,5.368899583816528,-0.04,-0.02,-1.5,12,1,15,0,17760384,128,2
1733390354.9300349,0.0,True,-0.03792930766940117,-0.002663067542016506,0.35517799854278564,-1.0,84,15.878,0,2,False,,,,0,0,3,10,0.04757944121956825,20,28.5,,39.9526379,,-113.4759757,False,0.49302718399849255,37.248,,39.9526379,,-113.4759755,8.747,,39.9526379,,-113.4759755,-8.750894546508789,0.04230683296918869,0.0008523765136487782,unknown,MISSION,,,,,,ACTIVE,1733390349.5611353,-0.04,-0.02,-1.5,12,1,15,0,17760384,128,2
1733390355.0322614,0.0,True,-0.03789632022380829,-0.002750650281086564,0.3554164469242096,-1.0,84,15.878,0,2,False,,,,0,0,3,10,0.04462242126464844,20,28.5,,39.9526379,,-113.4759757,False,0.5954214700032026,37.406,,39.9526378,,-113.4759754,8.905,,39.9526378,,-113.4759754,-8.896836280822754,0.0434916615486145,-0.003112374572083354,unknown,MISSION,,,,,,ACTIVE,5.471126079559326,-0.03,-0.02,-1.5,12,1,15,0,17760384,128,2
1733390355.134313,0.0,True,-0.038463741540908813,-0.002372722839936614,0.35593369603157043,-1.0,84,15.872,0,2,False,,,,0,0,3,10,0.04309616610407829,20,28.5,,39.9526379,,-113.4759757,False,0.6971837570017669,37.527,,39.9526378,,-113.4759754,9.027,,39.9526378,,-113.4759754,-9.018472671508789,0.04433916136622429,-0.006112218368798494,unknown,MISSION,,,,,,ACTIVE,1733390349.663187,-0.03,-0.02,-1.51,12,1,15,0,17760384,128,2
1733390355.2357392,0.0,True,-0.03854064643383026,-0.0023931199684739113,0.3563880920410156,-1.0,84,15.872,0,2,False,,,,0,0,3,10,0.04076896980404854,20,28.5,,39.9526379,,-113.4759757,False,0.7995406830013962,37.673,,39.9526378,,-113.4759754,9.173,,39.9526378,,-113.4759754,-9.164470672607422,0.04516211897134781,-0.009601005353033543,unknown,MISSION,,,,,,ACTIVE,5.57255220413208,-0.03,-0.02,-1.5,12,1,15,0,17760384,128,2
1733390355.33459,0.0,True,-0.03865431621670723,-0.0026195624377578497,0.35691598057746887,-1.0,84,15.866,0,2,False,,,,0,0,3,10,0.03908568620681763,20,28.5,,39.9526379,,-113.4759757,False,0.8968567720003193,37.795,,39.9526377,,-113.4759754,9.294,,39.9526377,,-113.4759754,-9.286046028137207,0.045649390667676926,-0.012292219325900078,unknown,MISSION,,,,,,ACTIVE,1733390349.7620378,-0.02,-0.02,-1.51,12,1,15,0,17760384,128,2
1733390355.4346645,0.0,True,-0.03869258239865303,-0.0022905003279447556,0.35739263892173767,-1.0,84,15.866,0,2,False,,,,0,0,3,10,0.03908568620681763,20,28.5,,39.9526379,,-113.4759757,False,0.9950544520033873,37.953,,39.9526377,,-113.4759754,9.452,,39.9526377,,-113.4759754,-9.444156646728516,0.04587109759449959,-0.015330282039940357,unknown,MISSION,,,,,,ACTIVE,5.672626733779907,-0.02,-0.03,-1.51,12,1,15,0,17760384,128,2
1733390355.5382397,0.0,True,-0.03858236223459244,-0.0015301796374842525,0.35789981484413147,-1.0,83,15.863,0,2,False,,,,0,0,3,10,0.037773869931697845,20,28.5,,39.9526379,,-113.4759757,False,0.08463867800310254,38.075,,39.9526377,,-113.4759754,9.574,,39.9526377,,-113.4759754,-9.565666198730469,0.045797549188137054,-0.017379093915224075,unknown,MISSION,,,,,,ACTIVE,1733390349.865613,-0.01,-0.03,-1.51,12,1,15,0,17760384,128,2
1733390355.6386514,0.0,True,-0.03844777122139931,-0.0009919751901179552,0.35816752910614014,-1.0,83,15.86,0,2,False,,,,0,0,3,10,0.036667197942733765,20,28.5,,39.9526379,,-113.4759757,False,0.08868600600544596,38.22,,39.9526377,,-113.4759754,9.72,,39.9526377,,-113.4759754,-9.71138858795166,0.04537263140082359,-0.01938927173614502,unknown,MISSION,,,,,,ACTIVE,5.773038387298584,-0.01,-0.03,-1.51,12,1,15,0,17760384,128,2
1733390355.7391467,0.0,True,-0.03821016475558281,-0.0009560291073285043,0.3587256669998169,-1.0,83,15.86,0,2,False,,,,0,0,3,10,0.03665589913725853,20,28.5,,39.9526379,,-113.4759757,False,0.1910682750021806,38.342,,39.9526377,,-113.4759754,9.841,,39.9526377,,-113.4759754,-9.832932472229004,0.044695302844047546,-0.020799221470952034,unknown,MISSION,,,,,,ACTIVE,1733390349.9661083,-0.01,-0.03,-1.51,12,1,15,0,17760384,128,2
1733390355.8402832,0.0,True,-0.038759585469961166,-0.0004811963008251041,0.3593405485153198,-1.0,83,15.854,0,2,False,,,,0,0,3,10,0.03736640885472298,20,28.5,,39.9526379,,-113.4759757,False,0.29276449900498847,38.5,,39.9526376,,-113.4759754,9.999,,39.9526376,,-113.4759754,-9.99102783203125,0.04360209032893181,-0.022688783705234528,unknown,MISSION,,,,,,ACTIVE,5.8741748332977295,0.0,-0.03,-1.51,12,1,15,0,17760384,128,2
1733390355.9404368,0.0,True,-0.038527872413396835,5.3571711760014296e-05,0.35955649614334106,-1.0,83,15.854,0,2,False,,,,0,0,3,10,0.03829626366496086,20,28.5,,39.9526379,,-113.4759757,False,0.39086987799964845,38.622,,39.9526376,,-113.4759754,10.121,,39.9526376,,-113.4759754,-10.124889373779297,0.04278196021914482,-0.02420770563185215,unknown,MISSION,,,,,,ACTIVE,1733390350.066262,0.0,-0.03,-1.51,12,1,15,0,17760384,128,2
1733390356.0406604,0.0,True,-0.0382254421710968,0.0005807281122542918,0.3600882589817047,-1.0,83,15.848,0,2,False,,,,0,0,3,10,0.03637374937534332,20,28.5,,39.9526379,,-113.4759757,False,0.4930691650006338,38.769,,39.9526376,,-113.4759755,10.269,,39.9526376,,-113.4759755,-10.272970199584961,0.04215514287352562,-0.025621211156249046,unknown,MISSION,,,,,,ACTIVE,5.974398374557495,0.0,-0.03,-1.55,12,1,15,0,17760384,128,2
1733390356.14064,0.0,True,-0.03781016543507576,7.953731255838647e-05,0.36029279232025146,-1.0,83,15.848,0,2,False,,,,0,0,3,10,0.033103086054325104,20,28.5,,39.9526379,,-113.4759757,False,0.5918173840036616,38.897,,39.9526376,,-113.4759755,10.396,,39.9526376,,-113.4759755,-10.387661933898926,0.04186327010393143,-0.026373915374279022,unknown,MISSION,,,,,,ACTIVE,1733390350.1662416,0.0,-0.03,-1.61,12,1,15,0,17760384,128,2
1733390356.2410803,0.0,True,-0.03727341815829277,-0.0001324618060607463,0.3607286512851715,-1.0,82,15.842,0,2,False,,,,0,0,3,10,0.031034300103783607,20,28.5,,39.9526379,,-113.4759757,False,0.6927221540026949,39.071,,39.9526376,,-113.4759755,10.57,,39.9526376,,-113.4759755,-10.562041282653809,0.041537314653396606,-0.027064431458711624,unknown,MISSION,,,,,,ACTIVE,6.074838638305664,0.0,-0.02,-1.73,12,1,15,0,17760384,128,2
1733390356.3408966,0.0,True,-0.036627158522605896,-0.00043478060979396105,0.3608192205429077,-1.0,82,15.842,0,2,False,,,,0,0,3,10,0.032013189047575,20,28.5,,39.9526379,,-113.4759757,False,0.7915460270014592,39.214,,39.9526376,,-113.4759755,10.714,,39.9526376,,-113.4759755,-10.735249519348145,0.04152613505721092,-0.026968207210302353,unknown,MISSION,,,,,,ACTIVE,1733390350.266058,0.01,-0.02,-1.85,12,1,15,0,17760384,128,2
1733390356.4412572,0.0,True,-0.0356459766626358,-0.00044745413470081985,0.36101722717285156,-1.0,82,15.836,0,2,False,,,,0,0,3,10,0.03335171192884445,20,28.5,,39.9526379,,-113.4759757,False,0.8942677779996302,39.4,,39.9526376,,-113.4759755,10.899,,39.9526376,,-113.4759755,-10.891035079956055,0.04168049246072769,-0.026482297107577324,unknown,MISSION,,,,,,ACTIVE,6.175199270248413,0.02,-0.02,-2.03,12,1,15,0,17760384,128,2
1733390356.5424607,0.0,True,-0.034325774759054184,0.00010454526636749506,0.3607715368270874,-1.0,82,15.836,0,2,False,,,,0,0,3,10,0.03335171192884445,20,28.5,,39.9526379,,-113.4759757,False,0.9959864170014043,39.622,,39.9526376,,-113.4759755,11.121,,39.9526376,,-113.4759755,-11.112679481506348,0.042078591883182526,-0.025524847209453583,unknown,MISSION,,,,,,ACTIVE,1733390350.3672614,0.02,-0.02,-2.27,12,1,15,0,17760384,128,2
1733390356.6416266,0.0,True,-0.03277706354856491,0.00024613735149614513,0.36061936616897583,-1.0,82,15.833,0,2,False,,,,0,0,3,10,0.038189370185136795,20,28.5,,39.9526379,,-113.4759757,False,0.0751356949986075,39.809,,39.9526376,,-113.4759755,11.308,,39.9526376,,-113.4759755,-11.299704551696777,0.042404577136039734,-0.024641461670398712,unknown,MISSION,,,,,,ACTIVE,6.274365186691284,0.03,-0.02,-2.46,12,1,15,0,17760384,128,2
1733390356.743537,0.0,True,-0.03200145810842514,0.0004149080195929855,0.3599725663661957,-1.0,82,15.83,0,2,False,,,,0,0,3,10,0.04098604619503021,20,28.5,,39.9526379,,-113.4759757,False,0.08631250799953705,40.051,,39.9526376,,-113.4759755,11.55,,39.9526376,,-113.4759755,-11.541662216186523,0.04257361590862274,-0.023634670302271843,unknown,MISSION,,,,,,ACTIVE,1733390350.4691718,0.03,-0.02,-2.66,12,1,15,0,17760384,128,2
1733390356.8419607,0.0,True,-0.032064490020275116,0.0007541369413957,0.3595091700553894,-1.0,82,15.83,0,2,False,,,,0,0,3,10,0.04167651757597923,20,28.5,,39.9526379,,-113.4759757,False,0.18264581599942176,40.264,,39.9526376,,-113.4759754,11.763,,39.9526376,,-113.4759754,-11.75501823425293,0.04268350079655647,-0.02301005646586418,unknown,MISSION,,,,,,ACTIVE,6.372788906097412,0.03,-0.02,-2.79,12,1,15,0,17760384,128,2
1733390356.942897,0.0,True,-0.0319424532353878,0.00048247657832689583,0.3589501976966858,-1.0,81,15.824,0,2,False,,,,0,0,3,10,0.03999447077512741,20,28.5,,39.9526379,,-113.4759757,False,0.28520251600275515,40.554,,39.9526376,,-113.4759755,12.053,,39.9526376,,-113.4759755,-12.044782638549805,0.04258792847394943,-0.022695345804095268,unknown,MISSION,,,,,,ACTIVE,1733390350.5701082,0.03,-0.02,-2.92,12,1,15,0,17760384,128,2
1733390357.0461786,0.0,True,-0.0320638045668602,0.0008335920865647495,0.3581562638282776,-1.0,81,15.824,0,2,False,,,,0,0,3,10,0.041302796453237534,20,28.5,,39.9526379,,-113.4759757,False,0.38678387199615827,40.784,,39.9526376,,-113.4759755,12.283,,39.9526376,,-113.4759755,-12.29829216003418,0.041886113584041595,-0.022905630990862846,unknown,MISSION,,,,,,ACTIVE,6.476070404052734,0.03,-0.02,-2.99,12,1,15,0,17760384,128,2
1733390357.15011,0.0,True,-0.0324009507894516,0.0005839943769387901,0.3576104938983917,-1.0,81,15.818,0,2,False,,,,0,0,3,10,0.039535630494356155,20,28.5,,39.9526379,,-113.4759757,False,0.48984517099597724,41.066,,39.9526376,,-113.4759755,12.565,,39.9526376,,-113.4759755,-12.556755065917969,0.04052666202187538,-0.023575766012072563,unknown,MISSION,,,,,,ACTIVE,1733390350.6740396,0.02,-0.02,-3.03,12,1,15,0,17760384,128,2
1733390357.2502463,0.0,True,-0.033385422080755234,0.0012376353843137622,0.3566591739654541,-1.0,81,15.818,0,2,False,,,,0,0,3,10,0.037410516291856766,20,28.5,,39.9526379,,-113.4759757,False,0.5920448249962647,41.302,,39.9526376,,-113.4759755,12.801,,39.9526376,,-113.4759755,-12.793171882629395,0.03874949365854263,-0.024603350088000298,unknown,MISSION,,,,,,ACTIVE,6.576206684112549,0.02,-0.02,-3.03,12,1,15,0,17760384,128,2
1733390357.3511097,0.0,True,-0.03421926498413086,0.0015848283655941486,0.35613366961479187,-1.0,81,15.812,0,2,False,,,,0,0,3,10,0.03571287542581558,20,28.5,,39.9526379,,-113.4759757,False,0.6893982050023624,41.609,,39.9526376,,-113.4759755,13.108,,39.9526376,,-113.4759755,-13.099656105041504,0.03580079600214958,-0.02647310495376587,unknown,MISSION,,,,,,ACTIVE,1733390350.774903,0.02,-0.02,-3.01,12,1,15,0,17760384,128,2
1733390357.4504423,0.0,True,-0.03540745750069618,0.0015122945187613368,0.3552180826663971,-1.0,81,15.812,0,2,False,,,,0,0,3,10,0.032504886388778687,20,28.5,,39.9526379,,-113.4759757,False,0.7919755330003682,41.844,,39.9526376,,-113.4759756,13.343,,39.9526376,,-113.4759756,-13.381881713867188,0.0326940193772316,-0.02883029170334339,unknown,MISSION,,,,,,ACTIVE,6.675539255142212,0.01,-0.02,-2.99,12,1,15,0,17760384,128,2
1733390357.5520895,0.0,True,-0.0363667830824852,0.0016273428918793797,0.35501593351364136,-1.0,80,15.806,0,2,False,,,,0,0,3,10,0.03156618773937225,20,28.5,,39.9526379,,-113.4759757,False,0.8937519890023395,42.126,,39.9526376,,-113.4759756,13.625,,39.9526376,,-113.4759756,-13.617170333862305,0.029924361035227776,-0.03098253346979618,unknown,MISSION,,,,,,ACTIVE,1733390350.8765502,0.01,-0.02,-2.99,12,1,15,0,17760384,128,2
1733390357.6536767,0.0,True,-0.03706172853708267,0.0017751752166077495,0.35459986329078674,-1.0,80,15.806,0,2,False,,,,0,0,3,10,0.03156618773937225,20,28.5,,39.9526379,,-113.4759757,False,0.9964669629989658,42.433,,39.9526375,,-113.4759756,13.932,,39.9526375,,-113.4759756,-13.923589706420898,0.02609853446483612,-0.03415761515498161,unknown,MISSION,,,,,,ACTIVE,6.7771265506744385,0.01,-0.02,-2.98,12,1,15,0,17760384,128,2
1733390357.7553747,0.0,True,-0.03809419646859169,0.0022938265465199947,0.3549017608165741,-1.0,80,15.803,0,2,False,,,,0,0,3,10,0.031392212957143784,20,28.5,,39.9526379,,-113.4759757,False,0.07993947499926435,42.669,,39.9526375,,-113.4759757,14.168,,39.9526375,,-113.4759757,-14.159685134887695,0.02316887304186821,-0.036741871386766434,unknown,MISSION,,,,,,ACTIVE,1733390350.9782481,0.01,-0.02,-2.98,12,1,15,0,17760384,128,2
1733390357.8558137,0.0,True,-0.038518816232681274,0.002240290166810155,0.3552418649196625,-1.0,80,15.8,0,2,False,,,,0,0,3,10,0.030284641310572624,20,28.5,,39.9526379,,-113.4759757,False,0.08460294199903728,42.953,,39.9526375,,-113.4759757,14.452,,39.9526375,,-113.4759757,-14.443573951721191,0.019819431006908417,-0.039635978639125824,unknown,MISSION,,,,,,ACTIVE,6.877565622329712,0.01,-0.02,-2.98,12,1,15,0,17760384,128,2
1733390357.956831,0.0,True,-0.038757845759391785,0.002663872204720974,0.35537534952163696,-1.0,80,15.8,0,2,False,,,,0,0,3,10,0.03052857331931591,20,28.5,,39.9526379,,-113.4759757,False,0.18673203999787802,43.19,,39.9526375,,-113.4759757,14.689,,39.9526375,,-113.4759757,-14.6806058883667,0.01735525205731392,-0.0417390801012516,unknown,MISSION,,,,,,ACTIVE,1733390351.0792654,0.02,-0.02,-2.98,12,1,15,0,17760384,128,2
1733390358.0563216,0.0,True,-0.03883174806833267,0.0029138962272554636,0.35546034574508667,-1.0,80,15.794,0,2,False,,,,0,0,3,10,0.030644968152046204,20,28.5,,39.9526379,,-113.4759757,False,0.2842458529994474,43.499,,39.9526375,,-113.4759758,14.998,,39.9526375,,-113.4759758,-14.989505767822266,0.014253003522753716,-0.04444713518023491,unknown,MISSION,,,,,,ACTIVE,6.977056264877319,0.02,-0.02,-2.98,12,1,15,0,17760384,128,2
