timestamp,airspeed,armed,attitude.pitch,attitude.roll,attitude.yaw,battery.current,battery.level,battery.voltage,commands.count,commands.next,ekf_ok,gimbal.pitch,gimbal.roll,gimbal.yaw,gps_0.eph,gps_0.epv,gps_0.fix_type,gps_0.satellites_visible,groundspeed,heading,home_location.alt,home_location.global_frame,home_location.lat,home_location.local_frame,home_location.lon,is_armable,last_heartbeat,location.global_frame.alt,location.global_frame.global_frame,location.global_frame.lat,location.global_frame.local_frame,location.global_frame.lon,location.global_relative_frame.alt,location.global_relative_frame.global_frame,location.global_relative_frame.lat,location.global_relative_frame.local_frame,location.global_relative_frame.lon,location.local_frame.down,location.local_frame.east,location.local_frame.north,ml_verdict,mode.name,mount_status[0],mount_status[1],mount_status[2],rangefinder.distance,rangefinder.voltage,system_status.state,timedelta,velocity[0],velocity[1],velocity[2],version.autopilot_type,version.major,version.minor,version.patch,version.raw_version,version.release,version.vehicle_type
1733398353.4986587,0.0,True,0.002237945795059204,0.0018162059132009745,0.1511639654636383,-1.0,100,16.173,0,8,False,,,,0,0,3,10,0.008170431479811668,8,28.493,,39.952638,,-113.475976,False,0.03540224300377304,28.493,,39.952638,,-113.4759759,0.0,,39.952638,,-113.4759759,0.005793496500700712,0.008676580153405666,0.0017814388265833259,-1,RTL,,,,,,ACTIVE,0,0.0,0.0,0.0,12,1,15,0,17760384,128,2
1733398353.6043782,0.0,True,0.0021886874455958605,0.002042735693976283,0.15142224729061127,-1.0,100,16.17,0,8,False,,,,0,0,3,10,0.008698400110006332,8,28.493,,39.952638,,-113.475976,False,0.03377660700061824,28.493,,39.952638,,-113.4759759,0.0,,39.952638,,-113.4759759,0.005444870796054602,0.009801534004509449,0.001819664379581809,-1,RTL,,,,,,ACTIVE,1733398353.6043782,0.0,0.0,0.0,12,1,15,0,17760384,128,2
1733398353.7033398,0.0,True,0.002019223989918828,0.0019739295821636915,0.15147818624973297,-1.0,100,16.17,0,8,False,,,,0,0,3,10,0.008908607065677643,8,28.493,,39.952638,,-113.475976,False,0.1320050499998615,28.493,,39.952638,,-113.4759759,0.0,,39.952638,,-113.4759759,0.005190706811845303,0.010444722138345242,0.001903350930660963,-1,RTL,,,,,,ACTIVE,0.09896159172058105,0.0,0.0,0.0,12,1,15,0,17760384,128,2
1733398353.8040605,0.0,True,0.0016634694766253233,0.0019873883575201035,0.15118610858917236,-1.0,100,16.17,0,8,False,,,,0,0,3,10,0.009632731787860394,8,28.493,,39.952638,,-113.475976,False,0.23219004099519225,28.494,,39.952638,,-113.4759759,0.0,,39.952638,,-113.4759759,0.004882608074694872,0.011058284901082516,0.001956189749762416,-1,RTL,,,,,,ACTIVE,1733398353.7050989,0.01,0.0,0.0,12,1,15,0,17760384,128,2
1733398353.9037402,0.0,True,0.0017534212674945593,0.002137513132765889,0.1510891318321228,-1.0,100,16.164,0,8,False,,,,0,0,3,10,0.010111309587955475,8,28.493,,39.952638,,-113.475976,False,0.3315117839956656,28.494,,39.952638,,-113.4759759,0.001,,39.952638,,-113.4759759,0.004610931500792503,0.011770493350923061,0.0020755603909492493,-1,RTL,,,,,,ACTIVE,0.19864130020141602,0.01,0.0,0.0,12,1,15,0,17760384,128,2
1733398354.0126357,0.0,True,0.0019059963524341583,0.0019773205276578665,0.15101125836372375,-1.0,100,16.164,0,8,False,,,,0,0,3,10,0.010403098538517952,8,28.493,,39.952638,,-113.475976,False,0.4424789080003393,28.494,,39.952638,,-113.4759759,0.001,,39.952638,,-113.4759759,0.004289350006729364,0.01298870611935854,0.002326801186427474,-1,RTL,,,,,,ACTIVE,1733398353.8139944,0.01,0.0,0.0,12,1,15,0,17760384,128,2
1733398354.1151495,0.0,True,0.0018851413624361157,0.0019340150756761432,0.1510097235441208,-1.0,99,16.158,0,8,False,,,,0,0,3,10,0.010840989649295807,8,28.493,,39.952638,,-113.475976,False,0.539968728000531,28.494,,39.952638,,-113.4759759,0.001,,39.952638,,-113.4759759,0.004166506230831146,0.014353839680552483,0.0026420187205076218,-1,RTL,,,,,,ACTIVE,0.30115509033203125,0.0,0.0,0.0,12,1,15,0,17760384,128,2
1733398354.2161422,0.0,True,0.0019332726951688528,0.0019822120666503906,0.15136109292507172,-1.0,99,16.158,0,8,False,,,,0,0,3,10,0.011291179805994034,8,28.493,,39.952638,,-113.475976,False,0.6423714839984314,28.495,,39.952638,,-113.4759759,0.001,,39.952638,,-113.4759759,0.003929085563868284,0.01559449452906847,0.00297011760994792,-1,RTL,,,,,,ACTIVE,1733398353.914987,0.01,0.0,0.0,12,1,15,0,17760384,128,2
1733398354.3186662,0.0,True,0.0022156154736876488,0.0020373514853417873,0.15196621417999268,-1.0,99,16.152,0,8,False,,,,0,0,3,10,0.01326320506632328,8,28.493,,39.952638,,-113.475976,False,0.7485039499952109,28.495,,39.952638,,-113.4759759,0.002,,39.952638,,-113.4759759,0.0034508302342146635,0.017040180042386055,0.0033166352659463882,-1,RTL,,,,,,ACTIVE,0.40367913246154785,0.01,0.0,0.0,12,1,15,0,17760384,128,2
1733398354.418276,0.0,True,0.0023267462383955717,0.002157088601961732,0.15226680040359497,-1.0,99,16.152,0,8,False,,,,0,0,3,10,0.01376906968653202,8,28.493,,39.952638,,-113.475976,False,0.8480181489940151,28.496,,39.952638,,-113.4759758,0.002,,39.952638,,-113.4759758,0.003124295035377145,0.018060335889458656,0.003517923876643181,-1,RTL,,,,,,ACTIVE,1733398354.014597,0.01,0.0,0.0,12,1,15,0,17760384,128,2
1733398354.5188856,0.0,True,0.0024299337528645992,0.0023819131311029196,0.15231935679912567,-1.0,99,16.146,0,8,False,,,,0,0,3,10,0.013970818370580673,8,28.493,,39.952638,,-113.475976,False,0.9487676110002212,28.496,,39.952638,,-113.4759758,0.002,,39.952638,,-113.4759758,0.0027551811654120684,0.018921909853816032,0.003632620209828019,-1,RTL,,,,,,ACTIVE,0.5042886734008789,0.0,0.0,0.0,12,1,15,0,17760384,128,2
1733398354.619247,0.0,True,0.0025264807045459747,0.002365813124924898,0.15248768031597137,-1.0,99,16.143,0,8,False,,,,0,0,3,10,0.012963342480361462,8,28.493,,39.952638,,-113.475976,False,0.01646126499690581,28.496,,39.952638,,-113.4759758,0.003,,39.952638,,-113.4759758,0.0025296323001384735,0.019337836652994156,0.0035187103785574436,-1,RTL,,,,,,ACTIVE,1733398354.1149583,0.0,0.0,0.0,12,1,15,0,17760384,128,2
1733398354.7164626,0.0,True,0.0025263135321438313,0.0024625209625810385,0.15247675776481628,-1.0,99,16.14,0,8,False,,,,0,0,3,10,0.013975520618259907,8,28.493,,39.952638,,-113.475976,False,0.008967127003415953,28.496,,39.952638,,-113.4759758,0.003,,39.952638,,-113.4759758,0.002171936444938183,0.019640695303678513,0.003146273549646139,-1,RTL,,,,,,ACTIVE,0.6015043258666992,0.0,0.01,0.0,12,1,15,0,17760384,128,2
1733398354.8223126,0.0,True,0.002694297581911087,0.002418427960947156,0.15222398936748505,-1.0,99,16.14,0,8,False,,,,0,0,3,10,0.013957075774669647,8,28.493,,39.952638,,-113.475976,False,0.11647572099900572,28.497,,39.952638,,-113.4759758,0.003,,39.952638,,-113.4759758,0.0018388067837804556,0.01984226517379284,0.0024667433463037014,-1,RTL,,,,,,ACTIVE,1733398354.2208083,0.0,0.01,0.0,12,1,15,0,17760384,128,2
1733398354.9241168,0.0,True,0.002748540136963129,0.002506982535123825,0.15249209105968475,-1.0,99,16.14,0,8,False,,,,0,0,3,10,0.014793762937188148,8,28.493,,39.952638,,-113.475976,False,0.21820674500486348,28.497,,39.952638,,-113.4759758,0.004,,39.952638,,-113.4759758,0.0016712461365386844,0.019936587661504745,0.0020260673481971025,-1,RTL,,,,,,ACTIVE,0.7033085823059082,0.0,0.01,0.0,12,1,15,0,17760384,128,2
1733398355.024213,0.0,True,0.0029707089997828007,0.002566243289038539,0.15273745357990265,-1.0,98,16.134,0,8,False,,,,0,0,3,10,0.015103033743798733,8,28.493,,39.952638,,-113.475976,False,0.3157422869990114,28.497,,39.952638,,-113.4759758,0.004,,39.952638,,-113.4759758,0.0015561939217150211,0.020214617252349854,0.0016612561885267496,-1,RTL,,,,,,ACTIVE,1733398354.3209045,0.0,0.01,0.0,12,1,15,0,17760384,128,2
1733398355.1244237,0.0,True,0.0030852726195007563,0.0026133565697818995,0.15284404158592224,-1.0,98,16.134,0,8,False,,,,0,0,3,10,0.016390226781368256,8,28.493,,39.952638,,-113.475976,False,0.41796852800325723,28.497,,39.952638,,-113.4759758,0.004,,39.952638,,-113.4759758,0.0014839987270534039,0.02083701267838478,0.0011816949117928743,-1,RTL,,,,,,ACTIVE,0.8035192489624023,0.0,0.01,0.0,12,1,15,0,17760384,128,2
1733398355.2247536,0.0,True,0.0029834159649908543,0.00250939535908401,0.1528492271900177,-1.0,98,16.128,0,8,False,,,,0,0,3,10,0.016763033345341682,8,28.493,,39.952638,,-113.475976,False,0.5157817060025991,28.497,,39.952638,,-113.4759758,0.004,,39.952638,,-113.4759758,0.0013585751876235008,0.021747037768363953,0.0006094139534980059,-1,RTL,,,,,,ACTIVE,1733398354.4212344,0.0,0.01,0.0,12,1,15,0,17760384,128,2
1733398355.324666,0.0,True,0.003202818101271987,0.0024193990975618362,0.15300889313220978,-1.0,98,16.128,0,8,False,,,,0,0,3,10,0.016659913584589958,8,28.493,,39.952638,,-113.475976,False,0.6188733599992702,28.497,,39.952638,,-113.4759758,0.004,,39.952638,,-113.4759758,0.0013375135604292154,0.022502098232507706,0.00016851615509949625,-1,RTL,,,,,,ACTIVE,0.9034316539764404,0.0,0.01,0.0,12,1,15,0,17760384,128,2
1733398355.4248176,0.0,True,0.003311836626380682,0.002583980094641447,0.15278354287147522,-1.0,98,16.122,0,8,False,,,,0,0,3,10,0.01746816746890545,8,28.493,,39.952638,,-113.475976,False,0.7189753050042782,28.497,,39.9526379,,-113.4759758,0.004,,39.9526379,,-113.4759758,0.001389182754792273,0.023111747577786446,-0.0002570896758697927,-1,RTL,,,,,,ACTIVE,1733398354.521386,0.0,0.01,0.0,12,1,15,0,17760384,128,2
1733398355.5248823,0.0,True,0.0035360411275178194,0.0024945205077528954,0.1530354917049408,-1.0,98,16.122,0,8,False,,,,0,0,3,10,0.015786636620759964,8,28.493,,39.952638,,-113.475976,False,0.818368594002095,28.497,,39.9526379,,-113.4759758,0.004,,39.9526379,,-113.4759758,0.0014806443359702826,0.023232202976942062,-0.0006408048793673515,-1,RTL,,,,,,ACTIVE,1.0034964084625244,0.0,0.01,0.0,12,1,15,0,17760384,128,2
1733398355.6268651,0.0,True,0.0035904233809560537,0.002706100232899189,0.15296266973018646,-1.0,97,16.116,0,8,False,,,,0,0,3,10,0.01613377220928669,8,28.493,,39.952638,,-113.475976,False,0.9204142400049022,28.497,,39.9526379,,-113.4759758,0.004,,39.9526379,,-113.4759758,0.0015605762600898743,0.02309609390795231,-0.0011365721002221107,-1,RTL,,,,,,ACTIVE,1733398354.6233687,0.0,0.01,0.0,12,1,15,0,17760384,128,2
1733398355.728271,0.0,True,0.003752126358449459,0.0027911271899938583,0.15325093269348145,-1.0,97,16.113,0,8,False,,,,0,0,3,10,0.014555440284311771,8,28.493,,39.952638,,-113.475976,False,0.017730515995936003,28.497,,39.9526379,,-113.4759758,0.004,,39.9526379,,-113.4759758,0.00161685177590698,0.022786006331443787,-0.0016282808501273394,-1,RTL,,,,,,ACTIVE,1.1049022674560547,0.0,0.01,0.0,12,1,15,0,17760384,128,2
1733398355.8301384,0.0,True,0.003848533844575286,0.0025581801310181618,0.15339189767837524,-1.0,97,16.11,0,8,False,,,,0,0,3,10,0.013219940476119518,8,28.493,,39.952638,,-113.475976,False,0.009433993000129703,28.497,,39.9526379,,-113.4759758,0.004,,39.9526379,,-113.4759758,0.001668411074206233,0.022254908457398415,-0.0023212723899632692,-1,RTL,,,,,,ACTIVE,1733398354.7252362,0.0,0.01,0.0,12,1,15,0,17760384,128,2
1733398355.9302108,0.0,True,0.003779660677537322,0.0025809011422097683,0.15386134386062622,-1.0,97,16.11,0,8,False,,,,0,0,3,10,0.012735402211546898,8,28.493,,39.952638,,-113.475976,False,0.11276307600201108,28.497,,39.9526379,,-113.4759758,0.004,,39.9526379,,-113.4759758,0.0016559924697503448,0.021707549691200256,-0.0031103170476853848,-1,RTL,,,,,,ACTIVE,1.20497465133667,0.0,0.01,0.0,12,1,15,0,17760384,128,2
1733398356.031035,0.0,True,0.004079955164343119,0.002715340116992593,0.15413141250610352,-1.0,97,16.11,0,8,False,,,,0,0,3,10,0.013349564746022224,8,28.493,,39.952638,,-113.475976,False,0.21369589600362815,28.497,,39.9526379,,-113.4759758,0.003,,39.9526379,,-113.4759758,0.0017724685603752732,0.02135043777525425,-0.003801910672336817,-1,RTL,,,,,,ACTIVE,1733398354.8260603,0.0,0.01,0.0,12,1,15,0,17760384,128,2
1733398356.131106,0.0,True,0.004072071518748999,0.002675172407180071,0.15415190160274506,-1.0,97,16.104,0,8,False,,,,0,0,3,10,0.012673950754106045,8,28.493,,39.952638,,-113.475976,False,0.31190844099910464,28.497,,39.9526379,,-113.4759758,0.003,,39.9526379,,-113.4759758,0.0019358557183295488,0.021137459203600883,-0.004348608199506998,-1,RTL,,,,,,ACTIVE,1.3050456047058105,0.0,0.01,0.0,12,1,15,0,17760384,128,2
1733398356.2312913,0.0,True,0.004115034360438585,0.0032433727756142616,0.15447622537612915,-1.0,97,16.104,0,8,False,,,,0,0,3,10,0.013571908697485924,8,28.493,,39.952638,,-113.475976,False,0.4135252090054564,28.496,,39.9526379,,-113.4759758,0.003,,39.9526379,,-113.4759758,0.002192346379160881,0.020677676424384117,-0.0048788757994771,-1,RTL,,,,,,ACTIVE,1733398354.9262457,0.0,0.01,0.0,12,1,15,0,17760384,128,2
1733398356.333015,0.0,True,0.004304626025259495,0.003158291568979621,0.15453825891017914,-1.0,96,16.098,0,8,False,,,,0,0,3,10,0.01358691044151783,8,28.493,,39.952638,,-113.475976,False,0.516315000000759,28.496,,39.9526379,,-113.4759758,0.003,,39.9526379,,-113.4759758,0.002605153014883399,0.020074188709259033,-0.005318287294358015,-1,RTL,,,,,,ACTIVE,1.4067692756652832,0.0,0.01,0.0,12,1,15,0,17760384,128,2
1733398356.4314787,0.0,True,0.004248134326189756,0.0029437688644975424,0.15438301861286163,-1.0,96,16.098,0,8,False,,,,0,0,3,10,0.011975232511758804,8,28.493,,39.952638,,-113.475976,False,0.613458696003363,28.496,,39.9526379,,-113.4759758,0.002,,39.9526379,,-113.4759758,0.002791339997202158,0.019391855224967003,-0.005784019362181425,-1,RTL,,,,,,ACTIVE,1733398355.0247095,0.0,0.0,0.0,12,1,15,0,17760384,128,2
1733398356.531674,0.0,True,0.0043638600036501884,0.0028979347553104162,0.15431296825408936,-1.0,96,16.092,0,8,False,,,,0,0,3,10,0.011644026264548302,8,28.493,,39.952638,,-113.475976,False,0.7132845349988202,28.496,,39.9526379,,-113.4759758,0.002,,39.9526379,,-113.4759758,0.0028721767012029886,0.018618334084749222,-0.006329481024295092,-1,RTL,,,,,,ACTIVE,1.5069644451141357,0.0,0.0,0.0,12,1,15,0,17760384,128,2
1733398356.6317413,0.0,True,0.004185644909739494,0.002757082926109433,0.15401208400726318,-1.0,96,16.092,0,8,False,,,,0,0,3,10,0.013024596497416496,8,28.493,,39.952638,,-113.475976,False,0.8136407339989091,28.496,,39.9526379,,-113.4759758,0.002,,39.9526379,,-113.4759758,0.002862807596102357,0.0180096123367548,-0.006680005695670843,-1,RTL,,,,,,ACTIVE,1733398355.1247768,-0.01,0.0,0.0,12,1,15,0,17760384,128,2
1733398356.732474,0.0,True,0.003981124609708786,0.0029130433686077595,0.1537422388792038,-1.0,96,16.086,0,8,False,,,,0,0,3,10,0.013772076927125454,8,28.493,,39.952638,,-113.475976,False,0.9160153449993231,28.496,,39.9526379,,-113.4759758,0.003,,39.9526379,,-113.4759758,0.0026145249139517546,0.017221305519342422,-0.006921696476638317,-1,RTL,,,,,,ACTIVE,1.6076972484588623,0.0,0.0,0.0,12,1,15,0,17760384,128,2
1733398356.8321116,0.0,True,0.0041518197394907475,0.002868869574740529,0.153486430644989,-1.0,96,16.083,0,8,False,,,,0,0,3,10,0.015173394232988358,8,28.493,,39.952638,,-113.475976,False,0.008700691003468819,28.496,,39.9526379,,-113.4759759,0.003,,39.9526379,,-113.4759759,0.0021878667175769806,0.016513364389538765,-0.007132455240935087,-1,RTL,,,,,,ACTIVE,1733398355.2244143,-0.01,0.0,0.0,12,1,15,0,17760384,128,2
1733398356.9332235,0.0,True,0.004009595140814781,0.003123421687632799,0.15346919000148773,-1.0,96,16.08,0,8,False,,,,0,0,3,10,0.016784165054559708,8,28.493,,39.952638,,-113.475976,False,0.0045778499988955446,28.497,,39.9526379,,-113.4759759,0.004,,39.9526379,,-113.4759759,0.0015878977719694376,0.01591339521110058,-0.007531182374805212,-1,RTL,,,,,,ACTIVE,1.7088091373443604,-0.01,0.01,0.0,12,1,15,0,17760384,128,2
1733398357.0367253,0.0,True,0.004101641941815615,0.003113899612799287,0.15365532040596008,-1.0,96,16.08,0,8,False,,,,0,0,3,10,0.016784165054559708,8,28.493,,39.952638,,-113.475976,False,0.10697837400221033,28.498,,39.9526379,,-113.4759759,0.004,,39.9526379,,-113.4759759,0.0010540534276515245,0.015670180320739746,-0.0080121960490942,-1,RTL,,,,,,ACTIVE,1733398355.3279161,-0.01,0.01,0.0,12,1,15,0,17760384,128,2
1733398357.1376376,0.0,True,0.003901014570146799,0.0029450482688844204,0.1539284735918045,-1.0,96,16.08,0,8,False,,,,0,0,3,10,0.018533537164330482,8,28.493,,39.952638,,-113.475976,False,0.2095433549984591,28.498,,39.9526379,,-113.4759759,0.005,,39.9526379,,-113.4759759,0.0002250448742415756,0.015700623393058777,-0.008650206960737705,-1,RTL,,,,,,ACTIVE,1.8097214698791504,-0.01,0.01,0.0,12,1,15,0,17760384,128,2
1733398357.239747,0.0,True,0.003775285556912422,0.002797748427838087,0.15417808294296265,-1.0,95,16.074,0,8,False,,,,0,0,3,10,0.018880289047956467,8,28.493,,39.952638,,-113.475976,False,0.3114393689975259,28.499,,39.9526379,,-113.4759759,0.006,,39.9526379,,-113.4759759,-0.00041917533962987363,0.01594816893339157,-0.009059871546924114,-1,RTL,,,,,,ACTIVE,1733398355.4300256,-0.01,0.01,0.0,12,1,15,0,17760384,128,2
1733398357.3412256,0.0,True,0.0040664286352694035,0.0029547119047492743,0.15441405773162842,-1.0,95,16.074,0,8,False,,,,0,0,3,10,0.020618591457605362,8,28.493,,39.952638,,-113.475976,False,0.408850852996693,28.5,,39.9526379,,-113.4759759,0.006,,39.9526379,,-113.4759759,-0.0010777361458167434,0.016382426023483276,-0.009625366888940334,-1,RTL,,,,,,ACTIVE,1.9112000465393066,-0.01,0.01,0.0,12,1,15,0,17760384,128,2
1733398357.4422548,0.0,True,0.00389847788028419,0.002725016325712204,0.15473632514476776,-1.0,95,16.068,0,8,False,,,,0,0,3,10,0.021147584542632103,8,28.493,,39.952638,,-113.475976,False,0.511460542002169,28.5,,39.9526379,,-113.4759759,0.007,,39.9526379,,-113.4759759,-0.0014625209150835872,0.01674983836710453,-0.009974314831197262,-1,RTL,,,,,,ACTIVE,1733398355.5310547,-0.01,0.01,0.0,12,1,15,0,17760384,128,2
1733398357.542218,0.0,True,0.004086224362254143,0.0024967093486338854,0.15455691516399384,-1.0,95,16.068,0,8,False,,,,0,0,3,10,0.019200395792722702,8,28.493,,39.952638,,-113.475976,False,0.6140066369989654,28.501,,39.9526379,,-113.4759759,0.007,,39.9526379,,-113.4759759,-0.0019179316004738212,0.016848569735884666,-0.010127397254109383,-1,RTL,,,,,,ACTIVE,2.0111632347106934,-0.01,0.01,0.0,12,1,15,0,17760384,128,2
1733398357.6443467,0.0,True,0.004135800991207361,0.002532539889216423,0.15474797785282135,-1.0,95,16.062,0,8,False,,,,0,0,3,10,0.018886491656303406,8,28.493,,39.952638,,-113.475976,False,0.7163260929955868,28.501,,39.9526379,,-113.4759759,0.007,,39.9526379,,-113.4759759,-0.0022747765760868788,0.016900260001420975,-0.009959901683032513,-1,RTL,,,,,,ACTIVE,1733398355.6331835,-0.01,0.01,0.0,12,1,15,0,17760384,128,2
1733398357.744687,0.0,True,0.004032434895634651,0.002407880499958992,0.15506072342395782,-1.0,95,16.062,0,8,False,,,,0,0,3,10,0.018586723133921623,8,28.493,,39.952638,,-113.475976,False,0.8132811179966666,28.501,,39.9526379,,-113.4759759,0.008,,39.9526379,,-113.4759759,-0.002598921302706003,0.017045656219124794,-0.009725397452712059,-1,RTL,,,,,,ACTIVE,2.1115036010742188,-0.01,0.01,0.0,12,1,15,0,17760384,128,2
1733398357.8447452,0.0,True,0.004106699023395777,0.0023414436727762222,0.15493640303611755,-1.0,94,16.056,0,8,False,,,,0,0,3,10,0.019881615415215492,8,28.493,,39.952638,,-113.475976,False,0.9161282119966927,28.501,,39.9526379,,-113.4759759,0.008,,39.9526379,,-113.4759759,-0.002704201266169548,0.01700129173696041,-0.009680712595582008,-1,RTL,,,,,,ACTIVE,1733398355.7332416,-0.01,0.01,0.0,12,1,15,0,17760384,128,2
1733398357.944778,0.0,True,0.004248462617397308,0.0024836179800331593,0.15475724637508392,-1.0,94,16.053,0,8,False,,,,0,0,3,10,0.02016610838472843,8,28.493,,39.952638,,-113.475976,False,0.00464614799420815,28.501,,39.9526379,,-113.4759759,0.008,,39.9526379,,-113.4759759,-0.002605573507025838,0.016945520415902138,-0.009756923653185368,-1,RTL,,,,,,ACTIVE,2.211536407470703,-0.01,0.01,0.0,12,1,15,0,17760384,128,2
1733398358.0470743,0.0,True,0.004592150915414095,0.002566753653809428,0.1545713096857071,-1.0,94,16.05,0,8,False,,,,0,0,3,10,0.02036803960800171,8,28.493,,39.952638,,-113.475976,False,0.002953395996883046,28.501,,39.9526379,,-113.4759759,0.007,,39.9526379,,-113.4759759,-0.0022059588227421045,0.016905035823583603,-0.009887846186757088,-1,RTL,,,,,,ACTIVE,1733398355.835538,-0.01,0.01,0.0,12,1,15,0,17760384,128,2
1733398358.1474044,0.0,True,0.004716701339930296,0.0029050600714981556,0.15489152073860168,-1.0,94,16.05,0,8,False,,,,0,0,3,10,0.02036803960800171,8,28.493,,39.952638,,-113.475976,False,0.10229818600055296,28.501,,39.9526379,,-113.4759759,0.007,,39.9526379,,-113.4759759,-0.001957000931724906,0.01701764576137066,-0.009877920150756836,-1,RTL,,,,,,ACTIVE,2.311866521835327,-0.01,0.01,0.0,12,1,15,0,17760384,128,2
1733398358.2481396,0.0,True,0.004880138672888279,0.0027352271135896444,0.15479668974876404,-1.0,94,16.05,0,8,False,,,,0,0,3,10,0.02040361426770687,8,28.493,,39.952638,,-113.475976,False,0.2049282759980997,28.501,,39.9526379,,-113.4759758,0.007,,39.9526379,,-113.4759758,-0.0020081759430468082,0.017227405682206154,-0.009798807092010975,-1,RTL,,,,,,ACTIVE,1733398355.936273,-0.01,0.01,0.0,12,1,15,0,17760384,128,2
1733398358.3476615,0.0,True,0.004355632234364748,0.0026095202192664146,0.15473560988903046,-1.0,94,16.044,0,8,False,,,,0,0,3,10,0.020805733278393745,8,28.493,,39.952638,,-113.475976,False,0.30220776300120633,28.501,,39.9526379,,-113.4759758,0.007,,39.9526379,,-113.4759758,-0.0020650848746299744,0.017230696976184845,-0.009575397707521915,-1,RTL,,,,,,ACTIVE,2.411388397216797,-0.01,0.01,0.0,12,1,15,0,17760384,128,2
1733398358.4483712,0.0,True,0.004168363753706217,0.0027086951304227114,0.15469887852668762,-1.0,94,16.044,0,8,False,,,,0,0,3,10,0.01912674680352211,8,28.493,,39.952638,,-113.475976,False,0.4048684669978684,28.501,,39.9526379,,-113.4759759,0.007,,39.9526379,,-113.4759759,-0.0021262262016534805,0.016985490918159485,-0.009240961633622646,-1,RTL,,,,,,ACTIVE,1733398356.0369828,-0.01,0.01,0.0,12,1,15,0,17760384,128,2
1733398358.5481343,0.0,True,0.00447990233078599,0.002606030087918043,0.1547745019197464,-1.0,93,16.038,0,8,False,,,,0,0,3,10,0.01851346343755722,8,28.493,,39.952638,,-113.475976,False,0.5023233800020535,28.501,,39.9526379,,-113.4759759,0.007,,39.9526379,,-113.4759759,-0.002131898421794176,0.016871027648448944,-0.009004730731248856,-1,RTL,,,,,,ACTIVE,2.5111515522003174,-0.01,0.01,0.0,12,1,15,0,17760384,128,2
1733398358.6485143,0.0,True,0.004600622691214085,0.002545044058933854,0.15510158240795135,-1.0,93,16.038,0,8,False,,,,0,0,3,10,0.01898658461868763,8,28.493,,39.952638,,-113.475976,False,0.6050055430023349,28.501,,39.9526379,,-113.4759759,0.007,,39.9526379,,-113.4759759,-0.0021116475109010935,0.016920732334256172,-0.009083925746381283,-1,RTL,,,,,,ACTIVE,1733398356.1373627,-0.01,0.0,0.0,12,1,15,0,17760384,128,2
1733398358.7490888,0.0,True,0.004664754495024681,0.0025777288246899843,0.15520095825195312,-1.0,93,16.032,0,8,False,,,,0,0,3,10,0.0197591669857502,8,28.493,,39.952638,,-113.475976,False,0.702942832998815,28.501,,39.9526379,,-113.4759759,0.007,,39.9526379,,-113.4759759,-0.002058162586763501,0.017053531482815742,-0.009498816914856434,-1,RTL,,,,,,ACTIVE,2.6117260456085205,-0.01,0.01,0.0,12,1,15,0,17760384,128,2
1733398358.8522663,0.0,True,0.0047112139873206615,0.0024027798790484667,0.1554383933544159,-1.0,93,16.032,0,8,False,,,,0,0,3,10,0.020598499104380608,8,28.493,,39.952638,,-113.475976,False,0.8092365300035453,28.501,,39.9526379,,-113.4759758,0.007,,39.9526379,,-113.4759758,-0.002115055685862899,0.017451846972107887,-0.010168507695198059,-1,RTL,,,,,,ACTIVE,1733398356.2405403,-0.01,0.0,0.0,12,1,15,0,17760384,128,2
1733398358.9501965,0.0,True,0.004564604256302118,0.0025844541378319263,0.15554098784923553,-1.0,93,16.026,0,8,False,,,,0,0,3,10,0.02002675272524357,8,28.493,,39.952638,,-113.475976,False,0.9070627719993354,28.501,,39.9526379,,-113.4759758,0.007,,39.9526379,,-113.4759758,-0.002159968949854374,0.0178223829716444,-0.01091748010367155,-1,RTL,,,,,,ACTIVE,2.709656238555908,-0.01,0.0,0.0,12,1,15,0,17760384,128,2
1733398359.051057,0.0,True,0.004527822136878967,0.002621340798214078,0.1554831862449646,-1.0,92,16.023,0,8,False,,,,0,0,3,10,0.020885039120912552,8,28.493,,39.952638,,-113.475976,False,0.0015229319978971034,28.501,,39.9526378,,-113.4759758,0.007,,39.9526378,,-113.4759758,-0.002216559834778309,0.018316039815545082,-0.011684614233672619,-1,RTL,,,,,,ACTIVE,1733398356.3414009,-0.01,0.0,0.0,12,1,15,0,17760384,128,2
1733398359.1522791,0.0,True,0.0046550375409424305,0.0025977264158427715,0.15570451319217682,-1.0,92,16.023,0,8,False,,,,0,0,3,10,0.020885039120912552,8,28.493,,39.952638,,-113.475976,False,0.1025964610016672,28.501,,39.9526378,,-113.4759758,0.007,,39.9526378,,-113.4759758,-0.0022108678240329027,0.018891429528594017,-0.012191585265100002,-1,RTL,,,,,,ACTIVE,2.810878276824951,-0.01,0.0,0.0,12,1,15,0,17760384,128,2
1733398359.2524428,0.0,True,0.004628571681678295,0.002689894987270236,0.1557415872812271,-1.0,92,16.02,0,8,False,,,,0,0,3,10,0.020135613158345222,8,28.493,,39.952638,,-113.475976,False,0.09382272000220837,28.501,,39.9526378,,-113.4759758,0.007,,39.9526378,,-113.4759758,-0.0020612929947674274,0.019820887595415115,-0.012554598972201347,-1,RTL,,,,,,ACTIVE,1733398356.4415646,-0.01,0.01,0.0,12,1,15,0,17760384,128,2
1733398359.3530002,0.0,True,0.004690950736403465,0.0029358910396695137,0.15579745173454285,-1.0,92,16.02,0,8,False,,,,0,0,3,10,0.02465478889644146,8,28.493,,39.952638,,-113.475976,False,0.19643154000368668,28.501,,39.9526378,,-113.4759758,0.007,,39.9526378,,-113.4759758,-0.001947058830410242,0.020627953112125397,-0.012875397689640522,-1,RTL,,,,,,ACTIVE,2.911435604095459,-0.02,0.01,0.0,12,1,15,0,17760384,128,2
1733398359.4527853,0.0,True,0.004854215309023857,0.003082871437072754,0.15603064000606537,-1.0,92,16.014,0,8,False,,,,0,0,3,10,0.026368461549282074,8,28.493,,39.952638,,-113.475976,False,0.2940665850037476,28.5,,39.9526378,,-113.4759758,0.007,,39.9526378,,-113.4759758,-0.0018638040637597442,0.021187633275985718,-0.013109012506902218,-1,RTL,,,,,,ACTIVE,1733398356.5413496,-0.02,0.01,0.0,12,1,15,0,17760384,128,2
1733398359.5527492,0.0,True,0.00481819175183773,0.0028574622701853514,0.15611882507801056,-1.0,92,16.014,0,8,False,,,,0,0,3,10,0.027117036283016205,8,28.493,,39.952638,,-113.475976,False,0.3957948990064324,28.5,,39.9526378,,-113.4759758,0.007,,39.9526378,,-113.4759758,-0.0018715054029598832,0.021915491670370102,-0.01324954628944397,-1,RTL,,,,,,ACTIVE,3.011399507522583,-0.02,0.01,0.0,12,1,15,0,17760384,128,2
1733398359.6534336,0.0,True,0.00501889968290925,0.00290117459371686,0.1562223881483078,-1.0,92,16.008,0,8,False,,,,0,0,3,10,0.02598881535232067,8,28.493,,39.952638,,-113.475976,False,0.49870654200640274,28.501,,39.9526378,,-113.4759758,0.007,,39.9526378,,-113.4759758,-0.0021201258059591055,0.022239146754145622,-0.013155645690858364,-1,RTL,,,,,,ACTIVE,1733398356.642034,-0.02,0.01,0.0,12,1,15,0,17760384,128,2
1733398359.7534807,0.0,True,0.00505009014159441,0.0029681134037673473,0.1562383621931076,-1.0,92,16.008,0,8,False,,,,0,0,3,10,0.02593810111284256,8,28.493,,39.952638,,-113.475976,False,0.595802198004094,28.501,,39.9526378,,-113.4759758,0.008,,39.9526378,,-113.4759758,-0.0025158582720905542,0.02233171835541725,-0.013055220246315002,-1,RTL,,,,,,ACTIVE,3.1114466190338135,-0.02,0.01,0.0,12,1,15,0,17760384,128,2
1733398359.8545358,0.0,True,0.004871854558587074,0.0025739185512065887,0.15619774162769318,-1.0,91,16.002,0,8,False,,,,0,0,3,10,0.025446143001317978,8,28.493,,39.952638,,-113.475976,False,0.6996041480015265,28.502,,39.9526378,,-113.4759758,0.008,,39.9526378,,-113.4759758,-0.0028619663789868355,0.022227758541703224,-0.013104619458317757,-1,RTL,,,,,,ACTIVE,1733398356.7430892,-0.02,0.01,0.0,12,1,15,0,17760384,128,2
1733398359.9580762,0.0,True,0.00500745652243495,0.0025514219887554646,0.1564720720052719,-1.0,91,16.002,0,8,False,,,,0,0,3,10,0.025003645569086075,8,28.493,,39.952638,,-113.475976,False,0.8001542620040709,28.502,,39.9526378,,-113.4759758,0.008,,39.9526378,,-113.4759758,-0.0033228248357772827,0.02186339534819126,-0.013243385590612888,-1,RTL,,,,,,ACTIVE,3.21498703956604,-0.02,0.01,0.0,12,1,15,0,17760384,128,2
1733398360.058498,0.0,True,0.004885884467512369,0.0025847009383141994,0.1566360741853714,-1.0,91,15.996,0,8,False,,,,0,0,3,10,0.026308784261345863,8,28.493,,39.952638,,-113.475976,False,0.9026242820036714,28.502,,39.9526378,,-113.4759758,0.009,,39.9526378,,-113.4759758,-0.003724151523783803,0.021490879356861115,-0.01343066617846489,-1,RTL,,,,,,ACTIVE,1733398356.8435109,-0.02,0.01,0.0,12,1,15,0,17760384,128,2
1733398360.159634,0.0,True,0.004879041574895382,0.002752274041995406,0.15707097947597504,-1.0,91,15.996,0,8,False,,,,0,0,3,10,0.026308784261345863,8,28.493,,39.952638,,-113.475976,False,1.005011959001422,28.503,,39.9526378,,-113.4759758,0.009,,39.9526378,,-113.4759758,-0.00391708267852664,0.02098940499126911,-0.0136314257979393,-1,RTL,,,,,,ACTIVE,3.3161232471466064,-0.02,0.01,0.0,12,1,15,0,17760384,128,2
1733398360.2597802,0.0,True,0.004706510342657566,0.0029415409080684185,0.15714429318904877,-1.0,91,15.993,0,8,False,,,,0,0,3,10,0.02568630874156952,9,28.493,,39.952638,,-113.475976,False,0.09067230499931611,28.503,,39.9526378,,-113.4759758,0.009,,39.9526378,,-113.4759758,-0.0041543953120708466,0.019989367574453354,-0.013970613479614258,-1,RTL,,,,,,ACTIVE,1733398356.943657,-0.02,0.0,0.0,12,1,15,0,17760384,128,2
1733398360.3600512,0.0,True,0.004725216422230005,0.0029915005434304476,0.15736085176467896,-1.0,91,15.99,0,8,False,,,,0,0,3,10,0.025260234251618385,9,28.493,,39.952638,,-113.475976,False,0.08470743699581362,28.503,,39.9526378,,-113.4759758,0.01,,39.9526378,,-113.4759758,-0.004366902634501457,0.019191358238458633,-0.014027523808181286,-1,RTL,,,,,,ACTIVE,3.4163942337036133,-0.02,0.0,0.0,12,1,15,0,17760384,128,2
1733398360.4597933,0.0,True,0.0045711281709373,0.0029055504128336906,0.1573588103055954,-1.0,91,15.99,0,8,False,,,,0,0,3,10,0.02419019304215908,9,28.493,,39.952638,,-113.475976,False,0.18230110799777322,28.503,,39.9526378,,-113.4759758,0.01,,39.9526378,,-113.4759758,-0.0047121248207986355,0.018458452075719833,-0.014183534309267998,-1,RTL,,,,,,ACTIVE,1733398357.043399,-0.02,0.0,0.0,12,1,15,0,17760384,128,2
1733398360.56013,0.0,True,0.004587797448039055,0.002841537818312645,0.15727154910564423,-1.0,90,15.984,0,8,False,,,,0,0,3,10,0.024718336760997772,9,28.493,,39.952638,,-113.475976,False,0.28472425999643747,28.504,,39.9526378,,-113.4759758,0.01,,39.9526378,,-113.4759758,-0.00515981949865818,0.01810484193265438,-0.014458660036325455,-1,RTL,,,,,,ACTIVE,3.516730785369873,-0.02,0.0,0.0,12,1,15,0,17760384,128,2
1733398360.662055,0.0,True,0.004432073328644037,0.0030891846399754286,0.15728332102298737,-1.0,90,15.984,0,8,False,,,,0,0,3,10,0.0251537524163723,9,28.493,,39.952638,,-113.475976,False,0.3869629279943183,28.504,,39.9526378,,-113.4759758,0.011,,39.9526378,,-113.4759758,-0.005798147991299629,0.017885077744722366,-0.014925803057849407,-1,RTL,,,,,,ACTIVE,1733398357.1453242,-0.02,0.0,0.0,12,1,15,0,17760384,128,2
1733398360.7624912,0.0,True,0.004568576347082853,0.0031955167651176453,0.15705645084381104,-1.0,90,15.978,0,8,False,,,,0,0,3,10,0.025578690692782402,9,28.493,,39.952638,,-113.475976,False,0.48513835400081007,28.505,,39.9526378,,-113.4759758,0.011,,39.9526378,,-113.4759758,-0.006260834634304047,0.01772773638367653,-0.015297199599444866,-1,RTL,,,,,,ACTIVE,3.6171669960021973,-0.02,0.0,0.0,12,1,15,0,17760384,128,2
1733398360.8637094,0.0,True,0.004792202264070511,0.0030088024213910103,0.15703919529914856,-1.0,90,15.978,0,8,False,,,,0,0,3,10,0.025766700506210327,8,28.493,,39.952638,,-113.475976,False,0.5865521890009404,28.505,,39.9526378,,-113.4759758,0.012,,39.9526378,,-113.4759758,-0.006676004733890295,0.017684917896986008,-0.015492483973503113,-1,RTL,,,,,,ACTIVE,1733398357.2465425,-0.02,0.01,0.0,12,1,15,0,17760384,128,2
1733398360.9629157,0.0,True,0.004843118134886026,0.003009835258126259,0.15705792605876923,-1.0,90,15.972,0,8,False,,,,0,0,3,10,0.02619406208395958,8,28.493,,39.952638,,-113.475976,False,0.6848750189965358,28.506,,39.9526378,,-113.4759758,0.012,,39.9526378,,-113.4759758,-0.006955999415367842,0.0177026204764843,-0.01550472155213356,-1,RTL,,,,,,ACTIVE,3.7163732051849365,-0.02,0.01,0.0,12,1,15,0,17760384,128,2
1733398361.062848,0.0,True,0.0046850512735545635,0.0032210219651460648,0.1573498398065567,-1.0,90,15.972,0,8,False,,,,0,0,3,10,0.024650633335113525,9,28.493,,39.952638,,-113.475976,False,0.7866987489978783,28.506,,39.9526378,,-113.4759758,0.012,,39.9526378,,-113.4759758,-0.007315557450056076,0.017811285331845284,-0.015221726149320602,-1,RTL,,,,,,ACTIVE,1733398357.346475,-0.02,0.01,0.0,12,1,15,0,17760384,128,2
1733398361.16614,0.0,True,0.0045604463666677475,0.003099389374256134,0.15743660926818848,-1.0,89,15.966,0,8,False,,,,0,0,3,10,0.02444964274764061,9,28.493,,39.952638,,-113.475976,False,0.8918342260003556,28.506,,39.9526378,,-113.4759758,0.013,,39.9526378,,-113.4759758,-0.007356214802712202,0.018057744950056076,-0.01508665457367897,-1,RTL,,,,,,ACTIVE,3.8196651935577393,-0.02,0.01,0.0,12,1,15,0,17760384,128,2
1733398361.264284,0.0,True,0.004717748146504164,0.00317821791395545,0.15713977813720703,-1.0,89,15.966,0,8,False,,,,0,0,3,10,0.02444964274764061,9,28.493,,39.952638,,-113.475976,False,0.9868382259955979,28.506,,39.9526378,,-113.4759758,0.012,,39.9526378,,-113.4759758,-0.0071087428368628025,0.018401004374027252,-0.015123376622796059,-1,RTL,,,,,,ACTIVE,1733398357.4446187,-0.02,0.01,0.0,12,1,15,0,17760384,128,2
1733398361.3660567,0.0,True,0.005043032579123974,0.003230484202504158,0.157460555434227,-1.0,89,15.963,0,8,False,,,,0,0,3,10,0.024965867400169373,9,28.493,,39.952638,,-113.475976,False,0.08417126599670155,28.505,,39.9526378,,-113.4759758,0.012,,39.9526378,,-113.4759758,-0.006645102985203266,0.018775513395667076,-0.015139138326048851,-1,RTL,,,,,,ACTIVE,3.921437978744507,-0.02,0.01,0.0,12,1,15,0,17760384,128,2
1733398361.4664295,0.0,True,0.004806576296687126,0.0033441546838730574,0.15767058730125427,-1.0,89,15.96,0,8,False,,,,0,0,3,10,0.02335386909544468,9,28.493,,39.952638,,-113.475976,False,0.08073871399392374,28.505,,39.9526378,,-113.4759758,0.011,,39.9526378,,-113.4759758,-0.005787099711596966,0.019131870940327644,-0.015109359286725521,-1,RTL,,,,,,ACTIVE,1733398357.5449915,-0.02,0.01,0.0,12,1,15,0,17760384,128,2
1733398361.5669012,0.0,True,0.004685952793806791,0.002954027382656932,0.15743359923362732,-1.0,89,15.96,0,8,False,,,,0,0,3,10,0.022609300911426544,9,28.493,,39.952638,,-113.475976,False,0.1782975859969156,28.503,,39.9526378,,-113.4759758,0.01,,39.9526378,,-113.4759758,-0.0049025616608560085,0.019373776391148567,-0.014986604452133179,-1,RTL,,,,,,ACTIVE,4.021909713745117,-0.01,0.01,0.0,12,1,15,0,17760384,128,2
1733398361.6663723,0.0,True,0.004887680057436228,0.002883218228816986,0.1573297083377838,-1.0,89,15.954,0,8,False,,,,0,0,3,10,0.022275015711784363,9,28.493,,39.952638,,-113.475976,False,0.2801694759982638,28.503,,39.9526378,,-113.4759758,0.009,,39.9526378,,-113.4759758,-0.0039266920648515224,0.01953178085386753,-0.014926948584616184,-1,RTL,,,,,,ACTIVE,1733398357.6444626,-0.02,0.0,0.0,12,1,15,0,17760384,128,2
1733398361.7671263,0.0,True,0.005033597815781832,0.0027596435975283384,0.15743184089660645,-1.0,89,15.954,0,8,False,,,,0,0,3,10,0.022811604663729668,9,28.493,,39.952638,,-113.475976,False,0.37872474899631925,28.502,,39.9526378,,-113.4759758,0.008,,39.9526378,,-113.4759758,-0.0033312721643596888,0.019753120839595795,-0.014776741154491901,-1,RTL,,,,,,ACTIVE,4.122663736343384,-0.02,0.0,0.0,12,1,15,0,17760384,128,2
1733398361.8687377,0.0,True,0.004736157599836588,0.002792725572362542,0.1574840545654297,-1.0,88,15.948,0,8,False,,,,0,0,3,10,0.022714979946613312,9,28.493,,39.952638,,-113.475976,False,0.4835327539985883,28.502,,39.9526378,,-113.4759758,0.008,,39.9526378,,-113.4759758,-0.002995084272697568,0.019829504191875458,-0.014451264403760433,-1,RTL,,,,,,ACTIVE,1733398357.746074,-0.02,0.0,0.0,12,1,15,0,17760384,128,2
1733398361.9690275,0.0,True,0.0047059813514351845,0.002699333243072033,0.15752406418323517,-1.0,88,15.948,0,8,False,,,,0,0,3,10,0.020414313301444054,9,28.493,,39.952638,,-113.475976,False,0.5834255879963166,28.502,,39.9526378,,-113.4759758,0.008,,39.9526378,,-113.4759758,-0.0029444084502756596,0.019746288657188416,-0.014063859358429909,-1,RTL,,,,,,ACTIVE,4.22295355796814,-0.01,0.0,0.0,12,1,15,0,17760384,128,2
1733398362.0701253,0.0,True,0.004657480865716934,0.00291768042370677,0.15758202970027924,-1.0,88,15.942,0,8,False,,,,0,0,3,10,0.019284607842564583,9,28.493,,39.952638,,-113.475976,False,0.6849947230002726,28.502,,39.9526378,,-113.4759758,0.008,,39.9526378,,-113.4759758,-0.0029902306850999594,0.01973344199359417,-0.013660655356943607,-1,RTL,,,,,,ACTIVE,1733398357.8471718,-0.01,0.0,0.0,12,1,15,0,17760384,128,2
1733398362.1716619,0.0,True,0.004790161270648241,0.0031539893243461847,0.15773873031139374,-1.0,88,15.942,0,8,False,,,,0,0,3,10,0.02008846215903759,9,28.493,,39.952638,,-113.475976,False,0.7831567299945164,28.502,,39.9526378,,-113.4759758,0.008,,39.9526378,,-113.4759758,-0.0029884318355470896,0.01992093399167061,-0.01345035806298256,-1,RTL,,,,,,ACTIVE,4.324490070343018,-0.01,0.0,0.0,12,1,15,0,17760384,128,2
1733398362.2699654,0.0,True,0.0047180866822600365,0.0030931266956031322,0.1577203869819641,-1.0,88,15.942,0,8,False,,,,0,0,3,10,0.020275741815567017,9,28.493,,39.952638,,-113.475976,False,0.8848819929989986,28.502,,39.9526378,,-113.4759758,0.008,,39.9526378,,-113.4759758,-0.003028435865417123,0.02044660970568657,-0.013304181396961212,-1,RTL,,,,,,ACTIVE,1733398357.9454753,-0.01,0.0,0.0,12,1,15,0,17760384,128,2
1733398362.3698444,0.0,True,0.004528206307440996,0.002763347001746297,0.15769535303115845,-1.0,88,15.936,0,8,False,,,,0,0,3,10,0.020330598577857018,9,28.493,,39.952638,,-113.475976,False,0.9828978929945151,28.502,,39.9526378,,-113.4759758,0.008,,39.9526378,,-113.4759758,-0.002990484004840255,0.020817669108510017,-0.013188316486775875,-1,RTL,,,,,,ACTIVE,4.4243690967559814,-0.01,0.0,0.0,12,1,15,0,17760384,128,2
1733398362.4705522,0.0,True,0.00464927963912487,0.0023397719487547874,0.15786010026931763,-1.0,87,15.933,0,8,False,,,,0,0,3,10,0.020319199189543724,9,28.493,,39.952638,,-113.475976,False,0.06923153400566662,28.502,,39.9526378,,-113.4759758,0.008,,39.9526378,,-113.4759758,-0.0030363318510353565,0.02084771730005741,-0.013160955160856247,-1,RTL,,,,,,ACTIVE,1733398358.046183,-0.01,0.0,0.0,12,1,15,0,17760384,128,2
1733398362.5696433,0.0,True,0.004504624754190445,0.002508537145331502,0.1579163670539856,-1.0,87,15.93,0,8,False,,,,0,0,3,10,0.020382780581712723,9,28.493,,39.952638,,-113.475976,False,0.057546506002836395,28.502,,39.9526378,,-113.4759758,0.008,,39.9526378,,-113.4759758,-0.0030792085453867912,0.02073841169476509,-0.013491284102201462,-1,RTL,,,,,,ACTIVE,4.523460149765015,-0.01,0.0,0.0,12,1,15,0,17760384,128,2
1733398362.6727157,0.0,True,0.004745315294712782,0.0024306827690452337,0.15794287621974945,-1.0,87,15.93,0,8,False,,,,0,0,3,10,0.02222365513443947,9,28.493,,39.952638,,-113.475976,False,0.16051411999796983,28.502,,39.9526378,,-113.4759758,0.008,,39.9526378,,-113.4759758,-0.0032840545754879713,0.020464755594730377,-0.014185747131705284,-1,RTL,,,,,,ACTIVE,1733398358.1492555,-0.01,0.0,0.0,12,1,15,0,17760384,128,2
1733398362.7698758,0.0,True,0.004543476738035679,0.0023910850286483765,0.15792083740234375,-1.0,87,15.924,0,8,False,,,,0,0,3,10,0.021077442914247513,9,28.493,,39.952638,,-113.475976,False,0.2578851799989934,28.502,,39.9526378,,-113.4759758,0.009,,39.9526378,,-113.4759758,-0.0036057017277926207,0.020138604566454887,-0.014733313582837582,-1,RTL,,,,,,ACTIVE,4.620620250701904,-0.01,0.0,0.0,12,1,15,0,17760384,128,2
1733398362.8730538,0.0,True,0.004822203423827887,0.002361259888857603,0.15769213438034058,-1.0,87,15.924,0,8,False,,,,0,0,3,10,0.020544249564409256,9,28.493,,39.952638,,-113.475976,False,0.3600733659986872,28.503,,39.9526378,,-113.4759758,0.009,,39.9526378,,-113.4759758,-0.004054647870361805,0.019744127988815308,-0.015290379524230957,-1,RTL,,,,,,ACTIVE,1733398358.2524335,-0.01,0.0,0.0,12,1,15,0,17760384,128,2
1733398362.973366,0.0,True,0.004841073881834745,0.0025897312443703413,0.15788012742996216,-1.0,87,15.918,0,8,False,,,,0,0,3,10,0.020391246303915977,9,28.493,,39.952638,,-113.475976,False,0.4625319719998515,28.503,,39.9526378,,-113.4759758,0.01,,39.9526378,,-113.4759758,-0.004656659904867411,0.019380610436201096,-0.015768948942422867,-1,RTL,,,,,,ACTIVE,4.720932483673096,-0.01,0.0,0.0,12,1,15,0,17760384,128,2
1733398363.074413,0.0,True,0.004814093001186848,0.002562357112765312,0.15778778493404388,-1.0,87,15.918,0,8,False,,,,0,0,3,10,0.020152892917394638,9,28.493,,39.952638,,-113.475976,False,0.5644318030026625,28.504,,39.9526378,,-113.4759758,0.011,,39.9526378,,-113.4759758,-0.005476160906255245,0.0192063357681036,-0.016305796802043915,-1,RTL,,,,,,ACTIVE,1733398358.3534806,-0.01,0.0,0.0,12,1,15,0,17760384,128,2
1733398363.1742535,0.0,True,0.004889748524874449,0.0030298917554318905,0.15798375010490417,-1.0,87,15.918,0,8,False,,,,0,0,3,10,0.020152892917394638,9,28.493,,39.952638,,-113.475976,False,0.6628532070026267,28.505,,39.9526378,,-113.4759758,0.011,,39.9526378,,-113.4759758,-0.006216003559529781,0.019086457788944244,-0.01667090132832527,-1,RTL,,,,,,ACTIVE,4.820772886276245,-0.02,0.0,0.0,12,1,15,0,17760384,128,2
1733398363.2749128,0.0,True,0.0049081407487392426,0.0029415928293019533,0.1580638438463211,-1.0,86,15.912,0,8,False,,,,0,0,3,10,0.022260447964072227,9,28.493,,39.952638,,-113.475976,False,0.765041876999021,28.506,,39.9526378,,-113.4759758,0.012,,39.9526378,,-113.4759758,-0.007172578480094671,0.019126782193779945,-0.017104290425777435,-1,RTL,,,,,,ACTIVE,1733398358.45414,-0.02,0.0,0.0,12,1,15,0,17760384,128,2
1733398363.3751395,0.0,True,0.00485257338732481,0.002758074551820755,0.15805234014987946,-1.0,86,15.912,0,8,False,,,,0,0,3,10,0.023042872548103333,9,28.493,,39.952638,,-113.475976,False,0.8629311350014177,28.507,,39.9526378,,-113.4759758,0.013,,39.9526378,,-113.4759758,-0.007974219508469105,0.019394641742110252,-0.01732974499464035,-1,RTL,,,,,,ACTIVE,4.920999526977539,-0.01,0.01,0.0,12,1,15,0,17760384,128,2
1733398363.4761949,0.0,True,0.004922457970678806,0.0026748261880129576,0.15808086097240448,-1.0,86,15.906,0,8,False,,,,0,0,3,10,0.022434275597333908,9,28.493,,39.952638,,-113.475976,False,0.9654578600020614,28.507,,39.9526378,,-113.4759758,0.014,,39.9526378,,-113.4759758,-0.00860760360956192,0.019710075110197067,-0.017500948160886765,-1,RTL,,,,,,ACTIVE,1733398358.5551953,-0.02,0.0,0.0,12,1,15,0,17760384,128,2
1733398363.5787394,0.0,True,0.004540182650089264,0.002881946275010705,0.15820327401161194,-1.0,86,15.903,0,8,False,,,,0,0,3,10,0.022689377889037132,9,28.493,,39.952638,,-113.475976,False,0.06280078700365266,28.508,,39.9526378,,-113.4759758,0.014,,39.9526378,,-113.4759758,-0.008918576873838902,0.019961966201663017,-0.017679430544376373,-1,RTL,,,,,,ACTIVE,5.023544073104858,-0.01,0.0,0.0,12,1,15,0,17760384,128,2
1733398363.676102,0.0,True,0.004409910645335913,0.0027834875509142876,0.15822318196296692,-1.0,86,15.9,0,8,False,,,,0,0,3,10,0.021428415551781654,9,28.493,,39.952638,,-113.475976,False,0.05358924300526269,28.508,,39.9526378,,-113.4759758,0.014,,39.9526378,,-113.4759758,-0.009232847020030022,0.020135121420025826,-0.017773056402802467,-1,RTL,,,,,,ACTIVE,1733398358.6525578,-0.01,0.0,0.0,12,1,15,0,17760384,128,2
1733398363.7771704,0.0,True,0.003950006794184446,0.002740433206781745,0.15848895907402039,-1.0,86,15.9,0,8,False,,,,0,0,3,10,0.022524375468492508,9,28.493,,39.952638,,-113.475976,False,0.15623229800257832,28.508,,39.9526378,,-113.4759758,0.015,,39.9526378,,-113.4759758,-0.009507261216640472,0.020160885527729988,-0.01774570718407631,-1,RTL,,,,,,ACTIVE,5.12461256980896,-0.02,0.01,0.0,12,1,15,0,17760384,128,2
1733398363.876278,0.0,True,0.0037172685842961073,0.0028429385274648666,0.15847177803516388,-1.0,88,16.2,0,8,False,,,,0,0,3,10,0.02187497727572918,9,28.493,,39.952638,,-113.475976,False,0.25351801800570684,28.508,,39.9526378,,-113.4759758,0.015,,39.9526378,,-113.4759758,-0.009760419838130474,0.02018456906080246,-0.017569029703736305,-1,RTL,,,,,,ACTIVE,1733398358.7516654,-0.01,0.0,0.0,12,1,15,0,17760384,128,2
1733398363.9769797,0.0,True,0.003779929131269455,0.0029682908207178116,0.15859587490558624,-1.0,88,16.2,0,8,False,,,,0,0,3,10,0.020168613642454147,9,28.493,,39.952638,,-113.475976,False,0.35613686900614994,28.509,,39.9526378,,-113.4759758,0.015,,39.9526378,,-113.4759758,-0.009999443776905537,0.019892044365406036,-0.01725720427930355,-1,RTL,,,,,,ACTIVE,5.225314378738403,-0.01,0.0,0.0,12,1,15,0,17760384,128,2
1733398364.0777822,0.0,True,0.0036108156200498343,0.0029676335398107767,0.1587871015071869,-1.0,90,16.2,0,8,False,,,,0,0,3,10,0.01890181563794613,9,28.493,,39.952638,,-113.475976,False,0.4559557910033618,28.509,,39.9526378,,-113.4759758,0.015,,39.9526378,,-113.4759758,-0.01019198913127184,0.01944556087255478,-0.01639300212264061,-1,RTL,,,,,,ACTIVE,1733398358.8524678,-0.01,0.0,0.0,12,1,15,0,17760384,128,2
1733398364.177326,0.0,True,0.0036391071043908596,0.003038545837625861,0.15902885794639587,-1.0,90,16.2,0,8,False,,,,0,0,3,10,0.01890181563794613,9,28.493,,39.952638,,-113.475976,False,0.5559687690038118,28.509,,39.9526378,,-113.4759758,0.015,,39.9526378,,-113.4759758,-0.010204417631030083,0.019174642860889435,-0.015522167086601257,-1,RTL,,,,,,ACTIVE,5.32485818862915,-0.01,0.0,0.0,12,1,15,0,17760384,128,2
1733398364.2774022,0.0,True,0.003346402198076248,0.003142216010019183,0.1592736542224884,-1.0,90,16.2,0,8,False,,,,0,0,3,10,0.01806751824915409,9,28.493,,39.952638,,-113.475976,False,0.6537865070058615,28.509,,39.9526378,,-113.4759758,0.015,,39.9526378,,-113.4759758,-0.010083766654133797,0.018986022099852562,-0.01457463763654232,-1,RTL,,,,,,ACTIVE,1733398358.952544,-0.01,0.0,0.0,12,1,15,0,17760384,128,2
1733398364.3775713,0.0,True,0.0032243786845356226,0.0030094878748059273,0.15907134115695953,-1.0,92,16.2,0,8,False,,,,0,0,3,10,0.016866974532604218,9,28.493,,39.952638,,-113.475976,False,0.7556570950036985,28.509,,39.9526378,,-113.4759758,0.015,,39.9526378,,-113.4759758,-0.009862834587693214,0.018734922632575035,-0.013736722990870476,-1,RTL,,,,,,ACTIVE,5.425027370452881,-0.01,0.0,0.0,12,1,15,0,17760384,128,2
1733398364.4781835,0.0,True,0.0033011522609740496,0.0029131905175745487,0.15876854956150055,-1.0,92,16.2,0,8,False,,,,0,0,3,10,0.016263501718640327,9,28.493,,39.952638,,-113.475976,False,0.8543131300029927,28.508,,39.9526378,,-113.4759758,0.015,,39.9526378,,-113.4759758,-0.009558910503983498,0.018569279462099075,-0.013243116438388824,-1,RTL,,,,,,ACTIVE,1733398359.0531561,-0.01,0.0,0.0,12,1,15,0,17760384,128,2
1733398364.577818,0.0,True,0.003075840650126338,0.0027728374116122723,0.1588292121887207,-1.0,94,16.2,0,8,False,,,,0,0,3,10,0.016461703926324844,9,28.493,,39.952638,,-113.475976,False,0.9555704910017084,28.508,,39.9526378,,-113.4759758,0.014,,39.9526378,,-113.4759758,-0.009107758291065693,0.018317321315407753,-0.012958076782524586,-1,RTL,,,,,,ACTIVE,5.5246617794036865,-0.01,0.0,0.0,12,1,15,0,17760384,128,2
